Time,header.seq,header.stamp.secs,header.stamp.nsecs,header.frame_id,status.status,status.service,latitude,longitude,altitude,position_covariance_0,position_covariance_1,position_covariance_2,position_covariance_3,position_covariance_4,position_covariance_5,position_covariance_6,position_covariance_7,position_covariance_8,position_covariance_type
1704339705.069395,302629,1704339704,999530831,ublox_gps,2,15,48.4985788,-39.13776529789422,108.735,0.00019600000000000002,0.0,0.0,0.0,0.00019600000000000002,0.0,0.0,0.0,0.0001,2
1704339705.2743306,302630,1704339705,199530779,ublox_gps,2,15,48.4985806,-39.13776669789422,108.732,0.00019600000000000002,0.0,0.0,0.0,0.00019600000000000002,0.0,0.0,0.0,0.0001,2
1704339705.4653854,302631,1704339705,399530728,ublox_gps,2,15,48.4985825,-39.13776809789422,108.741,0.00019600000000000002,0.0,0.0,0.0,0.00019600000000000002,0.0,0.0,0.0,0.0001,2
1704339705.6649632,302632,1704339705,599530678,ublox_gps,2,15,48.4985843,-39.13776959789422,108.744,0.00019600000000000002,0.0,0.0,0.0,0.00019600000000000002,0.0,0.0,0.0,0.0001,2
1704339705.8623178,302633,1704339705,799530627,ublox_gps,2,15,48.4985862,-39.13777089789422,108.748,0.00019600000000000002,0.0,0.0,0.0,0.00019600000000000002,0.0,0.0,0.0,0.0001,2
1704339706.0718403,302634,1704339705,999530577,ublox_gps,2,15,48.4985881,-39.137772297894216,108.751,0.00019600000000000002,0.0,0.0,0.0,0.00019600000000000002,0.0,0.0,0.0,0.0001,2
1704339706.2653675,302635,1704339706,199530525,ublox_gps,2,15,48.49859,-39.13777369789422,108.754,0.00019600000000000002,0.0,0.0,0.0,0.00019600000000000002,0.0,0.0,0.0,0.0001,2
1704339706.463216,302636,1704339706,399530474,ublox_gps,2,15,48.4985919,-39.13777509789422,108.761,0.00019600000000000002,0.0,0.0,0.0,0.00019600000000000002,0.0,0.0,0.0,0.0001,2
1704339706.668269,302637,1704339706,599530424,ublox_gps,2,15,48.498593799999995,-39.13777649789422,108.758,0.00019600000000000002,0.0,0.0,0.0,0.00019600000000000002,0.0,0.0,0.0,0.0001,2
1704339706.8625634,302638,1704339706,799530373,ublox_gps,2,15,48.4985958,-39.13777789789422,108.758,0.00019600000000000002,0.0,0.0,0.0,0.00019600000000000002,0.0,0.0,0.0,0.0001,2
1704339707.0663955,302639,1704339706,999530323,ublox_gps,2,15,48.4985977,-39.13777929789422,108.761,0.00019600000000000002,0.0,0.0,0.0,0.00019600000000000002,0.0,0.0,0.0,0.0001,2
1704339707.2680707,302640,1704339707,199530271,ublox_gps,2,15,48.4985996,-39.13778059789422,108.766,0.00019600000000000002,0.0,0.0,0.0,0.00019600000000000002,0.0,0.0,0.0,0.0001,2
1704339707.4665928,302641,1704339707,399530221,ublox_gps,2,15,48.4986015,-39.13778189789422,108.771,0.00019600000000000002,0.0,0.0,0.0,0.00019600000000000002,0.0,0.0,0.0,0.0001,2
1704339707.6626198,302642,1704339707,599530170,ublox_gps,2,15,48.498603499999994,-39.137783197894215,108.772,0.00019600000000000002,0.0,0.0,0.0,0.00019600000000000002,0.0,0.0,0.0,0.0001,2
1704339707.8615797,302643,1704339707,799530119,ublox_gps,2,15,48.4986055,-39.13778439789422,108.778,0.00019600000000000002,0.0,0.0,0.0,0.00019600000000000002,0.0,0.0,0.0,0.0001,2
1704339708.0680494,302644,1704339707,999530069,ublox_gps,2,15,48.4986075,-39.137785697894216,108.775,0.00019600000000000002,0.0,0.0,0.0,0.00019600000000000002,0.0,0.0,0.0,0.0001,2
1704339708.2692313,302645,1704339708,199530018,ublox_gps,2,15,48.4986095,-39.13778679789422,108.775,0.00019600000000000002,0.0,0.0,0.0,0.00019600000000000002,0.0,0.0,0.0,0.0001,2
1704339708.46429,302646,1704339708,399529967,ublox_gps,2,15,48.4986116,-39.13778789789422,108.769,0.00019600000000000002,0.0,0.0,0.0,0.00019600000000000002,0.0,0.0,0.0,0.0001,2
1704339708.6956835,302647,1704339708,599529916,ublox_gps,2,15,48.4986137,-39.13778889789422,108.761,0.00019600000000000002,0.0,0.0,0.0,0.00019600000000000002,0.0,0.0,0.0,0.0001,2
1704339708.8593588,302648,1704339708,799529865,ublox_gps,2,15,48.498615799999996,-39.13778959789422,108.765,0.00019600000000000002,0.0,0.0,0.0,0.00019600000000000002,0.0,0.0,0.0,0.0001,2
1704339709.0683498,302649,1704339708,999529815,ublox_gps,2,15,48.4986179,-39.13779019789422,108.763,0.00019600000000000002,0.0,0.0,0.0,0.00019600000000000002,0.0,0.0,0.0,0.0001,2
1704339709.2643926,302650,1704339709,199529764,ublox_gps,2,15,48.4986201,-39.13779069789422,108.763,0.00019600000000000002,0.0,0.0,0.0,0.00019600000000000002,0.0,0.0,0.0,0.0001,2
1704339709.4616714,302651,1704339709,399529713,ublox_gps,2,15,48.498622399999995,-39.13779099789422,108.776,0.00019600000000000002,0.0,0.0,0.0,0.00019600000000000002,0.0,0.0,0.0,0.0001,2
1704339709.6616008,302652,1704339709,599529662,ublox_gps,2,15,48.4986246,-39.13779129789422,108.772,0.00019600000000000002,0.0,0.0,0.0,0.00019600000000000002,0.0,0.0,0.0,0.0001,2
1704339709.863584,302653,1704339709,799529611,ublox_gps,2,15,48.498626699999996,-39.13779119789422,108.771,0.00019600000000000002,0.0,0.0,0.0,0.00019600000000000002,0.0,0.0,0.0,0.0001,2
1704339710.0672884,302654,1704339709,999529562,ublox_gps,2,15,48.4986288,-39.13779089789422,108.767,0.00019600000000000002,0.0,0.0,0.0,0.00019600000000000002,0.0,0.0,0.0,0.0001,2
1704339710.2651465,302655,1704339710,199529510,ublox_gps,2,15,48.498630999999996,-39.13779059789422,108.776,0.00019600000000000002,0.0,0.0,0.0,0.00019600000000000002,0.0,0.0,0.0,0.0001,2
1704339710.4650438,302656,1704339710,399529459,ublox_gps,2,15,48.4986332,-39.13779009789422,108.78,0.00019600000000000002,0.0,0.0,0.0,0.00019600000000000002,0.0,0.0,0.0,0.0001,2
1704339710.6616013,302657,1704339710,599529408,ublox_gps,2,15,48.498635199999995,-39.13778919789422,108.778,0.00019600000000000002,0.0,0.0,0.0,0.00019600000000000002,0.0,0.0,0.0,0.0001,2
1704339710.8644338,302658,1704339710,799529358,ublox_gps,2,15,48.498637099999996,-39.13778859789422,108.788,0.00019600000000000002,0.0,0.0,0.0,0.00019600000000000002,0.0,0.0,0.0,0.0001,2
1704339711.071249,302659,1704339710,999529308,ublox_gps,2,15,48.498639,-39.137787497894216,108.785,0.00019600000000000002,0.0,0.0,0.0,0.00019600000000000002,0.0,0.0,0.0,0.0001,2
1704339711.2656639,302660,1704339711,199529256,ublox_gps,2,15,48.498641,-39.13778649789422,108.774,0.00019600000000000002,0.0,0.0,0.0,0.00019600000000000002,0.0,0.0,0.0,0.0001,2
1704339711.4613595,302661,1704339711,399529205,ublox_gps,2,15,48.498643,-39.13778559789422,108.766,0.00019600000000000002,0.0,0.0,0.0,0.00019600000000000002,0.0,0.0,0.0,0.0001,2
1704339711.670247,302662,1704339711,599529155,ublox_gps,2,15,48.4986451,-39.13778479789422,108.762,0.00019600000000000002,0.0,0.0,0.0,0.00019600000000000002,0.0,0.0,0.0,0.0001,2
1704339711.8604362,302663,1704339711,799529104,ublox_gps,2,15,48.4986463,-39.137784497894216,108.765,0.00019600000000000002,0.0,0.0,0.0,0.00019600000000000002,0.0,0.0,0.0,0.0001,2
1704339712.0682487,302664,1704339711,999529054,ublox_gps,2,15,48.498646799999996,-39.13778419789422,108.774,0.00019600000000000002,0.0,0.0,0.0,0.00019600000000000002,0.0,0.0,0.0,0.0001,2
1704339712.2650409,302665,1704339712,199529002,ublox_gps,2,15,48.4986477,-39.13778419789422,108.769,0.00019600000000000002,0.0,0.0,0.0,0.00019600000000000002,0.0,0.0,0.0,0.0001,2
1704339712.4630558,302666,1704339712,399528952,ublox_gps,2,15,48.498648499999994,-39.13778389789422,108.763,0.00019600000000000002,0.0,0.0,0.0,0.00019600000000000002,0.0,0.0,0.0,0.0001,2
1704339712.6674156,302667,1704339712,599528901,ublox_gps,2,15,48.498649199999996,-39.13778369789422,108.757,0.00019600000000000002,0.0,0.0,0.0,0.00019600000000000002,0.0,0.0,0.0,0.00012099999999999999,2
1704339712.8623748,302668,1704339712,799528850,ublox_gps,2,15,48.49865,-39.13778359789422,108.759,0.00019600000000000002,0.0,0.0,0.0,0.00019600000000000002,0.0,0.0,0.0,0.000144,2
1704339713.0673287,302669,1704339712,999528800,ublox_gps,2,15,48.4986509,-39.13778349789422,108.753,0.00019600000000000002,0.0,0.0,0.0,0.00019600000000000002,0.0,0.0,0.0,0.00012099999999999999,2
1704339713.26426,302670,1704339713,199528749,ublox_gps,2,15,48.498651699999996,-39.13778349789422,108.754,0.00019600000000000002,0.0,0.0,0.0,0.00019600000000000002,0.0,0.0,0.0,0.000144,2
1704339713.4642086,302671,1704339713,399528698,ublox_gps,2,15,48.4986525,-39.13778329789422,108.755,0.00019600000000000002,0.0,0.0,0.0,0.00019600000000000002,0.0,0.0,0.0,0.00012099999999999999,2
1704339713.6656127,302672,1704339713,599528647,ublox_gps,2,15,48.4986533,-39.137783197894215,108.752,0.00019600000000000002,0.0,0.0,0.0,0.00019600000000000002,0.0,0.0,0.0,0.0001,2
1704339713.8650863,302673,1704339713,799528597,ublox_gps,2,15,48.498654099999996,-39.13778309789422,108.749,0.00019600000000000002,0.0,0.0,0.0,0.00019600000000000002,0.0,0.0,0.0,0.0001,2
1704339714.0765905,302674,1704339713,999528547,ublox_gps,2,15,48.4986549,-39.13778289789422,108.749,0.00019600000000000002,0.0,0.0,0.0,0.00019600000000000002,0.0,0.0,0.0,0.00012099999999999999,2
1704339714.2608685,302675,1704339714,199528495,ublox_gps,2,15,48.498655799999995,-39.13778289789422,108.74600000000001,0.00019600000000000002,0.0,0.0,0.0,0.00019600000000000002,0.0,0.0,0.0,0.00012099999999999999,2
1704339714.4702811,302676,1704339714,399528444,ublox_gps,2,15,48.4986566,-39.13778279789422,108.754,0.00019600000000000002,0.0,0.0,0.0,0.00019600000000000002,0.0,0.0,0.0,0.00012099999999999999,2
1704339714.6942222,302677,1704339714,599528394,ublox_gps,2,15,48.498657599999994,-39.13778289789422,108.75,0.00019600000000000002,0.0,0.0,0.0,0.00019600000000000002,0.0,0.0,0.0,0.0001,2
1704339714.8623662,302678,1704339714,799528343,ublox_gps,2,15,48.4986584,-39.13778289789422,108.744,0.00019600000000000002,0.0,0.0,0.0,0.00019600000000000002,0.0,0.0,0.0,0.0001,2
1704339715.0644917,302679,1704339714,999528293,ublox_gps,2,15,48.4986592,-39.13778269789422,108.762,0.00019600000000000002,0.0,0.0,0.0,0.00019600000000000002,0.0,0.0,0.0,0.0001,2
1704339715.2644026,302680,1704339715,199528241,ublox_gps,2,15,48.49866,-39.13778279789422,108.751,0.00019600000000000002,0.0,0.0,0.0,0.00019600000000000002,0.0,0.0,0.0,0.0001,2
1704339715.4641728,302681,1704339715,399528191,ublox_gps,2,15,48.498660799999996,-39.13778269789422,108.755,0.00019600000000000002,0.0,0.0,0.0,0.00019600000000000002,0.0,0.0,0.0,0.0001,2
1704339715.667933,302682,1704339715,599528140,ublox_gps,2,15,48.4986616,-39.13778269789422,108.758,0.00019600000000000002,0.0,0.0,0.0,0.00019600000000000002,0.0,0.0,0.0,0.0001,2
1704339715.8630033,302683,1704339715,799528089,ublox_gps,2,15,48.498662499999995,-39.13778269789422,108.76,0.00019600000000000002,0.0,0.0,0.0,0.00019600000000000002,0.0,0.0,0.0,0.0001,2
1704339716.0684762,302684,1704339715,999528039,ublox_gps,2,15,48.4986633,-39.137782597894216,108.755,0.00019600000000000002,0.0,0.0,0.0,0.00019600000000000002,0.0,0.0,0.0,0.0001,2
1704339716.2636442,302685,1704339716,199527988,ublox_gps,2,15,48.4986641,-39.137782597894216,108.758,0.00019600000000000002,0.0,0.0,0.0,0.00019600000000000002,0.0,0.0,0.0,0.0001,2
1704339716.4685276,302686,1704339716,399527937,ublox_gps,2,15,48.498664899999994,-39.13778249789422,108.753,0.00019600000000000002,0.0,0.0,0.0,0.00019600000000000002,0.0,0.0,0.0,0.0001,2
1704339716.6652758,302687,1704339716,599527886,ublox_gps,2,15,48.4986657,-39.13778239789422,108.75,0.00019600000000000002,0.0,0.0,0.0,0.00019600000000000002,0.0,0.0,0.0,0.0001,2
1704339716.8665183,302688,1704339716,799527835,ublox_gps,2,15,48.4986665,-39.13778219789422,108.754,0.00019600000000000002,0.0,0.0,0.0,0.00019600000000000002,0.0,0.0,0.0,0.0001,2
1704339717.0771139,302689,1704339716,999527786,ublox_gps,2,15,48.498667399999995,-39.13778209789422,108.75,0.00019600000000000002,0.0,0.0,0.0,0.00019600000000000002,0.0,0.0,0.0,0.0001,2
1704339717.262936,302690,1704339717,199527734,ublox_gps,2,15,48.498668099999996,-39.13778189789422,108.752,0.00019600000000000002,0.0,0.0,0.0,0.00019600000000000002,0.0,0.0,0.0,0.0001,2
1704339717.466297,302691,1704339717,399527683,ublox_gps,2,15,48.4986688,-39.13778159789422,108.75,0.00019600000000000002,0.0,0.0,0.0,0.00019600000000000002,0.0,0.0,0.0,0.0001,2
1704339717.66239,302692,1704339717,599527632,ublox_gps,2,15,48.4986696,-39.137781397894216,108.74600000000001,0.00019600000000000002,0.0,0.0,0.0,0.00019600000000000002,0.0,0.0,0.0,0.0001,2
1704339717.8595743,302693,1704339717,799527582,ublox_gps,2,15,48.4986702,-39.13778099789422,108.738,0.00019600000000000002,0.0,0.0,0.0,0.00019600000000000002,0.0,0.0,0.0,0.0001,2
1704339718.0723178,302694,1704339717,999527532,ublox_gps,2,15,48.498671099999996,-39.13778089789422,108.735,0.00019600000000000002,0.0,0.0,0.0,0.00019600000000000002,0.0,0.0,0.0,0.0001,2
1704339718.2652795,302695,1704339718,199527480,ublox_gps,2,15,48.4986719,-39.13778059789422,108.736,0.00019600000000000002,0.0,0.0,0.0,0.00019600000000000002,0.0,0.0,0.0,0.0001,2
1704339718.4616036,302696,1704339718,399527429,ublox_gps,2,15,48.4986727,-39.13778029789422,108.741,0.00019600000000000002,0.0,0.0,0.0,0.00019600000000000002,0.0,0.0,0.0,0.0001,2
1704339718.6597466,302697,1704339718,599527379,ublox_gps,2,15,48.4986733,-39.13777989789422,108.742,0.00019600000000000002,0.0,0.0,0.0,0.00019600000000000002,0.0,0.0,0.0,0.0001,2
1704339718.8620052,302698,1704339718,799527328,ublox_gps,2,15,48.498674,-39.137779597894216,108.736,0.00019600000000000002,0.0,0.0,0.0,0.00019600000000000002,0.0,0.0,0.0,0.0001,2
1704339719.066216,302699,1704339718,999527278,ublox_gps,2,15,48.4986746,-39.13777919789422,108.747,0.00019600000000000002,0.0,0.0,0.0,0.00019600000000000002,0.0,0.0,0.0,0.0001,2
1704339719.265527,302700,1704339719,199527226,ublox_gps,2,15,48.498675299999995,-39.13777879789422,108.748,0.00019600000000000002,0.0,0.0,0.0,0.00019600000000000002,0.0,0.0,0.0,0.0001,2
1704339719.46736,302701,1704339719,399527176,ublox_gps,2,15,48.498675999999996,-39.137778397894216,108.744,0.00019600000000000002,0.0,0.0,0.0,0.00019600000000000002,0.0,0.0,0.0,0.0001,2
1704339719.6615067,302702,1704339719,599527125,ublox_gps,2,15,48.4986767,-39.13777789789422,108.74300000000001,0.00019600000000000002,0.0,0.0,0.0,0.00019600000000000002,0.0,0.0,0.0,0.0001,2
1704339719.862377,302703,1704339719,799527074,ublox_gps,2,15,48.4986776,-39.13777739789422,108.741,0.00019600000000000002,0.0,0.0,0.0,0.00019600000000000002,0.0,0.0,0.0,0.0001,2
1704339720.0663292,302704,1704339719,999527024,ublox_gps,2,15,48.4986785,-39.13777689789422,108.73400000000001,0.00019600000000000002,0.0,0.0,0.0,0.00019600000000000002,0.0,0.0,0.0,0.0001,2
1704339720.2629068,302705,1704339720,199526973,ublox_gps,2,15,48.4986794,-39.13777629789422,108.735,0.00019600000000000002,0.0,0.0,0.0,0.00019600000000000002,0.0,0.0,0.0,0.0001,2
1704339720.4664605,302706,1704339720,399526922,ublox_gps,2,15,48.49868,-39.13777569789422,108.738,0.00019600000000000002,0.0,0.0,0.0,0.00019600000000000002,0.0,0.0,0.0,0.0001,2
1704339720.6633184,302707,1704339720,599526871,ublox_gps,2,15,48.498680099999994,-39.13777509789422,108.767,0.00019600000000000002,0.0,0.0,0.0,0.00019600000000000002,0.0,0.0,0.0,0.0001,2
1704339720.8593738,302708,1704339720,799526821,ublox_gps,2,15,48.4986806,-39.13777449789422,108.768,0.00019600000000000002,0.0,0.0,0.0,0.00019600000000000002,0.0,0.0,0.0,0.0001,2
1704339721.0653467,302709,1704339720,999526771,ublox_gps,2,15,48.4986812,-39.137774097894216,108.763,0.00019600000000000002,0.0,0.0,0.0,0.00019600000000000002,0.0,0.0,0.0,0.00012099999999999999,2
1704339721.2627583,302710,1704339721,199526719,ublox_gps,2,15,48.4986817,-39.13777329789422,108.757,0.00019600000000000002,0.0,0.0,0.0,0.00019600000000000002,0.0,0.0,0.0,0.000144,2
1704339721.465447,302711,1704339721,399526668,ublox_gps,2,15,48.498682599999995,-39.13777209789422,108.744,0.00019600000000000002,0.0,0.0,0.0,0.00019600000000000002,0.0,0.0,0.0,0.00012099999999999999,2
1704339721.663525,302712,1704339721,599526618,ublox_gps,2,15,48.4986835,-39.13777079789422,108.723,0.00019600000000000002,0.0,0.0,0.0,0.00019600000000000002,0.0,0.0,0.0,0.0001,2
1704339721.863553,302713,1704339721,799526567,ublox_gps,2,15,48.498684,-39.13776979789422,108.723,0.00019600000000000002,0.0,0.0,0.0,0.00019600000000000002,0.0,0.0,0.0,0.0001,2
1704339722.0716603,302714,1704339721,999526517,ublox_gps,2,15,48.4986842,-39.13776899789422,108.736,0.00019600000000000002,0.0,0.0,0.0,0.00019600000000000002,0.0,0.0,0.0,0.0001,2
1704339722.2635605,302715,1704339722,199526466,ublox_gps,2,15,48.498685099999996,-39.13776849789422,108.73100000000001,0.00019600000000000002,0.0,0.0,0.0,0.00019600000000000002,0.0,0.0,0.0,0.0001,2
1704339722.4638996,302716,1704339722,399526415,ublox_gps,2,15,48.498686,-39.13776779789422,108.72800000000001,0.00019600000000000002,0.0,0.0,0.0,0.00019600000000000002,0.0,0.0,0.0,0.0001,2
1704339722.663702,302717,1704339722,599526364,ublox_gps,2,15,48.498687,-39.13776719789422,108.70400000000001,0.00019600000000000002,0.0,0.0,0.0,0.00019600000000000002,0.0,0.0,0.0,0.0001,2
1704339722.8645246,302718,1704339722,799526313,ublox_gps,2,15,48.4986878,-39.13776639789422,108.705,0.00019600000000000002,0.0,0.0,0.0,0.00019600000000000002,0.0,0.0,0.0,0.0001,2
1704339723.075601,302719,1704339722,999526264,ublox_gps,2,15,48.4986884,-39.13776569789422,108.715,0.00019600000000000002,0.0,0.0,0.0,0.00019600000000000002,0.0,0.0,0.0,0.0001,2
1704339723.2634354,302720,1704339723,199526212,ublox_gps,2,15,48.498689,-39.137764997894216,108.712,0.00019600000000000002,0.0,0.0,0.0,0.00019600000000000002,0.0,0.0,0.0,0.00012099999999999999,2
1704339723.4633129,302721,1704339723,399526161,ublox_gps,2,15,48.4986896,-39.13776419789422,108.70400000000001,0.00019600000000000002,0.0,0.0,0.0,0.00019600000000000002,0.0,0.0,0.0,0.000144,2
1704339723.6657147,302722,1704339723,599526110,ublox_gps,2,15,48.4986902,-39.13776329789422,108.709,0.00019600000000000002,0.0,0.0,0.0,0.00019600000000000002,0.0,0.0,0.0,0.0001,2
1704339723.860555,302723,1704339723,799526060,ublox_gps,2,15,48.4986908,-39.137762497894215,108.71300000000001,0.00019600000000000002,0.0,0.0,0.0,0.00019600000000000002,0.0,0.0,0.0,0.0001,2
1704339724.0663068,302724,1704339723,999526010,ublox_gps,2,15,48.4986913,-39.13776169789422,108.706,0.00019600000000000002,0.0,0.0,0.0,0.00019600000000000002,0.0,0.0,0.0,0.0001,2
1704339724.2644613,302725,1704339724,199525958,ublox_gps,2,15,48.498691799999996,-39.13776079789422,108.709,0.00019600000000000002,0.0,0.0,0.0,0.00019600000000000002,0.0,0.0,0.0,0.0001,2
1704339724.462652,302726,1704339724,399525907,ublox_gps,2,15,48.498692399999996,-39.13775999789422,108.70700000000001,0.00019600000000000002,0.0,0.0,0.0,0.00019600000000000002,0.0,0.0,0.0,0.0001,2
1704339724.6675673,302727,1704339724,599525856,ublox_gps,2,15,48.498692999999996,-39.13775869789422,108.752,0.00019600000000000002,0.0,0.0,0.0,0.00019600000000000002,0.0,0.0,0.0,0.0001,2
1704339724.8694677,302728,1704339724,799525806,ublox_gps,2,15,48.498693599999996,-39.13775779789422,108.758,0.00019600000000000002,0.0,0.0,0.0,0.00019600000000000002,0.0,0.0,0.0,0.0001,2
1704339725.0663154,302729,1704339724,999525756,ublox_gps,2,15,48.498694,-39.13775689789422,108.751,0.00019600000000000002,0.0,0.0,0.0,0.00019600000000000002,0.0,0.0,0.0,0.0001,2
1704339725.266138,302730,1704339725,199525704,ublox_gps,2,15,48.4986946,-39.13775609789422,108.754,0.00019600000000000002,0.0,0.0,0.0,0.00019600000000000002,0.0,0.0,0.0,0.0001,2
1704339725.4645085,302731,1704339725,399525654,ublox_gps,2,15,48.498695,-39.137755297894216,108.736,0.00019600000000000002,0.0,0.0,0.0,0.00019600000000000002,0.0,0.0,0.0,0.0001,2
1704339725.6634316,302732,1704339725,599525603,ublox_gps,2,15,48.4986955,-39.13775419789422,108.748,0.00019600000000000002,0.0,0.0,0.0,0.00019600000000000002,0.0,0.0,0.0,0.0001,2
1704339725.8637545,302733,1704339725,799525552,ublox_gps,2,15,48.4986959,-39.13775319789422,108.752,0.00019600000000000002,0.0,0.0,0.0,0.00019600000000000002,0.0,0.0,0.0,0.0001,2
1704339726.0792682,302734,1704339725,999525502,ublox_gps,2,15,48.4986964,-39.137752197894216,108.766,0.00019600000000000002,0.0,0.0,0.0,0.00019600000000000002,0.0,0.0,0.0,0.00012099999999999999,2
1704339726.2634647,302735,1704339726,199525451,ublox_gps,2,15,48.498696699999996,-39.13775119789422,108.755,0.00019600000000000002,0.0,0.0,0.0,0.00019600000000000002,0.0,0.0,0.0,0.00012099999999999999,2
1704339726.4650698,302736,1704339726,399525400,ublox_gps,2,15,48.4986971,-39.13775009789422,108.74600000000001,0.00019600000000000002,0.0,0.0,0.0,0.00019600000000000002,0.0,0.0,0.0,0.0001,2
1704339726.6662076,302737,1704339726,599525349,ublox_gps,2,15,48.4986974,-39.13774909789422,108.74600000000001,0.00019600000000000002,0.0,0.0,0.0,0.00019600000000000002,0.0,0.0,0.0,0.0001,2
1704339726.8596919,302738,1704339726,799525298,ublox_gps,2,15,48.498697799999995,-39.137747997894216,108.749,0.00019600000000000002,0.0,0.0,0.0,0.00019600000000000002,0.0,0.0,0.0,0.0001,2
1704339727.0731745,302739,1704339726,999525249,ublox_gps,2,15,48.4986981,-39.13774689789422,108.758,0.00019600000000000002,0.0,0.0,0.0,0.00019600000000000002,0.0,0.0,0.0,0.0001,2
1704339727.2682605,302740,1704339727,199525197,ublox_gps,2,15,48.498698399999995,-39.13774569789422,108.757,0.00019600000000000002,0.0,0.0,0.0,0.00019600000000000002,0.0,0.0,0.0,0.0001,2
1704339727.465207,302741,1704339727,399525146,ublox_gps,2,15,48.4986986,-39.13774479789422,108.748,0.00019600000000000002,0.0,0.0,0.0,0.00019600000000000002,0.0,0.0,0.0,0.0001,2
1704339727.6648574,302742,1704339727,599525096,ublox_gps,2,15,48.498698999999995,-39.137743697894216,108.738,0.00019600000000000002,0.0,0.0,0.0,0.00019600000000000002,0.0,0.0,0.0,0.0001,2
1704339727.8727288,302743,1704339727,799525045,ublox_gps,2,15,48.4986993,-39.137742497894216,108.74300000000001,0.00019600000000000002,0.0,0.0,0.0,0.00019600000000000002,0.0,0.0,0.0,0.0001,2
1704339728.071252,302744,1704339727,999524995,ublox_gps,2,15,48.4986995,-39.13774139789422,108.748,0.00019600000000000002,0.0,0.0,0.0,0.00019600000000000002,0.0,0.0,0.0,0.0001,2
1704339728.2664175,302745,1704339728,199524943,ublox_gps,2,15,48.4986999,-39.13774019789422,108.754,0.00019600000000000002,0.0,0.0,0.0,0.00019600000000000002,0.0,0.0,0.0,0.0001,2
1704339728.4644313,302746,1704339728,399524893,ublox_gps,2,15,48.498700199999995,-39.13773909789422,108.756,0.00019600000000000002,0.0,0.0,0.0,0.00019600000000000002,0.0,0.0,0.0,0.0001,2
1704339728.6634738,302747,1704339728,599524842,ublox_gps,2,15,48.4987004,-39.13773789789422,108.757,0.00019600000000000002,0.0,0.0,0.0,0.00019600000000000002,0.0,0.0,0.0,0.0001,2
1704339728.866157,302748,1704339728,799524791,ublox_gps,2,15,48.498700799999995,-39.13773679789422,108.757,0.00019600000000000002,0.0,0.0,0.0,0.00019600000000000002,0.0,0.0,0.0,0.0001,2
1704339729.0707898,302749,1704339728,999524741,ublox_gps,2,15,48.4987011,-39.13773559789422,108.761,0.00019600000000000002,0.0,0.0,0.0,0.00019600000000000002,0.0,0.0,0.0,0.0001,2
1704339729.2663398,302750,1704339729,199524690,ublox_gps,2,15,48.4987013,-39.13773449789422,108.766,0.00019600000000000002,0.0,0.0,0.0,0.00019600000000000002,0.0,0.0,0.0,0.0001,2
1704339729.4651465,302751,1704339729,399524639,ublox_gps,2,15,48.4987016,-39.137733397894216,108.763,0.00019600000000000002,0.0,0.0,0.0,0.00019600000000000002,0.0,0.0,0.0,0.0001,2
1704339729.6650648,302752,1704339729,599524588,ublox_gps,2,15,48.4987019,-39.137732197894216,108.769,0.00019600000000000002,0.0,0.0,0.0,0.00019600000000000002,0.0,0.0,0.0,0.0001,2
1704339729.863596,302753,1704339729,799524537,ublox_gps,2,15,48.4987022,-39.13773099789422,108.769,0.00019600000000000002,0.0,0.0,0.0,0.00019600000000000002,0.0,0.0,0.0,0.0001,2
1704339730.0762997,302754,1704339729,999524488,ublox_gps,2,15,48.4987025,-39.13772979789422,108.774,0.00019600000000000002,0.0,0.0,0.0,0.00019600000000000002,0.0,0.0,0.0,0.0001,2
1704339730.2664952,302755,1704339730,199524436,ublox_gps,2,15,48.4987029,-39.13772879789422,108.76,0.00019600000000000002,0.0,0.0,0.0,0.00019600000000000002,0.0,0.0,0.0,0.0001,2
1704339730.4617038,302756,1704339730,399524385,ublox_gps,2,15,48.4987032,-39.13772749789422,108.768,0.00019600000000000002,0.0,0.0,0.0,0.00019600000000000002,0.0,0.0,0.0,0.0001,2
1704339730.6644027,302757,1704339730,599524334,ublox_gps,2,15,48.4987034,-39.13772629789422,108.77,0.00019600000000000002,0.0,0.0,0.0,0.00019600000000000002,0.0,0.0,0.0,0.0001,2
1704339730.8634133,302758,1704339730,799524284,ublox_gps,2,15,48.4987038,-39.13772529789422,108.769,0.00019600000000000002,0.0,0.0,0.0,0.00019600000000000002,0.0,0.0,0.0,0.0001,2
1704339731.0691123,302759,1704339730,999524234,ublox_gps,2,15,48.4987041,-39.13772409789422,108.765,0.00019600000000000002,0.0,0.0,0.0,0.00019600000000000002,0.0,0.0,0.0,0.0001,2
1704339731.264373,302760,1704339731,199524182,ublox_gps,2,15,48.4987044,-39.137722997894215,108.765,0.00019600000000000002,0.0,0.0,0.0,0.00019600000000000002,0.0,0.0,0.0,0.0001,2
1704339731.4652667,302761,1704339731,399524132,ublox_gps,2,15,48.4987047,-39.13772189789422,108.765,0.00019600000000000002,0.0,0.0,0.0,0.00019600000000000002,0.0,0.0,0.0,0.0001,2
1704339731.6641068,302762,1704339731,599524081,ublox_gps,2,15,48.498705,-39.13772089789422,108.757,0.00019600000000000002,0.0,0.0,0.0,0.00019600000000000002,0.0,0.0,0.0,0.0001,2
1704339731.8652341,302763,1704339731,799524030,ublox_gps,2,15,48.4987053,-39.13771969789422,108.754,0.00019600000000000002,0.0,0.0,0.0,0.00019600000000000002,0.0,0.0,0.0,0.0001,2
1704339732.0719955,302764,1704339731,999523981,ublox_gps,2,15,48.4987056,-39.13771869789422,108.755,0.00019600000000000002,0.0,0.0,0.0,0.00019600000000000002,0.0,0.0,0.0,0.0001,2
1704339732.270673,302765,1704339732,199523929,ublox_gps,2,15,48.498706,-39.137717597894216,108.745,0.00019600000000000002,0.0,0.0,0.0,0.00019600000000000002,0.0,0.0,0.0,0.0001,2
1704339732.4683619,302766,1704339732,399523878,ublox_gps,2,15,48.498706299999995,-39.13771649789422,108.74000000000001,0.00019600000000000002,0.0,0.0,0.0,0.00019600000000000002,0.0,0.0,0.0,0.0001,2
1704339732.664935,302767,1704339732,599523827,ublox_gps,2,15,48.4987066,-39.13771539789422,108.74300000000001,0.00019600000000000002,0.0,0.0,0.0,0.00019600000000000002,0.0,0.0,0.0,0.0001,2
1704339732.8631892,302768,1704339732,799523777,ublox_gps,2,15,48.498706899999995,-39.13771439789422,108.74000000000001,0.00019600000000000002,0.0,0.0,0.0,0.00019600000000000002,0.0,0.0,0.0,0.0001,2
1704339733.0673459,302769,1704339732,999523727,ublox_gps,2,15,48.4987072,-39.137713297894216,108.738,0.00019600000000000002,0.0,0.0,0.0,0.00019600000000000002,0.0,0.0,0.0,0.0001,2
1704339733.2661562,302770,1704339733,199523675,ublox_gps,2,15,48.498707599999996,-39.137712097894216,108.732,0.00019600000000000002,0.0,0.0,0.0,0.00019600000000000002,0.0,0.0,0.0,0.0001,2
1704339733.4644115,302771,1704339733,399523625,ublox_gps,2,15,48.498708,-39.137710897894216,108.739,0.00019600000000000002,0.0,0.0,0.0,0.00019600000000000002,0.0,0.0,0.0,0.0001,2
1704339733.6661787,302772,1704339733,599523574,ublox_gps,2,15,48.4987085,-39.137709097894216,108.74600000000001,0.00019600000000000002,0.0,0.0,0.0,0.00019600000000000002,0.0,0.0,0.0,0.0001,2
1704339733.8650436,302773,1704339733,799523523,ublox_gps,2,15,48.4987092,-39.13770679789422,108.747,0.00019600000000000002,0.0,0.0,0.0,0.00019600000000000002,0.0,0.0,0.0,0.0001,2
1704339734.0764446,302774,1704339733,999523474,ublox_gps,2,15,48.498709899999994,-39.13770449789422,108.742,0.00019600000000000002,0.0,0.0,0.0,0.00019600000000000002,0.0,0.0,0.0,0.0001,2
1704339734.2702127,302775,1704339734,199523422,ublox_gps,2,15,48.498710599999995,-39.13770209789422,108.753,0.00019600000000000002,0.0,0.0,0.0,0.00019600000000000002,0.0,0.0,0.0,0.0001,2
1704339734.4665296,302776,1704339734,399523371,ublox_gps,2,15,48.4987113,-39.13769979789422,108.751,0.00019600000000000002,0.0,0.0,0.0,0.00019600000000000002,0.0,0.0,0.0,0.0001,2
1704339734.6676726,302777,1704339734,599523320,ublox_gps,2,15,48.498711899999996,-39.137697497894216,108.754,0.00019600000000000002,0.0,0.0,0.0,0.00019600000000000002,0.0,0.0,0.0,0.0001,2
1704339734.8675838,302778,1704339734,799523270,ublox_gps,2,15,48.4987126,-39.137695097894216,108.752,0.00019600000000000002,0.0,0.0,0.0,0.00019600000000000002,0.0,0.0,0.0,0.0001,2
1704339735.0793946,302779,1704339734,999523220,ublox_gps,2,15,48.4987133,-39.13769279789422,108.755,0.00019600000000000002,0.0,0.0,0.0,0.00019600000000000002,0.0,0.0,0.0,0.0001,2
1704339735.2664027,302780,1704339735,199523168,ublox_gps,2,15,48.4987139,-39.13769059789422,108.76,0.00019600000000000002,0.0,0.0,0.0,0.00019600000000000002,0.0,0.0,0.0,0.0001,2
1704339735.468094,302781,1704339735,399523118,ublox_gps,2,15,48.4987145,-39.13768819789422,108.765,0.00019600000000000002,0.0,0.0,0.0,0.00019600000000000002,0.0,0.0,0.0,0.0001,2
1704339735.6675723,302782,1704339735,599523067,ublox_gps,2,15,48.4987151,-39.137685897894215,108.768,0.00019600000000000002,0.0,0.0,0.0,0.00019600000000000002,0.0,0.0,0.0,0.0001,2
1704339735.8630447,302783,1704339735,799523016,ublox_gps,2,15,48.4987158,-39.137683497894216,108.764,0.00019600000000000002,0.0,0.0,0.0,0.00019600000000000002,0.0,0.0,0.0,0.0001,2
1704339736.0705397,302784,1704339735,999522966,ublox_gps,2,15,48.4987164,-39.13768099789422,108.767,0.00019600000000000002,0.0,0.0,0.0,0.00019600000000000002,0.0,0.0,0.0,0.0001,2
1704339736.2754521,302785,1704339736,199522915,ublox_gps,2,15,48.498717,-39.13767859789422,108.768,0.00019600000000000002,0.0,0.0,0.0,0.00019600000000000002,0.0,0.0,0.0,0.0001,2
1704339736.4650674,302786,1704339736,399522864,ublox_gps,2,15,48.4987177,-39.137676197894216,108.768,0.00019600000000000002,0.0,0.0,0.0,0.00019600000000000002,0.0,0.0,0.0,0.0001,2
1704339736.664198,302787,1704339736,599522813,ublox_gps,2,15,48.4987183,-39.137673797894216,108.771,0.00019600000000000002,0.0,0.0,0.0,0.00019600000000000002,0.0,0.0,0.0,0.0001,2
1704339736.865266,302788,1704339736,799522762,ublox_gps,2,15,48.4987188,-39.13767149789422,108.768,0.00019600000000000002,0.0,0.0,0.0,0.00019600000000000002,0.0,0.0,0.0,0.0001,2
1704339737.0700166,302789,1704339736,999522713,ublox_gps,2,15,48.4987194,-39.13766909789422,108.764,0.00019600000000000002,0.0,0.0,0.0,0.00019600000000000002,0.0,0.0,0.0,0.0001,2
1704339737.2700634,302790,1704339737,199522661,ublox_gps,2,15,48.4987201,-39.13766669789422,108.763,0.00019600000000000002,0.0,0.0,0.0,0.00019600000000000002,0.0,0.0,0.0,0.0001,2
1704339737.4679787,302791,1704339737,399522610,ublox_gps,2,15,48.4987207,-39.13766439789422,108.769,0.00019600000000000002,0.0,0.0,0.0,0.00019600000000000002,0.0,0.0,0.0,0.0001,2
1704339737.6627243,302792,1704339737,599522560,ublox_gps,2,15,48.4987213,-39.13766189789422,108.774,0.00019600000000000002,0.0,0.0,0.0,0.00019600000000000002,0.0,0.0,0.0,0.0001,2
1704339737.8718991,302793,1704339737,799522509,ublox_gps,2,15,48.4987219,-39.13765969789422,108.769,0.00019600000000000002,0.0,0.0,0.0,0.00019600000000000002,0.0,0.0,0.0,0.0001,2
1704339738.074399,302794,1704339737,999522459,ublox_gps,2,15,48.4987225,-39.137657397894216,108.767,0.00019600000000000002,0.0,0.0,0.0,0.00019600000000000002,0.0,0.0,0.0,0.0001,2
1704339738.2655487,302795,1704339738,199522407,ublox_gps,2,15,48.4987231,-39.13765519789422,108.769,0.00019600000000000002,0.0,0.0,0.0,0.00019600000000000002,0.0,0.0,0.0,0.0001,2
1704339738.4625964,302796,1704339738,399522357,ublox_gps,2,15,48.4987238,-39.13765289789422,108.772,0.00019600000000000002,0.0,0.0,0.0,0.00019600000000000002,0.0,0.0,0.0,0.0001,2
1704339738.6675024,302797,1704339738,599522306,ublox_gps,2,15,48.4987244,-39.13765059789422,108.767,0.00019600000000000002,0.0,0.0,0.0,0.00019600000000000002,0.0,0.0,0.0,0.0001,2
1704339738.865128,302798,1704339738,799522255,ublox_gps,2,15,48.498725,-39.137648297894216,108.765,0.00019600000000000002,0.0,0.0,0.0,0.00019600000000000002,0.0,0.0,0.0,0.0001,2
1704339739.073528,302799,1704339738,999522205,ublox_gps,2,15,48.498725699999994,-39.13764609789422,108.761,0.00019600000000000002,0.0,0.0,0.0,0.00019600000000000002,0.0,0.0,0.0,0.0001,2
1704339739.2722938,302800,1704339739,199522154,ublox_gps,2,15,48.4987263,-39.13764379789422,108.772,0.00019600000000000002,0.0,0.0,0.0,0.00019600000000000002,0.0,0.0,0.0,0.0001,2
1704339739.4643629,302801,1704339739,399522103,ublox_gps,2,15,48.498726999999995,-39.13764149789422,108.771,0.00019600000000000002,0.0,0.0,0.0,0.00019600000000000002,0.0,0.0,0.0,0.0001,2
1704339739.667272,302802,1704339739,599522052,ublox_gps,2,15,48.498727599999995,-39.13763919789422,108.775,0.00019600000000000002,0.0,0.0,0.0,0.00019600000000000002,0.0,0.0,0.0,0.0001,2
1704339739.865307,302803,1704339739,799522002,ublox_gps,2,15,48.498728299999996,-39.13763689789422,108.775,0.00019600000000000002,0.0,0.0,0.0,0.00019600000000000002,0.0,0.0,0.0,0.0001,2
1704339740.0853794,302804,1704339739,999521952,ublox_gps,2,15,48.498729,-39.13763459789422,108.777,0.00019600000000000002,0.0,0.0,0.0,0.00019600000000000002,0.0,0.0,0.0,0.0001,2
1704339740.2633529,302805,1704339740,199521900,ublox_gps,2,15,48.4987297,-39.13763219789422,108.779,0.00019600000000000002,0.0,0.0,0.0,0.00019600000000000002,0.0,0.0,0.0,0.0001,2
1704339740.4644465,302806,1704339740,399521849,ublox_gps,2,15,48.4987304,-39.13762979789422,108.781,0.00019600000000000002,0.0,0.0,0.0,0.00019600000000000002,0.0,0.0,0.0,0.0001,2
1704339740.6626801,302807,1704339740,599521799,ublox_gps,2,15,48.498731,-39.13762749789422,108.782,0.00019600000000000002,0.0,0.0,0.0,0.00019600000000000002,0.0,0.0,0.0,0.0001,2
1704339740.8634377,302808,1704339740,799521748,ublox_gps,2,15,48.4987317,-39.13762519789422,108.779,0.00019600000000000002,0.0,0.0,0.0,0.00019600000000000002,0.0,0.0,0.0,0.0001,2
1704339741.071595,302809,1704339740,999521698,ublox_gps,2,15,48.498732399999994,-39.13762279789422,108.78,0.00019600000000000002,0.0,0.0,0.0,0.00019600000000000002,0.0,0.0,0.0,0.0001,2
1704339741.2635114,302810,1704339741,199521646,ublox_gps,2,15,48.498732999999994,-39.13762049789422,108.784,0.00019600000000000002,0.0,0.0,0.0,0.00019600000000000002,0.0,0.0,0.0,0.0001,2
1704339741.4683368,302811,1704339741,399521596,ublox_gps,2,15,48.498733699999995,-39.13761809789422,108.784,0.00019600000000000002,0.0,0.0,0.0,0.00019600000000000002,0.0,0.0,0.0,0.0001,2
1704339741.6670716,302812,1704339741,599521545,ublox_gps,2,15,48.4987344,-39.13761579789422,108.787,0.00019600000000000002,0.0,0.0,0.0,0.00019600000000000002,0.0,0.0,0.0,0.0001,2
1704339741.8624005,302813,1704339741,799521494,ublox_gps,2,15,48.498734999999996,-39.13761339789422,108.796,0.00019600000000000002,0.0,0.0,0.0,0.00019600000000000002,0.0,0.0,0.0,0.0001,2
1704339742.0723991,302814,1704339741,999521444,ublox_gps,2,15,48.4987357,-39.13761109789422,108.796,0.00019600000000000002,0.0,0.0,0.0,0.00019600000000000002,0.0,0.0,0.0,0.0001,2
1704339742.2646565,302815,1704339742,199521393,ublox_gps,2,15,48.4987363,-39.137608697894215,108.799,0.00019600000000000002,0.0,0.0,0.0,0.00019600000000000002,0.0,0.0,0.0,0.0001,2
1704339742.462462,302816,1704339742,399521342,ublox_gps,2,15,48.498737,-39.13760639789422,108.798,0.00019600000000000002,0.0,0.0,0.0,0.00019600000000000002,0.0,0.0,0.0,0.0001,2
1704339742.6644385,302817,1704339742,599521291,ublox_gps,2,15,48.4987376,-39.13760399789422,108.805,0.00019600000000000002,0.0,0.0,0.0,0.00019600000000000002,0.0,0.0,0.0,0.0001,2
1704339742.865224,302818,1704339742,799521240,ublox_gps,2,15,48.4987383,-39.13760179789422,108.799,0.00019600000000000002,0.0,0.0,0.0,0.00019600000000000002,0.0,0.0,0.0,0.0001,2
1704339743.069264,302819,1704339742,999521191,ublox_gps,2,15,48.4987389,-39.13759939789422,108.793,0.00019600000000000002,0.0,0.0,0.0,0.00019600000000000002,0.0,0.0,0.0,0.0001,2
1704339743.2664227,302820,1704339743,199521139,ublox_gps,2,15,48.4987396,-39.13759709789422,108.796,0.00019600000000000002,0.0,0.0,0.0,0.00019600000000000002,0.0,0.0,0.0,0.0001,2
1704339743.4645998,302821,1704339743,399521088,ublox_gps,2,15,48.498740299999994,-39.137594697894215,108.801,0.00019600000000000002,0.0,0.0,0.0,0.00019600000000000002,0.0,0.0,0.0,0.0001,2
1704339743.6625338,302822,1704339743,599521038,ublox_gps,2,15,48.498740899999994,-39.13759239789422,108.801,0.00019600000000000002,0.0,0.0,0.0,0.00019600000000000002,0.0,0.0,0.0,0.0001,2
1704339743.8616955,302823,1704339743,799520987,ublox_gps,2,15,48.4987415,-39.13759009789422,108.799,0.00019600000000000002,0.0,0.0,0.0,0.00019600000000000002,0.0,0.0,0.0,0.0001,2
1704339744.0753164,302824,1704339743,999520937,ublox_gps,2,15,48.498742199999995,-39.13758769789422,108.799,0.00019600000000000002,0.0,0.0,0.0,0.00019600000000000002,0.0,0.0,0.0,0.0001,2
1704339744.264598,302825,1704339744,199520885,ublox_gps,2,15,48.498742899999996,-39.13758539789422,108.796,0.00019600000000000002,0.0,0.0,0.0,0.00019600000000000002,0.0,0.0,0.0,0.0001,2
1704339744.4671938,302826,1704339744,399520835,ublox_gps,2,15,48.498743499999996,-39.13758309789422,108.798,0.00019600000000000002,0.0,0.0,0.0,0.00019600000000000002,0.0,0.0,0.0,0.0001,2
1704339744.6646948,302827,1704339744,599520784,ublox_gps,2,15,48.4987443,-39.137580797894216,108.8,0.00019600000000000002,0.0,0.0,0.0,0.00019600000000000002,0.0,0.0,0.0,0.0001,2
1704339744.863789,302828,1704339744,799520733,ublox_gps,2,15,48.498745,-39.13757839789422,108.799,0.00019600000000000002,0.0,0.0,0.0,0.00019600000000000002,0.0,0.0,0.0,0.0001,2
1704339745.070716,302829,1704339744,999520683,ublox_gps,2,15,48.4987456,-39.13757609789422,108.804,0.00019600000000000002,0.0,0.0,0.0,0.00019600000000000002,0.0,0.0,0.0,0.0001,2
1704339745.2655144,302830,1704339745,199520632,ublox_gps,2,15,48.4987463,-39.13757379789422,108.805,0.00019600000000000002,0.0,0.0,0.0,0.00019600000000000002,0.0,0.0,0.0,0.0001,2
1704339745.463564,302831,1704339745,399520581,ublox_gps,2,15,48.498746999999995,-39.13757139789422,108.807,0.00019600000000000002,0.0,0.0,0.0,0.00019600000000000002,0.0,0.0,0.0,0.0001,2
1704339745.663625,302832,1704339745,599520530,ublox_gps,2,15,48.498747599999994,-39.13756909789422,108.809,0.00019600000000000002,0.0,0.0,0.0,0.00019600000000000002,0.0,0.0,0.0,0.0001,2
1704339745.8651648,302833,1704339745,799520480,ublox_gps,2,15,48.498748299999995,-39.13756669789422,108.809,0.00019600000000000002,0.0,0.0,0.0,0.00019600000000000002,0.0,0.0,0.0,0.0001,2
1704339746.0777276,302834,1704339745,999520430,ublox_gps,2,15,48.498748899999995,-39.13756449789422,108.81,0.00019600000000000002,0.0,0.0,0.0,0.00019600000000000002,0.0,0.0,0.0,0.0001,2
1704339746.2684655,302835,1704339746,199520378,ublox_gps,2,15,48.498749499999995,-39.13756209789422,108.812,0.00019600000000000002,0.0,0.0,0.0,0.00019600000000000002,0.0,0.0,0.0,0.0001,2
1704339746.4643533,302836,1704339746,399520327,ublox_gps,2,15,48.498750199999996,-39.13755969789422,108.818,0.00019600000000000002,0.0,0.0,0.0,0.00019600000000000002,0.0,0.0,0.0,0.0001,2
1704339746.6620607,302837,1704339746,599520277,ublox_gps,2,15,48.498750799999996,-39.13755739789422,108.81700000000001,0.00019600000000000002,0.0,0.0,0.0,0.00019600000000000002,0.0,0.0,0.0,0.0001,2
1704339746.8682966,302838,1704339746,799520226,ublox_gps,2,15,48.4987515,-39.13755479789422,108.815,0.00019600000000000002,0.0,0.0,0.0,0.00019600000000000002,0.0,0.0,0.0,0.0001,2
1704339747.0720782,302839,1704339746,999520176,ublox_gps,2,15,48.4987523,-39.13755229789422,108.821,0.00019600000000000002,0.0,0.0,0.0,0.00019600000000000002,0.0,0.0,0.0,0.0001,2
1704339747.264088,302840,1704339747,199520125,ublox_gps,2,15,48.4987529,-39.13754989789422,108.819,0.00019600000000000002,0.0,0.0,0.0,0.00019600000000000002,0.0,0.0,0.0,0.0001,2
1704339747.462128,302841,1704339747,399520074,ublox_gps,2,15,48.4987535,-39.13754749789422,108.821,0.00019600000000000002,0.0,0.0,0.0,0.00019600000000000002,0.0,0.0,0.0,0.0001,2
1704339747.6636634,302842,1704339747,599520023,ublox_gps,2,15,48.4987542,-39.13754499789422,108.833,0.00019600000000000002,0.0,0.0,0.0,0.00019600000000000002,0.0,0.0,0.0,0.0001,2
1704339747.8612883,302843,1704339747,799519972,ublox_gps,2,15,48.498754899999994,-39.13754269789422,108.834,0.00019600000000000002,0.0,0.0,0.0,0.00019600000000000002,0.0,0.0,0.0,0.0001,2
1704339748.0692196,302844,1704339747,999519923,ublox_gps,2,15,48.498755599999996,-39.13754019789422,108.84,0.00019600000000000002,0.0,0.0,0.0,0.00019600000000000002,0.0,0.0,0.0,0.0001,2
1704339748.2651176,302845,1704339748,199519871,ublox_gps,2,15,48.498756199999995,-39.13753779789422,108.837,0.00019600000000000002,0.0,0.0,0.0,0.00019600000000000002,0.0,0.0,0.0,0.0001,2
1704339748.462422,302846,1704339748,399519820,ublox_gps,2,15,48.4987569,-39.13753539789422,108.84,0.00019600000000000002,0.0,0.0,0.0,0.00019600000000000002,0.0,0.0,0.0,0.0001,2
1704339748.6655016,302847,1704339748,599519770,ublox_gps,2,15,48.4987576,-39.13753309789422,108.843,0.00019600000000000002,0.0,0.0,0.0,0.00019600000000000002,0.0,0.0,0.0,0.0001,2
1704339748.864349,302848,1704339748,799519719,ublox_gps,2,15,48.4987582,-39.13753059789422,108.84,0.00019600000000000002,0.0,0.0,0.0,0.00019600000000000002,0.0,0.0,0.0,0.0001,2
1704339749.0683734,302849,1704339748,999519669,ublox_gps,2,15,48.4987589,-39.13752809789422,108.843,0.00019600000000000002,0.0,0.0,0.0,0.00019600000000000002,0.0,0.0,0.0,0.0001,2
1704339749.2623022,302850,1704339749,199519618,ublox_gps,2,15,48.4987597,-39.13752569789422,108.84400000000001,0.00019600000000000002,0.0,0.0,0.0,0.00019600000000000002,0.0,0.0,0.0,0.0001,2
1704339749.4657142,302851,1704339749,399519567,ublox_gps,2,15,48.4987603,-39.13752329789422,108.851,0.00019600000000000002,0.0,0.0,0.0,0.00019600000000000002,0.0,0.0,0.0,0.0001,2
1704339749.668571,302852,1704339749,599519516,ublox_gps,2,15,48.498760999999995,-39.13752109789422,108.849,0.00019600000000000002,0.0,0.0,0.0,0.00019600000000000002,0.0,0.0,0.0,0.0001,2
1704339749.8670115,302853,1704339749,799519466,ublox_gps,2,15,48.498761599999995,-39.13751859789422,108.85300000000001,0.00019600000000000002,0.0,0.0,0.0,0.00019600000000000002,0.0,0.0,0.0,0.0001,2
1704339750.073459,302854,1704339749,999519416,ublox_gps,2,15,48.498762299999996,-39.13751619789422,108.86,0.00019600000000000002,0.0,0.0,0.0,0.00019600000000000002,0.0,0.0,0.0,0.0001,2
1704339750.2660062,302855,1704339750,199519364,ublox_gps,2,15,48.4987631,-39.137513897894216,108.854,0.00019600000000000002,0.0,0.0,0.0,0.00019600000000000002,0.0,0.0,0.0,0.0001,2
1704339750.4672773,302856,1704339750,399519314,ublox_gps,2,15,48.4987637,-39.137511397894215,108.85600000000001,0.00019600000000000002,0.0,0.0,0.0,0.00019600000000000002,0.0,0.0,0.0,0.0001,2
1704339750.6653225,302857,1704339750,599519263,ublox_gps,2,15,48.4987643,-39.137508997894216,108.86,0.00019600000000000002,0.0,0.0,0.0,0.00019600000000000002,0.0,0.0,0.0,0.0001,2
1704339750.861425,302858,1704339750,799519212,ublox_gps,2,15,48.498765,-39.13750669789422,108.857,0.00019600000000000002,0.0,0.0,0.0,0.00019600000000000002,0.0,0.0,0.0,0.0001,2
1704339751.0657375,302859,1704339750,999519162,ublox_gps,2,15,48.4987657,-39.13750429789422,108.854,0.00019600000000000002,0.0,0.0,0.0,0.00019600000000000002,0.0,0.0,0.0,0.0001,2
1704339751.2693362,302860,1704339751,199519111,ublox_gps,2,15,48.4987664,-39.13750199789422,108.85000000000001,0.00019600000000000002,0.0,0.0,0.0,0.00019600000000000002,0.0,0.0,0.0,0.0001,2
1704339751.4627812,302861,1704339751,399519060,ublox_gps,2,15,48.498767099999995,-39.13749959789422,108.851,0.00019600000000000002,0.0,0.0,0.0,0.00019600000000000002,0.0,0.0,0.0,0.0001,2
1704339751.6649797,302862,1704339751,599519009,ublox_gps,2,15,48.498767699999995,-39.13749719789422,108.849,0.00019600000000000002,0.0,0.0,0.0,0.00019600000000000002,0.0,0.0,0.0,0.0001,2
1704339751.8652632,302863,1704339751,799518958,ublox_gps,2,15,48.498768399999996,-39.13749469789422,108.848,0.00019600000000000002,0.0,0.0,0.0,0.00019600000000000002,0.0,0.0,0.0,0.0001,2
1704339752.0705261,302864,1704339751,999518909,ublox_gps,2,15,48.498768999999996,-39.13749239789422,108.85000000000001,0.00019600000000000002,0.0,0.0,0.0,0.00019600000000000002,0.0,0.0,0.0,0.0001,2
1704339752.2645743,302865,1704339752,199518857,ublox_gps,2,15,48.4987698,-39.13748999789422,108.854,0.00019600000000000002,0.0,0.0,0.0,0.00019600000000000002,0.0,0.0,0.0,0.0001,2
1704339752.4636445,302866,1704339752,399518806,ublox_gps,2,15,48.4987705,-39.13748759789422,108.854,0.00019600000000000002,0.0,0.0,0.0,0.00019600000000000002,0.0,0.0,0.0,0.0001,2
1704339752.6692944,302867,1704339752,599518756,ublox_gps,2,15,48.498771299999994,-39.13748499789422,108.852,0.00019600000000000002,0.0,0.0,0.0,0.00019600000000000002,0.0,0.0,0.0,0.0001,2
1704339752.8655224,302868,1704339752,799518705,ublox_gps,2,15,48.498771999999995,-39.13748249789422,108.86200000000001,0.00019600000000000002,0.0,0.0,0.0,0.00019600000000000002,0.0,0.0,0.0,0.0001,2
1704339753.0692105,302869,1704339752,999518655,ublox_gps,2,15,48.498772599999995,-39.13748009789422,108.85900000000001,0.00019600000000000002,0.0,0.0,0.0,0.00019600000000000002,0.0,0.0,0.0,0.0001,2
1704339753.2676077,302870,1704339753,199518603,ublox_gps,2,15,48.498773299999996,-39.13747769789422,108.86200000000001,0.00019600000000000002,0.0,0.0,0.0,0.00019600000000000002,0.0,0.0,0.0,0.0001,2
1704339753.4653914,302871,1704339753,399518553,ublox_gps,2,15,48.498774,-39.13747529789422,108.86500000000001,0.00019600000000000002,0.0,0.0,0.0,0.00019600000000000002,0.0,0.0,0.0,0.0001,2
1704339753.6622875,302872,1704339753,599518502,ublox_gps,2,15,48.4987746,-39.13747279789422,108.872,0.00019600000000000002,0.0,0.0,0.0,0.00019600000000000002,0.0,0.0,0.0,0.0001,2
1704339753.8593907,302873,1704339753,799518451,ublox_gps,2,15,48.4987753,-39.13747029789422,108.86800000000001,0.00019600000000000002,0.0,0.0,0.0,0.00019600000000000002,0.0,0.0,0.0,0.0001,2
1704339754.069524,302874,1704339753,999518402,ublox_gps,2,15,48.4987759,-39.13746789789422,108.863,0.00019600000000000002,0.0,0.0,0.0,0.00019600000000000002,0.0,0.0,0.0,0.0001,2
1704339754.2633762,302875,1704339754,199518350,ublox_gps,2,15,48.4987765,-39.13746529789422,108.87100000000001,0.00019600000000000002,0.0,0.0,0.0,0.00019600000000000002,0.0,0.0,0.0,0.0001,2
1704339754.4623287,302876,1704339754,399518299,ublox_gps,2,15,48.498777,-39.137462797894216,108.875,0.00019600000000000002,0.0,0.0,0.0,0.00019600000000000002,0.0,0.0,0.0,0.0001,2
1704339754.6621575,302877,1704339754,599518248,ublox_gps,2,15,48.498777399999994,-39.13746009789422,108.876,0.00019600000000000002,0.0,0.0,0.0,0.00019600000000000002,0.0,0.0,0.0,0.0001,2
1704339754.864061,302878,1704339754,799518198,ublox_gps,2,15,48.4987778,-39.13745769789422,108.87,0.00019600000000000002,0.0,0.0,0.0,0.00019600000000000002,0.0,0.0,0.0,0.0001,2
1704339755.0701444,302879,1704339754,999518148,ublox_gps,2,15,48.4987782,-39.13745509789422,108.866,0.00019600000000000002,0.0,0.0,0.0,0.00019600000000000002,0.0,0.0,0.0,0.0001,2
1704339755.2673233,302880,1704339755,199518096,ublox_gps,2,15,48.4987785,-39.13745239789422,108.87100000000001,0.00019600000000000002,0.0,0.0,0.0,0.00019600000000000002,0.0,0.0,0.0,0.0001,2
1704339755.4640744,302881,1704339755,399518046,ublox_gps,2,15,48.4987788,-39.13744969789422,108.878,0.00019600000000000002,0.0,0.0,0.0,0.00019600000000000002,0.0,0.0,0.0,0.0001,2
1704339755.6624699,302882,1704339755,599517995,ublox_gps,2,15,48.498779,-39.137446997894216,108.873,0.00019600000000000002,0.0,0.0,0.0,0.00019600000000000002,0.0,0.0,0.0,0.0001,2
1704339755.865252,302883,1704339755,799517944,ublox_gps,2,15,48.498779299999995,-39.13744429789422,108.879,0.00019600000000000002,0.0,0.0,0.0,0.00019600000000000002,0.0,0.0,0.0,0.0001,2
1704339756.079233,302884,1704339755,999517894,ublox_gps,2,15,48.4987795,-39.137441497894216,108.875,0.00019600000000000002,0.0,0.0,0.0,0.00019600000000000002,0.0,0.0,0.0,0.0001,2
1704339756.2633157,302885,1704339756,199517843,ublox_gps,2,15,48.4987798,-39.13743869789422,108.881,0.00019600000000000002,0.0,0.0,0.0,0.00019600000000000002,0.0,0.0,0.0,0.0001,2
1704339756.4618597,302886,1704339756,399517792,ublox_gps,2,15,48.4987802,-39.13743589789422,108.884,0.00019600000000000002,0.0,0.0,0.0,0.00019600000000000002,0.0,0.0,0.0,0.0001,2
1704339756.665183,302887,1704339756,599517741,ublox_gps,2,15,48.498780599999996,-39.13743309789422,108.903,0.00019600000000000002,0.0,0.0,0.0,0.00019600000000000002,0.0,0.0,0.0,0.0001,2
1704339756.863282,302888,1704339756,799517691,ublox_gps,2,15,48.498781099999995,-39.13743029789422,108.907,0.00019600000000000002,0.0,0.0,0.0,0.00019600000000000002,0.0,0.0,0.0,0.0001,2
1704339757.0694833,302889,1704339756,999517641,ublox_gps,2,15,48.498781699999995,-39.13742759789422,108.918,0.00019600000000000002,0.0,0.0,0.0,0.00019600000000000002,0.0,0.0,0.0,0.0001,2
1704339757.2651978,302890,1704339757,199517589,ublox_gps,2,15,48.498782299999995,-39.13742499789422,108.913,0.00019600000000000002,0.0,0.0,0.0,0.00019600000000000002,0.0,0.0,0.0,0.0001,2
1704339757.4652007,302891,1704339757,399517538,ublox_gps,2,15,48.498782999999996,-39.13742239789422,108.906,0.00019600000000000002,0.0,0.0,0.0,0.00019600000000000002,0.0,0.0,0.0,0.0001,2
1704339757.6655378,302892,1704339757,599517488,ublox_gps,2,15,48.4987839,-39.13741969789422,108.906,0.00019600000000000002,0.0,0.0,0.0,0.00019600000000000002,0.0,0.0,0.0,0.0001,2
1704339757.8625605,302893,1704339757,799517437,ublox_gps,2,15,48.4987849,-39.13741689789422,108.9,0.00019600000000000002,0.0,0.0,0.0,0.00019600000000000002,0.0,0.0,0.0,0.0001,2
1704339758.0665767,302894,1704339757,999517387,ublox_gps,2,15,48.498785999999996,-39.13741399789422,108.897,0.00019600000000000002,0.0,0.0,0.0,0.00019600000000000002,0.0,0.0,0.0,0.0001,2
1704339758.2618892,302895,1704339758,199517336,ublox_gps,2,15,48.4987871,-39.13741129789422,108.893,0.00019600000000000002,0.0,0.0,0.0,0.00019600000000000002,0.0,0.0,0.0,0.0001,2
1704339758.4690096,302896,1704339758,399517285,ublox_gps,2,15,48.4987883,-39.137408697894216,108.891,0.00019600000000000002,0.0,0.0,0.0,0.00019600000000000002,0.0,0.0,0.0,0.0001,2
1704339758.6621184,302897,1704339758,599517234,ublox_gps,2,15,48.4987895,-39.13740619789422,108.89,0.00019600000000000002,0.0,0.0,0.0,0.00019600000000000002,0.0,0.0,0.0,0.0001,2
1704339758.8631136,302898,1704339758,799517183,ublox_gps,2,15,48.498790799999995,-39.13740369789422,108.9,0.00019600000000000002,0.0,0.0,0.0,0.00019600000000000002,0.0,0.0,0.0,0.0001,2
1704339759.0682502,302899,1704339758,999517134,ublox_gps,2,15,48.4987919,-39.13740119789422,108.904,0.00019600000000000002,0.0,0.0,0.0,0.00019600000000000002,0.0,0.0,0.0,0.00012099999999999999,2
1704339759.265313,302900,1704339759,199517082,ublox_gps,2,15,48.498793199999994,-39.13739869789422,108.901,0.00019600000000000002,0.0,0.0,0.0,0.00019600000000000002,0.0,0.0,0.0,0.00012099999999999999,2
1704339759.4656103,302901,1704339759,399517031,ublox_gps,2,15,48.4987943,-39.13739609789422,108.896,0.00019600000000000002,0.0,0.0,0.0,0.00019600000000000002,0.0,0.0,0.0,0.0001,2
1704339759.6635003,302902,1704339759,599516980,ublox_gps,2,15,48.4987954,-39.13739359789422,108.901,0.00019600000000000002,0.0,0.0,0.0,0.00019600000000000002,0.0,0.0,0.0,0.0001,2
1704339759.8613615,302903,1704339759,799516930,ublox_gps,2,15,48.498796299999995,-39.13739119789422,108.903,0.00019600000000000002,0.0,0.0,0.0,0.00019600000000000002,0.0,0.0,0.0,0.0001,2
1704339760.0768576,302904,1704339759,999516880,ublox_gps,2,15,48.4987972,-39.13738869789422,108.896,0.00019600000000000002,0.0,0.0,0.0,0.00019600000000000002,0.0,0.0,0.0,0.0001,2
1704339760.264347,302905,1704339760,199516828,ublox_gps,2,15,48.4987979,-39.137386197894216,108.89,0.00019600000000000002,0.0,0.0,0.0,0.00019600000000000002,0.0,0.0,0.0,0.0001,2
1704339760.4625163,302906,1704339760,399516778,ublox_gps,2,15,48.498798699999995,-39.13738359789422,108.897,0.00019600000000000002,0.0,0.0,0.0,0.00019600000000000002,0.0,0.0,0.0,0.0001,2
1704339760.667293,302907,1704339760,599516727,ublox_gps,2,15,48.498799399999996,-39.13738099789422,108.895,0.00019600000000000002,0.0,0.0,0.0,0.00019600000000000002,0.0,0.0,0.0,0.0001,2
1704339760.8646507,302908,1704339760,799516676,ublox_gps,2,15,48.4988001,-39.137378297894216,108.884,0.00019600000000000002,0.0,0.0,0.0,0.00019600000000000002,0.0,0.0,0.0,0.0001,2
1704339761.0673454,302909,1704339760,999516626,ublox_gps,2,15,48.4988008,-39.13737549789422,108.878,0.00019600000000000002,0.0,0.0,0.0,0.00019600000000000002,0.0,0.0,0.0,0.0001,2
1704339761.2650306,302910,1704339761,199516575,ublox_gps,2,15,48.4988015,-39.13737269789422,108.877,0.00019600000000000002,0.0,0.0,0.0,0.00019600000000000002,0.0,0.0,0.0,0.0001,2
1704339761.4636729,302911,1704339761,399516524,ublox_gps,2,15,48.4988022,-39.13737009789422,108.875,0.00019600000000000002,0.0,0.0,0.0,0.00019600000000000002,0.0,0.0,0.0,0.0001,2
1704339761.662312,302912,1704339761,599516473,ublox_gps,2,15,48.4988029,-39.13736739789422,108.881,0.00019600000000000002,0.0,0.0,0.0,0.00019600000000000002,0.0,0.0,0.0,0.0001,2
1704339761.8606555,302913,1704339761,799516423,ublox_gps,2,15,48.498803699999996,-39.13736479789422,108.874,0.00019600000000000002,0.0,0.0,0.0,0.00019600000000000002,0.0,0.0,0.0,0.0001,2
1704339762.0714805,302914,1704339761,999516373,ublox_gps,2,15,48.4988044,-39.13736219789422,108.864,0.00019600000000000002,0.0,0.0,0.0,0.00019600000000000002,0.0,0.0,0.0,0.0001,2
1704339762.2624297,302915,1704339762,199516321,ublox_gps,2,15,48.4988052,-39.13735959789422,108.863,0.00019600000000000002,0.0,0.0,0.0,0.00019600000000000002,0.0,0.0,0.0,0.0001,2
1704339762.4635355,302916,1704339762,399516271,ublox_gps,2,15,48.498805999999995,-39.137356997894216,108.85900000000001,0.00019600000000000002,0.0,0.0,0.0,0.00019600000000000002,0.0,0.0,0.0,0.0001,2
1704339762.6645765,302917,1704339762,599516220,ublox_gps,2,15,48.4988069,-39.13735439789422,108.854,0.00019600000000000002,0.0,0.0,0.0,0.00019600000000000002,0.0,0.0,0.0,0.0001,2
1704339762.8626952,302918,1704339762,799516169,ublox_gps,2,15,48.4988077,-39.13735189789422,108.861,0.00019600000000000002,0.0,0.0,0.0,0.00019600000000000002,0.0,0.0,0.0,0.0001,2
1704339763.0732954,302919,1704339762,999516119,ublox_gps,2,15,48.498808499999996,-39.13734959789422,108.858,0.00019600000000000002,0.0,0.0,0.0,0.00019600000000000002,0.0,0.0,0.0,0.0001,2
1704339763.2712626,302920,1704339763,199516068,ublox_gps,2,15,48.4988094,-39.13734709789422,108.855,0.00019600000000000002,0.0,0.0,0.0,0.00019600000000000002,0.0,0.0,0.0,0.0001,2
1704339763.4641938,302921,1704339763,399516017,ublox_gps,2,15,48.4988101,-39.13734459789422,108.85300000000001,0.00019600000000000002,0.0,0.0,0.0,0.00019600000000000002,0.0,0.0,0.0,0.0001,2
1704339763.6625016,302922,1704339763,599515966,ublox_gps,2,15,48.498810999999996,-39.13734219789422,108.854,0.00019600000000000002,0.0,0.0,0.0,0.00019600000000000002,0.0,0.0,0.0,0.0001,2
1704339763.8643417,302923,1704339763,799515916,ublox_gps,2,15,48.4988118,-39.13733969789422,108.86200000000001,0.00019600000000000002,0.0,0.0,0.0,0.00019600000000000002,0.0,0.0,0.0,0.0001,2
1704339764.0687165,302924,1704339763,999515866,ublox_gps,2,15,48.4988126,-39.13733729789422,108.861,0.00019600000000000002,0.0,0.0,0.0,0.00019600000000000002,0.0,0.0,0.0,0.0001,2
1704339764.2662497,302925,1704339764,199515814,ublox_gps,2,15,48.498813399999996,-39.13733479789422,108.852,0.00019600000000000002,0.0,0.0,0.0,0.00019600000000000002,0.0,0.0,0.0,0.0001,2
1704339764.4662533,302926,1704339764,399515764,ublox_gps,2,15,48.4988142,-39.13733229789422,108.849,0.00019600000000000002,0.0,0.0,0.0,0.00019600000000000002,0.0,0.0,0.0,0.0001,2
1704339764.6626027,302927,1704339764,599515713,ublox_gps,2,15,48.4988149,-39.13732979789422,108.846,0.00019600000000000002,0.0,0.0,0.0,0.00019600000000000002,0.0,0.0,0.0,0.0001,2
1704339764.871279,302928,1704339764,799515662,ublox_gps,2,15,48.498815699999994,-39.13732729789422,108.843,0.00019600000000000002,0.0,0.0,0.0,0.00019600000000000002,0.0,0.0,0.0,0.0001,2
1704339765.076823,302929,1704339764,999515613,ublox_gps,2,15,48.498816399999995,-39.137324797894216,108.83800000000001,0.00019600000000000002,0.0,0.0,0.0,0.00019600000000000002,0.0,0.0,0.0,0.0001,2
1704339765.2665296,302930,1704339765,199515561,ublox_gps,2,15,48.4988172,-39.13732219789422,108.85000000000001,0.00019600000000000002,0.0,0.0,0.0,0.00019600000000000002,0.0,0.0,0.0,0.0001,2
1704339765.4654944,302931,1704339765,399515510,ublox_gps,2,15,48.4988179,-39.13731959789422,108.851,0.00019600000000000002,0.0,0.0,0.0,0.00019600000000000002,0.0,0.0,0.0,0.0001,2
1704339765.6684399,302932,1704339765,599515460,ublox_gps,2,15,48.4988187,-39.13731699789422,108.845,0.00019600000000000002,0.0,0.0,0.0,0.00019600000000000002,0.0,0.0,0.0,0.0001,2
1704339765.8645186,302933,1704339765,799515409,ublox_gps,2,15,48.498819399999995,-39.137314397894215,108.846,0.00019600000000000002,0.0,0.0,0.0,0.00019600000000000002,0.0,0.0,0.0,0.0001,2
1704339766.0723255,302934,1704339765,999515359,ublox_gps,2,15,48.498820099999996,-39.13731179789422,108.849,0.00019600000000000002,0.0,0.0,0.0,0.00019600000000000002,0.0,0.0,0.0,0.0001,2
1704339766.2654724,302935,1704339766,199515308,ublox_gps,2,15,48.4988209,-39.13730919789422,108.849,0.00019600000000000002,0.0,0.0,0.0,0.00019600000000000002,0.0,0.0,0.0,0.0001,2
1704339766.460419,302936,1704339766,399515257,ublox_gps,2,15,48.4988215,-39.13730659789422,108.849,0.00019600000000000002,0.0,0.0,0.0,0.00019600000000000002,0.0,0.0,0.0,0.0001,2
1704339766.666492,302937,1704339766,599515206,ublox_gps,2,15,48.4988223,-39.13730399789422,108.851,0.00019600000000000002,0.0,0.0,0.0,0.00019600000000000002,0.0,0.0,0.0,0.0001,2
1704339766.8621721,302938,1704339766,799515155,ublox_gps,2,15,48.498822999999994,-39.13730139789422,108.84700000000001,0.00019600000000000002,0.0,0.0,0.0,0.00019600000000000002,0.0,0.0,0.0,0.0001,2
1704339767.0726833,302939,1704339766,999515106,ublox_gps,2,15,48.4988238,-39.13729889789422,108.84100000000001,0.00019600000000000002,0.0,0.0,0.0,0.00019600000000000002,0.0,0.0,0.0,0.0001,2
1704339767.262226,302940,1704339767,199515054,ublox_gps,2,15,48.4988245,-39.13729629789422,108.843,0.00019600000000000002,0.0,0.0,0.0,0.00019600000000000002,0.0,0.0,0.0,0.0001,2
1704339767.4691644,302941,1704339767,399515003,ublox_gps,2,15,48.4988252,-39.13729389789422,108.839,0.00019600000000000002,0.0,0.0,0.0,0.00019600000000000002,0.0,0.0,0.0,0.0001,2
1704339767.6637077,302942,1704339767,599514953,ublox_gps,2,15,48.498826,-39.13729139789422,108.83200000000001,0.00019600000000000002,0.0,0.0,0.0,0.00019600000000000002,0.0,0.0,0.0,0.0001,2
1704339767.8637676,302943,1704339767,799514902,ublox_gps,2,15,48.4988266,-39.137288897894216,108.82600000000001,0.00019600000000000002,0.0,0.0,0.0,0.00019600000000000002,0.0,0.0,0.0,0.0001,2
1704339768.069765,302944,1704339767,999514852,ublox_gps,2,15,48.498827399999996,-39.13728639789422,108.82600000000001,0.00019600000000000002,0.0,0.0,0.0,0.00019600000000000002,0.0,0.0,0.0,0.0001,2
1704339768.2665756,302945,1704339768,199514801,ublox_gps,2,15,48.4988281,-39.13728389789422,108.819,0.00019600000000000002,0.0,0.0,0.0,0.00019600000000000002,0.0,0.0,0.0,0.0001,2
1704339768.468516,302946,1704339768,399514750,ublox_gps,2,15,48.4988288,-39.13728149789422,108.81700000000001,0.00019600000000000002,0.0,0.0,0.0,0.00019600000000000002,0.0,0.0,0.0,0.0001,2
1704339768.663422,302947,1704339768,599514699,ublox_gps,2,15,48.4988295,-39.13727909789422,108.824,0.00019600000000000002,0.0,0.0,0.0,0.00019600000000000002,0.0,0.0,0.0,0.0001,2
1704339768.8623698,302948,1704339768,799514648,ublox_gps,2,15,48.498830299999995,-39.13727669789422,108.831,0.00019600000000000002,0.0,0.0,0.0,0.00019600000000000002,0.0,0.0,0.0,0.0001,2
1704339769.064664,302949,1704339768,999514599,ublox_gps,2,15,48.498830999999996,-39.137274297894216,108.82300000000001,0.00019600000000000002,0.0,0.0,0.0,0.00019600000000000002,0.0,0.0,0.0,0.0001,2
1704339769.2633712,302950,1704339769,199514547,ublox_gps,2,15,48.4988318,-39.13727199789422,108.815,0.00019600000000000002,0.0,0.0,0.0,0.00019600000000000002,0.0,0.0,0.0,0.0001,2
1704339769.4607158,302951,1704339769,399514496,ublox_gps,2,15,48.4988326,-39.137269397894215,108.822,0.00019600000000000002,0.0,0.0,0.0,0.00019600000000000002,0.0,0.0,0.0,0.0001,2
