Time,header.seq,header.stamp.secs,header.stamp.nsecs,header.frame_id,status.status,status.service,latitude,longitude,altitude,position_covariance_0,position_covariance_1,position_covariance_2,position_covariance_3,position_covariance_4,position_covariance_5,position_covariance_6,position_covariance_7,position_covariance_8,position_covariance_type
1704343625.8648899,327245,1704343625,799986954,ublox_gps,2,15,43.3571527,-37.272089621502865,54.824,0.00019600000000000002,0.0,0.0,0.0,0.00019600000000000002,0.0,0.0,0.0,0.0001,2
1704343626.081797,327246,1704343625,999986883,ublox_gps,2,15,43.3571532,-37.27208892150286,54.819,0.00019600000000000002,0.0,0.0,0.0,0.00019600000000000002,0.0,0.0,0.0,0.0001,2
1704343626.2795084,327247,1704343626,199986809,ublox_gps,2,15,43.3571538,-37.27208802150287,54.818,0.00019600000000000002,0.0,0.0,0.0,0.00019600000000000002,0.0,0.0,0.0,0.0001,2
1704343626.4768796,327248,1704343626,399986737,ublox_gps,2,15,43.3571545,-37.272087121502864,54.821,0.00019600000000000002,0.0,0.0,0.0,0.00019600000000000002,0.0,0.0,0.0,0.0001,2
1704343626.6622028,327249,1704343626,599986664,ublox_gps,2,15,43.3571552,-37.27208642150286,54.816,0.00019600000000000002,0.0,0.0,0.0,0.00019600000000000002,0.0,0.0,0.0,0.00012099999999999999,2
1704343626.86848,327250,1704343626,799986592,ublox_gps,2,15,43.357155999999996,-37.272085521502866,54.811,0.00019600000000000002,0.0,0.0,0.0,0.00019600000000000002,0.0,0.0,0.0,0.00012099999999999999,2
1704343627.0817504,327251,1704343626,999986520,ublox_gps,2,15,43.357157,-37.272084821502865,54.806000000000004,0.00019600000000000002,0.0,0.0,0.0,0.00019600000000000002,0.0,0.0,0.0,0.000144,2
1704343627.2687576,327252,1704343627,199986447,ublox_gps,2,15,43.357158,-37.272084221502865,54.801,0.00019600000000000002,0.0,0.0,0.0,0.00019600000000000002,0.0,0.0,0.0,0.000169,2
1704343627.4685805,327253,1704343627,399986375,ublox_gps,2,15,43.357158899999995,-37.272083521502864,54.796,0.00019600000000000002,0.0,0.0,0.0,0.00019600000000000002,0.0,0.0,0.0,0.000169,2
1704343627.6646,327254,1704343627,599986302,ublox_gps,2,15,43.35716,-37.272083021502866,54.798,0.00019600000000000002,0.0,0.0,0.0,0.00019600000000000002,0.0,0.0,0.0,0.000169,2
1704343627.8620458,327255,1704343627,799986230,ublox_gps,2,15,43.3571611,-37.27208262150287,54.789,0.000225,0.0,0.0,0.0,0.000225,0.0,0.0,0.0,0.000144,2
1704343628.0675943,327256,1704343627,999986158,ublox_gps,2,15,43.3571621,-37.27208222150286,54.776,0.00019600000000000002,0.0,0.0,0.0,0.00019600000000000002,0.0,0.0,0.0,0.00012099999999999999,2
1704343628.2582405,327257,1704343628,199986085,ublox_gps,2,15,43.357163299999996,-37.272081821502866,54.769,0.00019600000000000002,0.0,0.0,0.0,0.00019600000000000002,0.0,0.0,0.0,0.00012099999999999999,2
1704343628.4562259,327258,1704343628,399986012,ublox_gps,2,15,43.357164499999996,-37.27208162150286,54.766,0.00019600000000000002,0.0,0.0,0.0,0.00019600000000000002,0.0,0.0,0.0,0.0001,2
1704343628.6589866,327259,1704343628,599985940,ublox_gps,2,15,43.357165699999996,-37.27208142150287,54.767,0.00019600000000000002,0.0,0.0,0.0,0.00019600000000000002,0.0,0.0,0.0,0.0001,2
1704343628.860063,327260,1704343628,799985867,ublox_gps,2,15,43.357166799999995,-37.27208142150287,54.759,0.00019600000000000002,0.0,0.0,0.0,0.00019600000000000002,0.0,0.0,0.0,0.0001,2
1704343629.06483,327261,1704343628,999985796,ublox_gps,2,15,43.357168099999996,-37.27208142150287,54.745000000000005,0.00019600000000000002,0.0,0.0,0.0,0.00019600000000000002,0.0,0.0,0.0,0.0001,2
1704343629.266312,327262,1704343629,199985723,ublox_gps,2,15,43.3571695,-37.27208152150286,54.743,0.00019600000000000002,0.0,0.0,0.0,0.00019600000000000002,0.0,0.0,0.0,0.0001,2
1704343629.469102,327263,1704343629,399985650,ublox_gps,2,15,43.357170599999996,-37.27208162150286,54.737,0.00019600000000000002,0.0,0.0,0.0,0.00019600000000000002,0.0,0.0,0.0,0.0001,2
1704343629.6598308,327264,1704343629,599985578,ublox_gps,2,15,43.357171699999995,-37.272081721502865,54.734,0.00019600000000000002,0.0,0.0,0.0,0.00019600000000000002,0.0,0.0,0.0,0.0001,2
1704343629.8597703,327265,1704343629,799985505,ublox_gps,2,15,43.3571731,-37.272081821502866,54.731,0.00019600000000000002,0.0,0.0,0.0,0.00019600000000000002,0.0,0.0,0.0,0.0001,2
1704343630.0631986,327266,1704343629,999985434,ublox_gps,2,15,43.3571743,-37.27208222150286,54.729,0.00019600000000000002,0.0,0.0,0.0,0.00019600000000000002,0.0,0.0,0.0,0.0001,2
1704343630.2560446,327267,1704343630,199985360,ublox_gps,2,15,43.3571753,-37.272082421502866,54.730000000000004,0.00019600000000000002,0.0,0.0,0.0,0.00019600000000000002,0.0,0.0,0.0,0.0001,2
1704343630.46425,327268,1704343630,399985288,ublox_gps,2,15,43.3571765,-37.27208282150286,54.732,0.00019600000000000002,0.0,0.0,0.0,0.00019600000000000002,0.0,0.0,0.0,0.0001,2
1704343630.6597276,327269,1704343630,599985216,ublox_gps,2,15,43.3571774,-37.27208272150286,54.732,0.00019600000000000002,0.0,0.0,0.0,0.00019600000000000002,0.0,0.0,0.0,0.0001,2
1704343630.8619456,327270,1704343630,799985143,ublox_gps,2,15,43.3571786,-37.27208342150286,54.728,0.00019600000000000002,0.0,0.0,0.0,0.00019600000000000002,0.0,0.0,0.0,0.0001,2
1704343631.0625439,327271,1704343630,999985072,ublox_gps,2,15,43.35718,-37.27208402150286,54.72,0.00019600000000000002,0.0,0.0,0.0,0.00019600000000000002,0.0,0.0,0.0,0.0001,2
1704343631.257724,327272,1704343631,199984998,ublox_gps,2,15,43.3571812,-37.27208452150286,54.71,0.00019600000000000002,0.0,0.0,0.0,0.00019600000000000002,0.0,0.0,0.0,0.0001,2
1704343631.4610283,327273,1704343631,399984926,ublox_gps,2,15,43.3571824,-37.27208522150286,54.708,0.00019600000000000002,0.0,0.0,0.0,0.00019600000000000002,0.0,0.0,0.0,0.0001,2
1704343631.6609237,327274,1704343631,599984853,ublox_gps,2,15,43.3571836,-37.272085921502864,54.706,0.00019600000000000002,0.0,0.0,0.0,0.00019600000000000002,0.0,0.0,0.0,0.0001,2
1704343631.8606331,327275,1704343631,799984781,ublox_gps,2,15,43.3571847,-37.27208632150287,54.705,0.00019600000000000002,0.0,0.0,0.0,0.00019600000000000002,0.0,0.0,0.0,0.0001,2
1704343632.0570796,327276,1704343631,999984710,ublox_gps,2,15,43.357185699999995,-37.27208682150287,54.704,0.00019600000000000002,0.0,0.0,0.0,0.00019600000000000002,0.0,0.0,0.0,0.0001,2
1704343632.2681038,327277,1704343632,199984636,ublox_gps,2,15,43.3571867,-37.27208762150286,54.704,0.00019600000000000002,0.0,0.0,0.0,0.00019600000000000002,0.0,0.0,0.0,0.0001,2
1704343632.4610653,327278,1704343632,399984564,ublox_gps,2,15,43.3571879,-37.27208812150286,54.706,0.00019600000000000002,0.0,0.0,0.0,0.00019600000000000002,0.0,0.0,0.0,0.0001,2
1704343632.661015,327279,1704343632,599984491,ublox_gps,2,15,43.3571891,-37.27208892150286,54.705,0.00019600000000000002,0.0,0.0,0.0,0.00019600000000000002,0.0,0.0,0.0,0.0001,2
1704343632.8622284,327280,1704343632,799984419,ublox_gps,2,15,43.3571904,-37.27208942150286,54.701,0.00019600000000000002,0.0,0.0,0.0,0.00019600000000000002,0.0,0.0,0.0,0.0001,2
1704343633.062816,327281,1704343632,999984347,ublox_gps,2,15,43.3571916,-37.27209012150286,54.709,0.00019600000000000002,0.0,0.0,0.0,0.00019600000000000002,0.0,0.0,0.0,0.0001,2
1704343633.259713,327282,1704343633,199984274,ublox_gps,2,15,43.3571927,-37.272090921502866,54.72,0.00019600000000000002,0.0,0.0,0.0,0.00019600000000000002,0.0,0.0,0.0,0.0001,2
1704343633.4627626,327283,1704343633,399984202,ublox_gps,2,15,43.3571938,-37.27209162150287,54.722,0.00019600000000000002,0.0,0.0,0.0,0.00019600000000000002,0.0,0.0,0.0,0.0001,2
1704343633.6616068,327284,1704343633,599984129,ublox_gps,2,15,43.357194899999996,-37.27209242150286,54.725,0.00019600000000000002,0.0,0.0,0.0,0.00019600000000000002,0.0,0.0,0.0,0.0001,2
1704343633.856083,327285,1704343633,799984057,ublox_gps,2,15,43.3571959,-37.272093221502864,54.722,0.00019600000000000002,0.0,0.0,0.0,0.00019600000000000002,0.0,0.0,0.0,0.0001,2
1704343634.0630279,327286,1704343633,999983985,ublox_gps,2,15,43.357196699999996,-37.272093921502865,54.716,0.00019600000000000002,0.0,0.0,0.0,0.00019600000000000002,0.0,0.0,0.0,0.0001,2
1704343634.2579198,327287,1704343634,199983912,ublox_gps,2,15,43.3571977,-37.27209472150287,54.715,0.00019600000000000002,0.0,0.0,0.0,0.00019600000000000002,0.0,0.0,0.0,0.0001,2
1704343634.4580798,327288,1704343634,399983839,ublox_gps,2,15,43.3571988,-37.272095621502864,54.708,0.00019600000000000002,0.0,0.0,0.0,0.00019600000000000002,0.0,0.0,0.0,0.0001,2
1704343634.6649852,327289,1704343634,599983767,ublox_gps,2,15,43.3572,-37.272096421502866,54.703,0.00019600000000000002,0.0,0.0,0.0,0.00019600000000000002,0.0,0.0,0.0,0.0001,2
1704343634.8642578,327290,1704343634,799983694,ublox_gps,2,15,43.3572011,-37.27209722150287,54.704,0.00019600000000000002,0.0,0.0,0.0,0.00019600000000000002,0.0,0.0,0.0,0.0001,2
1704343635.0700033,327291,1704343634,999983623,ublox_gps,2,15,43.3572019,-37.272098121502864,54.698,0.00019600000000000002,0.0,0.0,0.0,0.00019600000000000002,0.0,0.0,0.0,0.0001,2
1704343635.2617927,327292,1704343635,199983550,ublox_gps,2,15,43.357203,-37.27209892150287,54.694,0.00019600000000000002,0.0,0.0,0.0,0.00019600000000000002,0.0,0.0,0.0,0.0001,2
1704343635.4600482,327293,1704343635,399983477,ublox_gps,2,15,43.357203999999996,-37.272099921502864,54.686,0.00019600000000000002,0.0,0.0,0.0,0.00019600000000000002,0.0,0.0,0.0,0.0001,2
1704343635.6596076,327294,1704343635,599983405,ublox_gps,2,15,43.357205099999995,-37.27210082150287,54.683,0.00019600000000000002,0.0,0.0,0.0,0.00019600000000000002,0.0,0.0,0.0,0.0001,2
1704343635.8647218,327295,1704343635,799983332,ublox_gps,2,15,43.3572061,-37.272101721502864,54.681000000000004,0.00019600000000000002,0.0,0.0,0.0,0.00019600000000000002,0.0,0.0,0.0,0.0001,2
1704343636.064056,327296,1704343635,999983261,ublox_gps,2,15,43.357206999999995,-37.27210262150287,54.675000000000004,0.00019600000000000002,0.0,0.0,0.0,0.00019600000000000002,0.0,0.0,0.0,0.0001,2
1704343636.2598515,327297,1704343636,199983187,ublox_gps,2,15,43.357208,-37.272103621502865,54.675000000000004,0.00019600000000000002,0.0,0.0,0.0,0.00019600000000000002,0.0,0.0,0.0,0.0001,2
1704343636.4599552,327298,1704343636,399983115,ublox_gps,2,15,43.357209,-37.27210452150287,54.664,0.00019600000000000002,0.0,0.0,0.0,0.00019600000000000002,0.0,0.0,0.0,0.0001,2
1704343636.659893,327299,1704343636,599983042,ublox_gps,2,15,43.357210099999996,-37.272105521502866,54.662,0.00019600000000000002,0.0,0.0,0.0,0.00019600000000000002,0.0,0.0,0.0,0.0001,2
1704343636.861152,327300,1704343636,799982970,ublox_gps,2,15,43.357211199999995,-37.27210642150287,54.663000000000004,0.00019600000000000002,0.0,0.0,0.0,0.00019600000000000002,0.0,0.0,0.0,0.0001,2
1704343637.065644,327301,1704343636,999982898,ublox_gps,2,15,43.3572121,-37.27210742150287,54.67,0.00019600000000000002,0.0,0.0,0.0,0.00019600000000000002,0.0,0.0,0.0,0.0001,2
1704343637.2588177,327302,1704343637,199982825,ublox_gps,2,15,43.3572132,-37.272108521502865,54.664,0.00019600000000000002,0.0,0.0,0.0,0.00019600000000000002,0.0,0.0,0.0,0.0001,2
1704343637.4560554,327303,1704343637,399982752,ublox_gps,2,15,43.3572141,-37.27210952150286,54.655,0.00019600000000000002,0.0,0.0,0.0,0.00019600000000000002,0.0,0.0,0.0,0.0001,2
1704343637.6596274,327304,1704343637,599982680,ublox_gps,2,15,43.3572151,-37.27211062150286,54.644,0.00019600000000000002,0.0,0.0,0.0,0.00019600000000000002,0.0,0.0,0.0,0.0001,2
1704343637.8610582,327305,1704343637,799982607,ublox_gps,2,15,43.357216,-37.272111621502866,54.641,0.00019600000000000002,0.0,0.0,0.0,0.00019600000000000002,0.0,0.0,0.0,0.0001,2
1704343638.0646544,327306,1704343637,999982536,ublox_gps,2,15,43.357217,-37.272112721502864,54.64,0.00019600000000000002,0.0,0.0,0.0,0.00019600000000000002,0.0,0.0,0.0,0.0001,2
1704343638.2599208,327307,1704343638,199982462,ublox_gps,2,15,43.3572178,-37.27211382150286,54.639,0.00019600000000000002,0.0,0.0,0.0,0.00019600000000000002,0.0,0.0,0.0,0.0001,2
1704343638.4607003,327308,1704343638,399982390,ublox_gps,2,15,43.3572187,-37.27211482150287,54.635,0.00019600000000000002,0.0,0.0,0.0,0.00019600000000000002,0.0,0.0,0.0,0.0001,2
1704343638.6587634,327309,1704343638,599982317,ublox_gps,2,15,43.357219699999995,-37.272115921502866,54.634,0.00019600000000000002,0.0,0.0,0.0,0.00019600000000000002,0.0,0.0,0.0,0.0001,2
1704343638.8596718,327310,1704343638,799982245,ublox_gps,2,15,43.3572207,-37.272117021502865,54.635,0.00019600000000000002,0.0,0.0,0.0,0.00019600000000000002,0.0,0.0,0.0,0.0001,2
1704343639.0642066,327311,1704343638,999982173,ublox_gps,2,15,43.357221599999995,-37.272118221502865,54.632,0.00019600000000000002,0.0,0.0,0.0,0.00019600000000000002,0.0,0.0,0.0,0.0001,2
1704343639.256308,327312,1704343639,199982100,ublox_gps,2,15,43.3572224,-37.272119421502865,54.633,0.00019600000000000002,0.0,0.0,0.0,0.00019600000000000002,0.0,0.0,0.0,0.0001,2
1704343639.4745562,327313,1704343639,399982027,ublox_gps,2,15,43.3572232,-37.272120621502864,54.64,0.00019600000000000002,0.0,0.0,0.0,0.00019600000000000002,0.0,0.0,0.0,0.0001,2
1704343639.6605616,327314,1704343639,599981955,ublox_gps,2,15,43.357224099999996,-37.272121821502864,54.63,0.00019600000000000002,0.0,0.0,0.0,0.00019600000000000002,0.0,0.0,0.0,0.0001,2
1704343639.8617196,327315,1704343639,799981882,ublox_gps,2,15,43.3572249,-37.272123021502864,54.624,0.00019600000000000002,0.0,0.0,0.0,0.00019600000000000002,0.0,0.0,0.0,0.0001,2
1704343640.0671368,327316,1704343639,999981811,ublox_gps,2,15,43.357225799999995,-37.272124421502866,54.623000000000005,0.00019600000000000002,0.0,0.0,0.0,0.00019600000000000002,0.0,0.0,0.0,0.0001,2
1704343640.2608144,327317,1704343640,199981737,ublox_gps,2,15,43.357226499999996,-37.27212572150287,54.616,0.00019600000000000002,0.0,0.0,0.0,0.00019600000000000002,0.0,0.0,0.0,0.0001,2
1704343640.4619875,327318,1704343640,399981665,ublox_gps,2,15,43.3572273,-37.27212712150286,54.616,0.00019600000000000002,0.0,0.0,0.0,0.00019600000000000002,0.0,0.0,0.0,0.0001,2
1704343640.6645596,327319,1704343640,599981593,ublox_gps,2,15,43.3572281,-37.27212842150286,54.613,0.00019600000000000002,0.0,0.0,0.0,0.00019600000000000002,0.0,0.0,0.0,0.0001,2
1704343640.8597906,327320,1704343640,799981520,ublox_gps,2,15,43.3572287,-37.272129721502864,54.611000000000004,0.00019600000000000002,0.0,0.0,0.0,0.00019600000000000002,0.0,0.0,0.0,0.0001,2
1704343641.059684,327321,1704343640,999981449,ublox_gps,2,15,43.3572293,-37.272131021502865,54.616,0.00019600000000000002,0.0,0.0,0.0,0.00019600000000000002,0.0,0.0,0.0,0.0001,2
1704343641.2659733,327322,1704343641,199981375,ublox_gps,2,15,43.35723,-37.272132221502865,54.617000000000004,0.00019600000000000002,0.0,0.0,0.0,0.00019600000000000002,0.0,0.0,0.0,0.0001,2
1704343641.4605918,327323,1704343641,399981303,ublox_gps,2,15,43.3572306,-37.272133421502865,54.622,0.00019600000000000002,0.0,0.0,0.0,0.00019600000000000002,0.0,0.0,0.0,0.0001,2
1704343641.6587412,327324,1704343641,599981230,ublox_gps,2,15,43.3572312,-37.272134721502866,54.623000000000005,0.00019600000000000002,0.0,0.0,0.0,0.00019600000000000002,0.0,0.0,0.0,0.0001,2
1704343641.8593163,327325,1704343641,799981158,ublox_gps,2,15,43.357231999999996,-37.27213612150287,54.621,0.00019600000000000002,0.0,0.0,0.0,0.00019600000000000002,0.0,0.0,0.0,0.0001,2
1704343642.0775833,327326,1704343641,999981086,ublox_gps,2,15,43.3572327,-37.27213742150286,54.617000000000004,0.00019600000000000002,0.0,0.0,0.0,0.00019600000000000002,0.0,0.0,0.0,0.0001,2
1704343642.2578325,327327,1704343642,199981013,ublox_gps,2,15,43.3572333,-37.27213872150286,54.609,0.00019600000000000002,0.0,0.0,0.0,0.00019600000000000002,0.0,0.0,0.0,0.0001,2
1704343642.4599488,327328,1704343642,399980940,ublox_gps,2,15,43.3572339,-37.272140021502864,54.613,0.00019600000000000002,0.0,0.0,0.0,0.00019600000000000002,0.0,0.0,0.0,0.00012099999999999999,2
1704343642.690807,327329,1704343642,599980868,ublox_gps,2,15,43.3572345,-37.272141321502865,54.613,0.00019600000000000002,0.0,0.0,0.0,0.00019600000000000002,0.0,0.0,0.0,0.00012099999999999999,2
1704343642.8530777,327330,1704343642,799980796,ublox_gps,2,15,43.357234999999996,-37.272142621502866,54.613,0.00019600000000000002,0.0,0.0,0.0,0.00019600000000000002,0.0,0.0,0.0,0.0001,2
1704343643.0647047,327331,1704343642,999980724,ublox_gps,2,15,43.357235599999996,-37.272143821502866,54.614000000000004,0.00019600000000000002,0.0,0.0,0.0,0.00019600000000000002,0.0,0.0,0.0,0.0001,2
1704343643.260126,327332,1704343643,199980651,ublox_gps,2,15,43.3572361,-37.27214522150287,54.608000000000004,0.00019600000000000002,0.0,0.0,0.0,0.00019600000000000002,0.0,0.0,0.0,0.0001,2
1704343643.4580054,327333,1704343643,399980578,ublox_gps,2,15,43.3572366,-37.27214662150286,54.6,0.00019600000000000002,0.0,0.0,0.0,0.00019600000000000002,0.0,0.0,0.0,0.0001,2
1704343643.661164,327334,1704343643,599980506,ublox_gps,2,15,43.357237,-37.272147921502864,54.598,0.00019600000000000002,0.0,0.0,0.0,0.00019600000000000002,0.0,0.0,0.0,0.000144,2
1704343643.85919,327335,1704343643,799980433,ublox_gps,2,15,43.3572376,-37.272149221502865,54.594,0.00019600000000000002,0.0,0.0,0.0,0.00019600000000000002,0.0,0.0,0.0,0.000144,2
1704343644.0650778,327336,1704343643,999980362,ublox_gps,2,15,43.3572379,-37.272150521502866,54.599000000000004,0.00019600000000000002,0.0,0.0,0.0,0.00019600000000000002,0.0,0.0,0.0,0.000144,2
1704343644.2598472,327337,1704343644,199980288,ublox_gps,2,15,43.3572383,-37.27215182150287,54.602000000000004,0.00019600000000000002,0.0,0.0,0.0,0.00019600000000000002,0.0,0.0,0.0,0.00012099999999999999,2
1704343644.4608917,327338,1704343644,399980216,ublox_gps,2,15,43.357238599999995,-37.27215332150286,54.602000000000004,0.00019600000000000002,0.0,0.0,0.0,0.00019600000000000002,0.0,0.0,0.0,0.0001,2
1704343644.654678,327339,1704343644,599980144,ublox_gps,2,15,43.357239,-37.272154721502865,54.608000000000004,0.00019600000000000002,0.0,0.0,0.0,0.00019600000000000002,0.0,0.0,0.0,0.0001,2
1704343644.861054,327340,1704343644,799980071,ublox_gps,2,15,43.357239199999995,-37.27215632150286,54.608000000000004,0.00019600000000000002,0.0,0.0,0.0,0.00019600000000000002,0.0,0.0,0.0,0.0001,2
1704343645.0740347,327341,1704343644,999980000,ublox_gps,2,15,43.3572395,-37.272157721502865,54.603,0.00019600000000000002,0.0,0.0,0.0,0.00019600000000000002,0.0,0.0,0.0,0.0001,2
1704343645.268123,327342,1704343645,199979926,ublox_gps,2,15,43.3572397,-37.27215912150287,54.6,0.00019600000000000002,0.0,0.0,0.0,0.00019600000000000002,0.0,0.0,0.0,0.0001,2
1704343645.4616888,327343,1704343645,399979854,ublox_gps,2,15,43.35724,-37.27216062150286,54.602000000000004,0.00019600000000000002,0.0,0.0,0.0,0.00019600000000000002,0.0,0.0,0.0,0.0001,2
1704343645.6590033,327344,1704343645,599979781,ublox_gps,2,15,43.3572402,-37.272162121502866,54.614000000000004,0.00019600000000000002,0.0,0.0,0.0,0.00019600000000000002,0.0,0.0,0.0,0.0001,2
1704343645.859126,327345,1704343645,799979709,ublox_gps,2,15,43.357240499999996,-37.27216362150286,54.618,0.00019600000000000002,0.0,0.0,0.0,0.00019600000000000002,0.0,0.0,0.0,0.0001,2
1704343646.0718043,327346,1704343645,999979637,ublox_gps,2,15,43.3572407,-37.272165121502866,54.623000000000005,0.00019600000000000002,0.0,0.0,0.0,0.00019600000000000002,0.0,0.0,0.0,0.0001,2
1704343646.259172,327347,1704343646,199979564,ublox_gps,2,15,43.3572409,-37.27216642150287,54.628,0.00019600000000000002,0.0,0.0,0.0,0.00019600000000000002,0.0,0.0,0.0,0.0001,2
1704343646.4557593,327348,1704343646,399979491,ublox_gps,2,15,43.357241099999996,-37.272168021502864,54.624,0.00019600000000000002,0.0,0.0,0.0,0.00019600000000000002,0.0,0.0,0.0,0.0001,2
1704343646.6610565,327349,1704343646,599979419,ublox_gps,2,15,43.3572413,-37.27216952150287,54.627,0.00019600000000000002,0.0,0.0,0.0,0.00019600000000000002,0.0,0.0,0.0,0.0001,2
1704343646.8631248,327350,1704343646,799979346,ublox_gps,2,15,43.3572414,-37.272171021502864,54.631,0.00019600000000000002,0.0,0.0,0.0,0.00019600000000000002,0.0,0.0,0.0,0.0001,2
1704343647.0729764,327351,1704343646,999979275,ublox_gps,2,15,43.357241599999995,-37.27217262150287,54.631,0.00019600000000000002,0.0,0.0,0.0,0.00019600000000000002,0.0,0.0,0.0,0.0001,2
1704343647.261719,327352,1704343647,199979202,ublox_gps,2,15,43.357241699999996,-37.27217432150287,54.639,0.00019600000000000002,0.0,0.0,0.0,0.00019600000000000002,0.0,0.0,0.0,0.0001,2
1704343647.4589846,327353,1704343647,399979129,ublox_gps,2,15,43.3572418,-37.272175921502864,54.645,0.00019600000000000002,0.0,0.0,0.0,0.00019600000000000002,0.0,0.0,0.0,0.0001,2
1704343647.6595232,327354,1704343647,599979057,ublox_gps,2,15,43.3572419,-37.27217752150287,54.648,0.00019600000000000002,0.0,0.0,0.0,0.00019600000000000002,0.0,0.0,0.0,0.0001,2
1704343647.8636305,327355,1704343647,799978984,ublox_gps,2,15,43.357242,-37.272179121502866,54.654,0.00019600000000000002,0.0,0.0,0.0,0.00019600000000000002,0.0,0.0,0.0,0.0001,2
1704343648.0729866,327356,1704343647,999978913,ublox_gps,2,15,43.3572421,-37.272180821502864,54.660000000000004,0.00019600000000000002,0.0,0.0,0.0,0.00019600000000000002,0.0,0.0,0.0,0.0001,2
1704343648.2617612,327357,1704343648,199978840,ublox_gps,2,15,43.357242199999995,-37.27218242150286,54.657000000000004,0.00019600000000000002,0.0,0.0,0.0,0.00019600000000000002,0.0,0.0,0.0,0.0001,2
1704343648.4618092,327358,1704343648,399978767,ublox_gps,2,15,43.3572424,-37.272184021502866,54.653,0.00019600000000000002,0.0,0.0,0.0,0.00019600000000000002,0.0,0.0,0.0,0.0001,2
1704343648.6596243,327359,1704343648,599978695,ublox_gps,2,15,43.3572425,-37.272185621502864,54.654,0.00019600000000000002,0.0,0.0,0.0,0.00019600000000000002,0.0,0.0,0.0,0.0001,2
1704343648.860966,327360,1704343648,799978622,ublox_gps,2,15,43.3572425,-37.27218742150286,54.649,0.00019600000000000002,0.0,0.0,0.0,0.00019600000000000002,0.0,0.0,0.0,0.0001,2
1704343649.0662084,327361,1704343648,999978551,ublox_gps,2,15,43.3572426,-37.27218902150287,54.648,0.00019600000000000002,0.0,0.0,0.0,0.00019600000000000002,0.0,0.0,0.0,0.0001,2
1704343649.2660816,327362,1704343649,199978478,ublox_gps,2,15,43.357242799999995,-37.272190621502865,54.651,0.00019600000000000002,0.0,0.0,0.0,0.00019600000000000002,0.0,0.0,0.0,0.0001,2
1704343649.4607258,327363,1704343649,399978405,ublox_gps,2,15,43.357242799999995,-37.272192421502865,54.648,0.00019600000000000002,0.0,0.0,0.0,0.00019600000000000002,0.0,0.0,0.0,0.0001,2
1704343649.6608443,327364,1704343649,599978333,ublox_gps,2,15,43.357242899999996,-37.27219402150286,54.642,0.00019600000000000002,0.0,0.0,0.0,0.00019600000000000002,0.0,0.0,0.0,0.0001,2
1704343649.85915,327365,1704343649,799978260,ublox_gps,2,15,43.357243,-37.272195521502866,54.646,0.00019600000000000002,0.0,0.0,0.0,0.00019600000000000002,0.0,0.0,0.0,0.0001,2
1704343650.067687,327366,1704343649,999978189,ublox_gps,2,15,43.3572431,-37.272197321502865,54.644,0.00019600000000000002,0.0,0.0,0.0,0.00019600000000000002,0.0,0.0,0.0,0.0001,2
1704343650.260143,327367,1704343650,199978116,ublox_gps,2,15,43.3572432,-37.272199021502864,54.636,0.00019600000000000002,0.0,0.0,0.0,0.00019600000000000002,0.0,0.0,0.0,0.0001,2
1704343650.4596758,327368,1704343650,399978043,ublox_gps,2,15,43.3572432,-37.27220072150286,54.636,0.00019600000000000002,0.0,0.0,0.0,0.00019600000000000002,0.0,0.0,0.0,0.0001,2
1704343650.6589763,327369,1704343650,599977971,ublox_gps,2,15,43.3572432,-37.272202221502866,54.638,0.00019600000000000002,0.0,0.0,0.0,0.00019600000000000002,0.0,0.0,0.0,0.0001,2
1704343650.8601706,327370,1704343650,799977899,ublox_gps,2,15,43.3572432,-37.27220382150286,54.64,0.00019600000000000002,0.0,0.0,0.0,0.00019600000000000002,0.0,0.0,0.0,0.0001,2
1704343651.0699844,327371,1704343650,999977827,ublox_gps,2,15,43.3572433,-37.27220552150287,54.64,0.00019600000000000002,0.0,0.0,0.0,0.00019600000000000002,0.0,0.0,0.0,0.0001,2
1704343651.2599812,327372,1704343651,199977754,ublox_gps,2,15,43.3572433,-37.272207121502866,54.635,0.00019600000000000002,0.0,0.0,0.0,0.00019600000000000002,0.0,0.0,0.0,0.0001,2
1704343651.4592042,327373,1704343651,399977681,ublox_gps,2,15,43.3572433,-37.272208821502865,54.634,0.00019600000000000002,0.0,0.0,0.0,0.00019600000000000002,0.0,0.0,0.0,0.0001,2
1704343651.6574333,327374,1704343651,599977609,ublox_gps,2,15,43.3572433,-37.27221042150286,54.626,0.00019600000000000002,0.0,0.0,0.0,0.00019600000000000002,0.0,0.0,0.0,0.0001,2
1704343651.8533058,327375,1704343651,799977537,ublox_gps,2,15,43.3572432,-37.27221212150287,54.636,0.00019600000000000002,0.0,0.0,0.0,0.00019600000000000002,0.0,0.0,0.0,0.0001,2
1704343652.0628064,327376,1704343651,999977465,ublox_gps,2,15,43.3572432,-37.272213821502866,54.643,0.00019600000000000002,0.0,0.0,0.0,0.00019600000000000002,0.0,0.0,0.0,0.0001,2
1704343652.2726178,327377,1704343652,199977392,ublox_gps,2,15,43.3572432,-37.272215521502865,54.65,0.00019600000000000002,0.0,0.0,0.0,0.00019600000000000002,0.0,0.0,0.0,0.0001,2
1704343652.4595172,327378,1704343652,399977320,ublox_gps,2,15,43.3572431,-37.27221722150286,54.651,0.00019600000000000002,0.0,0.0,0.0,0.00019600000000000002,0.0,0.0,0.0,0.0001,2
1704343652.660068,327379,1704343652,599977247,ublox_gps,2,15,43.357242899999996,-37.27221892150286,54.644,0.00019600000000000002,0.0,0.0,0.0,0.00019600000000000002,0.0,0.0,0.0,0.0001,2
1704343652.8590815,327380,1704343652,799977175,ublox_gps,2,15,43.357242899999996,-37.27222052150287,54.644,0.00019600000000000002,0.0,0.0,0.0,0.00019600000000000002,0.0,0.0,0.0,0.0001,2
1704343653.0677078,327381,1704343652,999977104,ublox_gps,2,15,43.357242799999995,-37.272222121502864,54.647,0.00019600000000000002,0.0,0.0,0.0,0.00019600000000000002,0.0,0.0,0.0,0.0001,2
1704343653.25973,327382,1704343653,199977030,ublox_gps,2,15,43.3572427,-37.27222382150286,54.654,0.00019600000000000002,0.0,0.0,0.0,0.00019600000000000002,0.0,0.0,0.0,0.0001,2
1704343653.4600112,327383,1704343653,399976958,ublox_gps,2,15,43.3572427,-37.27222552150287,54.653,0.00019600000000000002,0.0,0.0,0.0,0.00019600000000000002,0.0,0.0,0.0,0.0001,2
1704343653.6519861,327384,1704343653,599976886,ublox_gps,2,15,43.3572425,-37.27222722150287,54.656,0.00019600000000000002,0.0,0.0,0.0,0.00019600000000000002,0.0,0.0,0.0,0.0001,2
1704343653.8580306,327385,1704343653,799976813,ublox_gps,2,15,43.3572424,-37.272228821502864,54.662,0.00019600000000000002,0.0,0.0,0.0,0.00019600000000000002,0.0,0.0,0.0,0.0001,2
1704343654.063007,327386,1704343653,999976742,ublox_gps,2,15,43.357242299999996,-37.27223052150286,54.668,0.00019600000000000002,0.0,0.0,0.0,0.00019600000000000002,0.0,0.0,0.0,0.0001,2
1704343654.2579498,327387,1704343654,199976668,ublox_gps,2,15,43.3572421,-37.27223212150287,54.67,0.00019600000000000002,0.0,0.0,0.0,0.00019600000000000002,0.0,0.0,0.0,0.0001,2
1704343654.4581175,327388,1704343654,399976596,ublox_gps,2,15,43.3572419,-37.272233721502865,54.676,0.00019600000000000002,0.0,0.0,0.0,0.00019600000000000002,0.0,0.0,0.0,0.0001,2
1704343654.658009,327389,1704343654,599976524,ublox_gps,2,15,43.3572418,-37.27223532150286,54.674,0.00019600000000000002,0.0,0.0,0.0,0.00019600000000000002,0.0,0.0,0.0,0.0001,2
1704343654.8587618,327390,1704343654,799976451,ublox_gps,2,15,43.357241599999995,-37.27223702150287,54.671,0.00019600000000000002,0.0,0.0,0.0,0.00019600000000000002,0.0,0.0,0.0,0.0001,2
1704343655.0646687,327391,1704343654,999976380,ublox_gps,2,15,43.3572414,-37.272238621502865,54.663000000000004,0.00019600000000000002,0.0,0.0,0.0,0.00019600000000000002,0.0,0.0,0.0,0.0001,2
1704343655.2574246,327392,1704343655,199976307,ublox_gps,2,15,43.3572413,-37.27224032150286,54.666000000000004,0.00019600000000000002,0.0,0.0,0.0,0.00019600000000000002,0.0,0.0,0.0,0.0001,2
1704343655.4525347,327393,1704343655,399976234,ublox_gps,2,15,43.357241099999996,-37.27224202150286,54.668,0.00019600000000000002,0.0,0.0,0.0,0.00019600000000000002,0.0,0.0,0.0,0.0001,2
1704343655.6597178,327394,1704343655,599976162,ublox_gps,2,15,43.3572409,-37.27224362150287,54.671,0.00019600000000000002,0.0,0.0,0.0,0.00019600000000000002,0.0,0.0,0.0,0.0001,2
1704343655.8575783,327395,1704343655,799976090,ublox_gps,2,15,43.3572407,-37.272245221502864,54.669000000000004,0.00019600000000000002,0.0,0.0,0.0,0.00019600000000000002,0.0,0.0,0.0,0.0001,2
1704343656.0656626,327396,1704343655,999976018,ublox_gps,2,15,43.357240399999995,-37.27224682150286,54.668,0.00019600000000000002,0.0,0.0,0.0,0.00019600000000000002,0.0,0.0,0.0,0.0001,2
1704343656.2579389,327397,1704343656,199975945,ublox_gps,2,15,43.3572403,-37.272248421502866,54.658,0.00019600000000000002,0.0,0.0,0.0,0.00019600000000000002,0.0,0.0,0.0,0.0001,2
1704343656.457616,327398,1704343656,399975873,ublox_gps,2,15,43.3572402,-37.272250121502864,54.660000000000004,0.00019600000000000002,0.0,0.0,0.0,0.00019600000000000002,0.0,0.0,0.0,0.0001,2
1704343656.655149,327399,1704343656,599975800,ublox_gps,2,15,43.35724,-37.27225172150287,54.664,0.00019600000000000002,0.0,0.0,0.0,0.00019600000000000002,0.0,0.0,0.0,0.0001,2
1704343656.8559976,327400,1704343656,799975728,ublox_gps,2,15,43.357239799999995,-37.272253321502866,54.660000000000004,0.00019600000000000002,0.0,0.0,0.0,0.00019600000000000002,0.0,0.0,0.0,0.0001,2
1704343657.0677624,327401,1704343656,999975656,ublox_gps,2,15,43.3572396,-37.27225482150286,54.658,0.00019600000000000002,0.0,0.0,0.0,0.00019600000000000002,0.0,0.0,0.0,0.0001,2
1704343657.2525215,327402,1704343657,199975583,ublox_gps,2,15,43.357239299999996,-37.27225662150286,54.664,0.00019600000000000002,0.0,0.0,0.0,0.00019600000000000002,0.0,0.0,0.0,0.0001,2
1704343657.459061,327403,1704343657,399975511,ublox_gps,2,15,43.357239,-37.27225822150287,54.67,0.00019600000000000002,0.0,0.0,0.0,0.00019600000000000002,0.0,0.0,0.0,0.0001,2
1704343657.6570418,327404,1704343657,599975438,ublox_gps,2,15,43.3572388,-37.272259821502864,54.676,0.00019600000000000002,0.0,0.0,0.0,0.00019600000000000002,0.0,0.0,0.0,0.0001,2
1704343657.8590846,327405,1704343657,799975366,ublox_gps,2,15,43.357238599999995,-37.27226142150286,54.682,0.00019600000000000002,0.0,0.0,0.0,0.00019600000000000002,0.0,0.0,0.0,0.0001,2
1704343658.0624182,327406,1704343657,999975295,ublox_gps,2,15,43.3572383,-37.272263021502866,54.686,0.00019600000000000002,0.0,0.0,0.0,0.00019600000000000002,0.0,0.0,0.0,0.0001,2
1704343658.257136,327407,1704343658,199975221,ublox_gps,2,15,43.357237999999995,-37.272264721502864,54.691,0.00019600000000000002,0.0,0.0,0.0,0.00019600000000000002,0.0,0.0,0.0,0.0001,2
1704343658.4575124,327408,1704343658,399975149,ublox_gps,2,15,43.3572378,-37.27226622150287,54.689,0.00019600000000000002,0.0,0.0,0.0,0.00019600000000000002,0.0,0.0,0.0,0.0001,2
1704343658.6578379,327409,1704343658,599975077,ublox_gps,2,15,43.3572376,-37.272267921502866,54.695,0.00019600000000000002,0.0,0.0,0.0,0.00019600000000000002,0.0,0.0,0.0,0.0001,2
1704343658.8558593,327410,1704343658,799975004,ublox_gps,2,15,43.3572373,-37.272269621502865,54.7,0.00019600000000000002,0.0,0.0,0.0,0.00019600000000000002,0.0,0.0,0.0,0.0001,2
1704343659.055144,327411,1704343658,999974933,ublox_gps,2,15,43.3572371,-37.27227112150287,54.703,0.00019600000000000002,0.0,0.0,0.0,0.00019600000000000002,0.0,0.0,0.0,0.0001,2
1704343659.2579074,327412,1704343659,199974859,ublox_gps,2,15,43.357236799999995,-37.272272721502866,54.698,0.00019600000000000002,0.0,0.0,0.0,0.00019600000000000002,0.0,0.0,0.0,0.0001,2
1704343659.4589086,327413,1704343659,399974787,ublox_gps,2,15,43.3572366,-37.272274421502864,54.699,0.00019600000000000002,0.0,0.0,0.0,0.00019600000000000002,0.0,0.0,0.0,0.0001,2
1704343659.659087,327414,1704343659,599974715,ublox_gps,2,15,43.3572363,-37.27227602150286,54.701,0.00019600000000000002,0.0,0.0,0.0,0.00019600000000000002,0.0,0.0,0.0,0.0001,2
1704343659.8591032,327415,1704343659,799974642,ublox_gps,2,15,43.357236,-37.272277621502866,54.702,0.00019600000000000002,0.0,0.0,0.0,0.00019600000000000002,0.0,0.0,0.0,0.0001,2
1704343660.0630243,327416,1704343659,999974571,ublox_gps,2,15,43.3572357,-37.27227922150286,54.704,0.00019600000000000002,0.0,0.0,0.0,0.00019600000000000002,0.0,0.0,0.0,0.0001,2
1704343660.2587807,327417,1704343660,199974497,ublox_gps,2,15,43.357235499999994,-37.27228092150287,54.701,0.00019600000000000002,0.0,0.0,0.0,0.00019600000000000002,0.0,0.0,0.0,0.0001,2
1704343660.4572637,327418,1704343660,399974425,ublox_gps,2,15,43.3572353,-37.272282521502866,54.705,0.00019600000000000002,0.0,0.0,0.0,0.00019600000000000002,0.0,0.0,0.0,0.0001,2
1704343660.6573246,327419,1704343660,599974353,ublox_gps,2,15,43.3572352,-37.27228402150286,54.701,0.00019600000000000002,0.0,0.0,0.0,0.00019600000000000002,0.0,0.0,0.0,0.0001,2
1704343660.8519697,327420,1704343660,799974280,ublox_gps,2,15,43.357234899999995,-37.27228572150287,54.7,0.00019600000000000002,0.0,0.0,0.0,0.00019600000000000002,0.0,0.0,0.0,0.0001,2
1704343661.0615199,327421,1704343660,999974209,ublox_gps,2,15,43.3572347,-37.272287321502866,54.706,0.00019600000000000002,0.0,0.0,0.0,0.00019600000000000002,0.0,0.0,0.0,0.0001,2
1704343661.257091,327422,1704343661,199974135,ublox_gps,2,15,43.3572345,-37.27228892150286,54.702,0.00019600000000000002,0.0,0.0,0.0,0.00019600000000000002,0.0,0.0,0.0,0.0001,2
1704343661.456886,327423,1704343661,399974063,ublox_gps,2,15,43.357234399999996,-37.27229062150286,54.7,0.00019600000000000002,0.0,0.0,0.0,0.00019600000000000002,0.0,0.0,0.0,0.0001,2
1704343661.6580594,327424,1704343661,599973991,ublox_gps,2,15,43.3572342,-37.272292121502865,54.697,0.00019600000000000002,0.0,0.0,0.0,0.00019600000000000002,0.0,0.0,0.0,0.0001,2
1704343661.8558989,327425,1704343661,799973918,ublox_gps,2,15,43.357234,-37.27229382150286,54.702,0.00019600000000000002,0.0,0.0,0.0,0.00019600000000000002,0.0,0.0,0.0,0.0001,2
1704343662.0608602,327426,1704343661,999973847,ublox_gps,2,15,43.357233799999996,-37.27229552150287,54.702,0.00019600000000000002,0.0,0.0,0.0,0.00019600000000000002,0.0,0.0,0.0,0.0001,2
1704343662.2580838,327427,1704343662,199973774,ublox_gps,2,15,43.357233699999995,-37.272297121502866,54.699,0.00019600000000000002,0.0,0.0,0.0,0.00019600000000000002,0.0,0.0,0.0,0.0001,2
1704343662.4576094,327428,1704343662,399973701,ublox_gps,2,15,43.3572335,-37.272298821502865,54.704,0.00019600000000000002,0.0,0.0,0.0,0.00019600000000000002,0.0,0.0,0.0,0.0001,2
1704343662.6531537,327429,1704343662,599973629,ublox_gps,2,15,43.3572334,-37.27230042150286,54.706,0.00019600000000000002,0.0,0.0,0.0,0.00019600000000000002,0.0,0.0,0.0,0.0001,2
1704343662.8596294,327430,1704343662,799973556,ublox_gps,2,15,43.357233199999996,-37.27230232150286,54.708,0.00019600000000000002,0.0,0.0,0.0,0.00019600000000000002,0.0,0.0,0.0,0.0001,2
1704343663.0618374,327431,1704343662,999973485,ublox_gps,2,15,43.357233099999995,-37.272303721502865,54.702,0.00019600000000000002,0.0,0.0,0.0,0.00019600000000000002,0.0,0.0,0.0,0.0001,2
1704343663.2580688,327432,1704343663,199973412,ublox_gps,2,15,43.3572329,-37.272305521502865,54.708,0.00019600000000000002,0.0,0.0,0.0,0.00019600000000000002,0.0,0.0,0.0,0.0001,2
1704343663.4590585,327433,1704343663,399973339,ublox_gps,2,15,43.3572329,-37.27230712150286,54.711,0.00019600000000000002,0.0,0.0,0.0,0.00019600000000000002,0.0,0.0,0.0,0.0001,2
1704343663.6576376,327434,1704343663,599973267,ublox_gps,2,15,43.3572328,-37.27230882150287,54.713,0.00019600000000000002,0.0,0.0,0.0,0.00019600000000000002,0.0,0.0,0.0,0.0001,2
1704343663.8572106,327435,1704343663,799973195,ublox_gps,2,15,43.3572327,-37.272310421502866,54.714,0.00019600000000000002,0.0,0.0,0.0,0.00019600000000000002,0.0,0.0,0.0,0.0001,2
1704343664.0625362,327436,1704343663,999973123,ublox_gps,2,15,43.357232599999996,-37.27231192150286,54.706,0.00019600000000000002,0.0,0.0,0.0,0.00019600000000000002,0.0,0.0,0.0,0.0001,2
1704343664.2581174,327437,1704343664,199973050,ublox_gps,2,15,43.357232499999995,-37.27231372150287,54.707,0.00019600000000000002,0.0,0.0,0.0,0.00019600000000000002,0.0,0.0,0.0,0.0001,2
1704343664.4535217,327438,1704343664,399972978,ublox_gps,2,15,43.3572324,-37.272315321502866,54.704,0.00019600000000000002,0.0,0.0,0.0,0.00019600000000000002,0.0,0.0,0.0,0.0001,2
1704343664.6595495,327439,1704343664,599972905,ublox_gps,2,15,43.3572324,-37.272317021502865,54.71,0.00019600000000000002,0.0,0.0,0.0,0.00019600000000000002,0.0,0.0,0.0,0.0001,2
1704343664.8589373,327440,1704343664,799972833,ublox_gps,2,15,43.3572322,-37.27231862150286,54.711,0.00019600000000000002,0.0,0.0,0.0,0.00019600000000000002,0.0,0.0,0.0,0.0001,2
1704343665.0655258,327441,1704343664,999972762,ublox_gps,2,15,43.3572322,-37.272320121502865,54.705,0.00019600000000000002,0.0,0.0,0.0,0.00019600000000000002,0.0,0.0,0.0,0.0001,2
1704343665.260093,327442,1704343665,199972688,ublox_gps,2,15,43.3572321,-37.272321821502864,54.708,0.00019600000000000002,0.0,0.0,0.0,0.00019600000000000002,0.0,0.0,0.0,0.0001,2
1704343665.4586806,327443,1704343665,399972616,ublox_gps,2,15,43.3572321,-37.27232342150286,54.7,0.00019600000000000002,0.0,0.0,0.0,0.00019600000000000002,0.0,0.0,0.0,0.0001,2
1704343665.660759,327444,1704343665,599972544,ublox_gps,2,15,43.3572321,-37.272325021502866,54.699,0.00019600000000000002,0.0,0.0,0.0,0.00019600000000000002,0.0,0.0,0.0,0.0001,2
1704343665.869859,327445,1704343665,799972471,ublox_gps,2,15,43.3572321,-37.272326721502864,54.701,0.00019600000000000002,0.0,0.0,0.0,0.00019600000000000002,0.0,0.0,0.0,0.0001,2
1704343666.0637527,327446,1704343665,999972400,ublox_gps,2,15,43.3572321,-37.27232832150287,54.701,0.00019600000000000002,0.0,0.0,0.0,0.00019600000000000002,0.0,0.0,0.0,0.0001,2
1704343666.2539887,327447,1704343666,199972327,ublox_gps,2,15,43.357231999999996,-37.27233002150287,54.701,0.00019600000000000002,0.0,0.0,0.0,0.00019600000000000002,0.0,0.0,0.0,0.0001,2
1704343666.4599829,327448,1704343666,399972254,ublox_gps,2,15,43.357231999999996,-37.272331721502866,54.702,0.00019600000000000002,0.0,0.0,0.0,0.00019600000000000002,0.0,0.0,0.0,0.0001,2
1704343666.6587775,327449,1704343666,599972182,ublox_gps,2,15,43.357231999999996,-37.272333421502864,54.705,0.00019600000000000002,0.0,0.0,0.0,0.00019600000000000002,0.0,0.0,0.0,0.0001,2
1704343666.8591526,327450,1704343666,799972110,ublox_gps,2,15,43.3572321,-37.27233512150286,54.709,0.00019600000000000002,0.0,0.0,0.0,0.00019600000000000002,0.0,0.0,0.0,0.0001,2
1704343667.072524,327451,1704343666,999972038,ublox_gps,2,15,43.3572321,-37.27233672150287,54.71,0.00019600000000000002,0.0,0.0,0.0,0.00019600000000000002,0.0,0.0,0.0,0.0001,2
1704343667.2590687,327452,1704343667,199971965,ublox_gps,2,15,43.3572321,-37.272338321502865,54.708,0.00019600000000000002,0.0,0.0,0.0,0.00019600000000000002,0.0,0.0,0.0,0.0001,2
1704343667.458164,327453,1704343667,399971893,ublox_gps,2,15,43.3572322,-37.27233992150286,54.706,0.00019600000000000002,0.0,0.0,0.0,0.00019600000000000002,0.0,0.0,0.0,0.0001,2
1704343667.661686,327454,1704343667,599971820,ublox_gps,2,15,43.3572322,-37.27234162150287,54.71,0.00019600000000000002,0.0,0.0,0.0,0.00019600000000000002,0.0,0.0,0.0,0.0001,2
1704343667.8567555,327455,1704343667,799971748,ublox_gps,2,15,43.3572321,-37.27234342150287,54.713,0.00019600000000000002,0.0,0.0,0.0,0.00019600000000000002,0.0,0.0,0.0,0.0001,2
1704343668.057115,327456,1704343667,999971677,ublox_gps,2,15,43.3572321,-37.272345121502866,54.716,0.00019600000000000002,0.0,0.0,0.0,0.00019600000000000002,0.0,0.0,0.0,0.0001,2
1704343668.2612789,327457,1704343668,199971603,ublox_gps,2,15,43.3572322,-37.27234672150286,54.721000000000004,0.00019600000000000002,0.0,0.0,0.0,0.00019600000000000002,0.0,0.0,0.0,0.0001,2
1704343668.457943,327458,1704343668,399971531,ublox_gps,2,15,43.3572322,-37.27234842150286,54.729,0.00019600000000000002,0.0,0.0,0.0,0.00019600000000000002,0.0,0.0,0.0,0.0001,2
1704343668.6609473,327459,1704343668,599971459,ublox_gps,2,15,43.3572321,-37.27235012150287,54.735,0.00019600000000000002,0.0,0.0,0.0,0.00019600000000000002,0.0,0.0,0.0,0.0001,2
1704343668.861056,327460,1704343668,799971386,ublox_gps,2,15,43.357231999999996,-37.272351821502866,54.734,0.00019600000000000002,0.0,0.0,0.0,0.00019600000000000002,0.0,0.0,0.0,0.0001,2
1704343669.0641887,327461,1704343668,999971315,ublox_gps,2,15,43.357231899999995,-37.272353521502865,54.741,0.00019600000000000002,0.0,0.0,0.0,0.00019600000000000002,0.0,0.0,0.0,0.0001,2
1704343669.258719,327462,1704343669,199971241,ublox_gps,2,15,43.3572318,-37.27235522150286,54.745000000000005,0.00019600000000000002,0.0,0.0,0.0,0.00019600000000000002,0.0,0.0,0.0,0.0001,2
1704343669.4599001,327463,1704343669,399971169,ublox_gps,2,15,43.3572317,-37.27235692150286,54.745000000000005,0.00019600000000000002,0.0,0.0,0.0,0.00019600000000000002,0.0,0.0,0.0,0.0001,2
1704343669.6581748,327464,1704343669,599971097,ublox_gps,2,15,43.3572316,-37.272358521502866,54.744,0.00019600000000000002,0.0,0.0,0.0,0.00019600000000000002,0.0,0.0,0.0,0.0001,2
1704343669.853212,327465,1704343669,799971024,ublox_gps,2,15,43.3572315,-37.272360221502865,54.745000000000005,0.00019600000000000002,0.0,0.0,0.0,0.00019600000000000002,0.0,0.0,0.0,0.0001,2
1704343670.0631769,327466,1704343669,999970953,ublox_gps,2,15,43.3572315,-37.27236182150286,54.742000000000004,0.00019600000000000002,0.0,0.0,0.0,0.00019600000000000002,0.0,0.0,0.0,0.0001,2
1704343670.2651756,327467,1704343670,199970880,ublox_gps,2,15,43.357231399999996,-37.27236352150287,54.748000000000005,0.00019600000000000002,0.0,0.0,0.0,0.00019600000000000002,0.0,0.0,0.0,0.0001,2
1704343670.4590244,327468,1704343670,399970807,ublox_gps,2,15,43.357231399999996,-37.272365021502864,54.742000000000004,0.00019600000000000002,0.0,0.0,0.0,0.00019600000000000002,0.0,0.0,0.0,0.0001,2
1704343670.6601138,327469,1704343670,599970735,ublox_gps,2,15,43.357231399999996,-37.27236672150286,54.744,0.00019600000000000002,0.0,0.0,0.0,0.00019600000000000002,0.0,0.0,0.0,0.0001,2
1704343670.8580768,327470,1704343670,799970662,ublox_gps,2,15,43.357231399999996,-37.27236842150286,54.745000000000005,0.00019600000000000002,0.0,0.0,0.0,0.00019600000000000002,0.0,0.0,0.0,0.0001,2
1704343671.0643055,327471,1704343670,999970591,ublox_gps,2,15,43.357231399999996,-37.272369921502865,54.735,0.00019600000000000002,0.0,0.0,0.0,0.00019600000000000002,0.0,0.0,0.0,0.0001,2
1704343671.2597356,327472,1704343671,199970518,ublox_gps,2,15,43.3572315,-37.27237162150286,54.738,0.00019600000000000002,0.0,0.0,0.0,0.00019600000000000002,0.0,0.0,0.0,0.0001,2
1704343671.4601715,327473,1704343671,399970446,ublox_gps,2,15,43.357231399999996,-37.27237332150287,54.738,0.00019600000000000002,0.0,0.0,0.0,0.00019600000000000002,0.0,0.0,0.0,0.0001,2
1704343671.6537323,327474,1704343671,599970373,ublox_gps,2,15,43.3572315,-37.272374821502865,54.730000000000004,0.00019600000000000002,0.0,0.0,0.0,0.00019600000000000002,0.0,0.0,0.0,0.0001,2
1704343671.859887,327475,1704343671,799970301,ublox_gps,2,15,43.3572316,-37.27237632150286,54.724000000000004,0.00019600000000000002,0.0,0.0,0.0,0.00019600000000000002,0.0,0.0,0.0,0.0001,2
1704343672.0631468,327476,1704343671,999970230,ublox_gps,2,15,43.3572315,-37.27237822150286,54.725,0.00019600000000000002,0.0,0.0,0.0,0.00019600000000000002,0.0,0.0,0.0,0.0001,2
1704343672.2581742,327477,1704343672,199970156,ublox_gps,2,15,43.3572315,-37.27238002150287,54.723,0.00019600000000000002,0.0,0.0,0.0,0.00019600000000000002,0.0,0.0,0.0,0.0001,2
1704343672.4650693,327478,1704343672,399970084,ublox_gps,2,15,43.3572317,-37.272381521502865,54.725,0.00019600000000000002,0.0,0.0,0.0,0.00019600000000000002,0.0,0.0,0.0,0.0001,2
1704343672.6579642,327479,1704343672,599970012,ublox_gps,2,15,43.3572318,-37.27238312150286,54.730000000000004,0.00019600000000000002,0.0,0.0,0.0,0.00019600000000000002,0.0,0.0,0.0,0.0001,2
1704343672.8579443,327480,1704343672,799969939,ublox_gps,2,15,43.357231899999995,-37.27238472150287,54.733000000000004,0.00019600000000000002,0.0,0.0,0.0,0.00019600000000000002,0.0,0.0,0.0,0.0001,2
1704343673.0651035,327481,1704343672,999969868,ublox_gps,2,15,43.3572321,-37.272386321502864,54.735,0.00019600000000000002,0.0,0.0,0.0,0.00019600000000000002,0.0,0.0,0.0,0.0001,2
1704343673.262912,327482,1704343673,199969795,ublox_gps,2,15,43.3572324,-37.27238792150287,54.741,0.00019600000000000002,0.0,0.0,0.0,0.00019600000000000002,0.0,0.0,0.0,0.0001,2
1704343673.461998,327483,1704343673,399969722,ublox_gps,2,15,43.3572327,-37.272389521502866,54.743,0.00019600000000000002,0.0,0.0,0.0,0.00019600000000000002,0.0,0.0,0.0,0.0001,2
1704343673.6599228,327484,1704343673,599969650,ublox_gps,2,15,43.3572329,-37.272391121502864,54.737,0.00019600000000000002,0.0,0.0,0.0,0.00019600000000000002,0.0,0.0,0.0,0.0001,2
1704343673.8585143,327485,1704343673,799969578,ublox_gps,2,15,43.3572333,-37.27239272150287,54.736000000000004,0.00019600000000000002,0.0,0.0,0.0,0.00019600000000000002,0.0,0.0,0.0,0.0001,2
1704343674.063191,327486,1704343673,999969506,ublox_gps,2,15,43.357233699999995,-37.27239442150287,54.739000000000004,0.00019600000000000002,0.0,0.0,0.0,0.00019600000000000002,0.0,0.0,0.0,0.0001,2
1704343674.2678823,327487,1704343674,199969433,ublox_gps,2,15,43.3572341,-37.27239592150286,54.74,0.00019600000000000002,0.0,0.0,0.0,0.00019600000000000002,0.0,0.0,0.0,0.0001,2
1704343674.463695,327488,1704343674,399969361,ublox_gps,2,15,43.3572345,-37.272397421502866,54.739000000000004,0.00019600000000000002,0.0,0.0,0.0,0.00019600000000000002,0.0,0.0,0.0,0.0001,2
1704343674.6594925,327489,1704343674,599969289,ublox_gps,2,15,43.357234899999995,-37.27239882150286,54.734,0.00019600000000000002,0.0,0.0,0.0,0.00019600000000000002,0.0,0.0,0.0,0.0001,2
1704343674.859973,327490,1704343674,799969216,ublox_gps,2,15,43.3572353,-37.27240052150287,54.731,0.00019600000000000002,0.0,0.0,0.0,0.00019600000000000002,0.0,0.0,0.0,0.0001,2
1704343675.063932,327491,1704343674,999969145,ublox_gps,2,15,43.3572358,-37.27240202150286,54.733000000000004,0.00019600000000000002,0.0,0.0,0.0,0.00019600000000000002,0.0,0.0,0.0,0.0001,2
1704343675.2618983,327492,1704343675,199969072,ublox_gps,2,15,43.3572363,-37.27240362150287,54.735,0.00019600000000000002,0.0,0.0,0.0,0.00019600000000000002,0.0,0.0,0.0,0.0001,2
1704343675.4605007,327493,1704343675,399968999,ublox_gps,2,15,43.357236799999995,-37.272405121502864,54.734,0.00019600000000000002,0.0,0.0,0.0,0.00019600000000000002,0.0,0.0,0.0,0.0001,2
1704343675.6577444,327494,1704343675,599968927,ublox_gps,2,15,43.3572373,-37.27240672150286,54.737,0.00019600000000000002,0.0,0.0,0.0,0.00019600000000000002,0.0,0.0,0.0,0.0001,2
1704343675.8580055,327495,1704343675,799968855,ublox_gps,2,15,43.3572379,-37.27240812150286,54.741,0.00019600000000000002,0.0,0.0,0.0,0.00019600000000000002,0.0,0.0,0.0,0.0001,2
1704343676.0641468,327496,1704343675,999968783,ublox_gps,2,15,43.3572384,-37.27240962150287,54.748000000000005,0.00019600000000000002,0.0,0.0,0.0,0.00019600000000000002,0.0,0.0,0.0,0.0001,2
1704343676.2593484,327497,1704343676,199968710,ublox_gps,2,15,43.357239,-37.27241112150286,54.75,0.00019600000000000002,0.0,0.0,0.0,0.00019600000000000002,0.0,0.0,0.0,0.0001,2
1704343676.457636,327498,1704343676,399968638,ublox_gps,2,15,43.3572397,-37.272412521502865,54.752,0.00019600000000000002,0.0,0.0,0.0,0.00019600000000000002,0.0,0.0,0.0,0.0001,2
1704343676.6601644,327499,1704343676,599968565,ublox_gps,2,15,43.3572403,-37.27241392150287,54.749,0.00019600000000000002,0.0,0.0,0.0,0.00019600000000000002,0.0,0.0,0.0,0.0001,2
1704343676.85792,327500,1704343676,799968493,ublox_gps,2,15,43.357240999999995,-37.27241522150287,54.748000000000005,0.00019600000000000002,0.0,0.0,0.0,0.00019600000000000002,0.0,0.0,0.0,0.0001,2
1704343677.054631,327501,1704343676,999968422,ublox_gps,2,15,43.357241699999996,-37.27241662150286,54.747,0.00019600000000000002,0.0,0.0,0.0,0.00019600000000000002,0.0,0.0,0.0,0.0001,2
1704343677.2659783,327502,1704343677,199968348,ublox_gps,2,15,43.3572424,-37.272417921502864,54.749,0.00019600000000000002,0.0,0.0,0.0,0.00019600000000000002,0.0,0.0,0.0,0.0001,2
1704343677.4585948,327503,1704343677,399968276,ublox_gps,2,15,43.3572431,-37.272419221502865,54.755,0.00019600000000000002,0.0,0.0,0.0,0.00019600000000000002,0.0,0.0,0.0,0.0001,2
1704343677.6587317,327504,1704343677,599968204,ublox_gps,2,15,43.3572438,-37.272420521502866,54.761,0.00019600000000000002,0.0,0.0,0.0,0.00019600000000000002,0.0,0.0,0.0,0.0001,2
1704343677.8616505,327505,1704343677,799968131,ublox_gps,2,15,43.3572445,-37.272421721502866,54.764,0.00019600000000000002,0.0,0.0,0.0,0.00019600000000000002,0.0,0.0,0.0,0.0001,2
1704343678.07205,327506,1704343677,999968060,ublox_gps,2,15,43.3572452,-37.272422921502866,54.761,0.00019600000000000002,0.0,0.0,0.0,0.00019600000000000002,0.0,0.0,0.0,0.0001,2
1704343678.2606883,327507,1704343678,199967987,ublox_gps,2,15,43.357245899999995,-37.272424121502866,54.762,0.00019600000000000002,0.0,0.0,0.0,0.00019600000000000002,0.0,0.0,0.0,0.0001,2
1704343678.463227,327508,1704343678,399967914,ublox_gps,2,15,43.357246499999995,-37.272425221502864,54.761,0.00019600000000000002,0.0,0.0,0.0,0.00019600000000000002,0.0,0.0,0.0,0.0001,2
1704343678.6592607,327509,1704343678,599967842,ublox_gps,2,15,43.3572473,-37.272426421502864,54.763,0.00019600000000000002,0.0,0.0,0.0,0.00019600000000000002,0.0,0.0,0.0,0.0001,2
1704343678.8561006,327510,1704343678,799967770,ublox_gps,2,15,43.357248,-37.27242752150286,54.767,0.00019600000000000002,0.0,0.0,0.0,0.00019600000000000002,0.0,0.0,0.0,0.0001,2
1704343679.065127,327511,1704343678,999967698,ublox_gps,2,15,43.3572487,-37.27242862150287,54.764,0.00019600000000000002,0.0,0.0,0.0,0.00019600000000000002,0.0,0.0,0.0,0.0001,2
1704343679.265052,327512,1704343679,199967625,ublox_gps,2,15,43.357249499999995,-37.272429621502866,54.759,0.00019600000000000002,0.0,0.0,0.0,0.00019600000000000002,0.0,0.0,0.0,0.0001,2
1704343679.458984,327513,1704343679,399967553,ublox_gps,2,15,43.3572503,-37.272430721502865,54.763,0.00019600000000000002,0.0,0.0,0.0,0.00019600000000000002,0.0,0.0,0.0,0.0001,2
1704343679.6612535,327514,1704343679,599967480,ublox_gps,2,15,43.3572511,-37.272431921502864,54.768,0.00019600000000000002,0.0,0.0,0.0,0.00019600000000000002,0.0,0.0,0.0,0.0001,2
1704343679.8590317,327515,1704343679,799967408,ublox_gps,2,15,43.3572518,-37.27243282150287,54.768,0.00019600000000000002,0.0,0.0,0.0,0.00019600000000000002,0.0,0.0,0.0,0.0001,2
1704343680.0639222,327516,1704343679,999967337,ublox_gps,2,15,43.3572525,-37.272433921502866,54.77,0.00019600000000000002,0.0,0.0,0.0,0.00019600000000000002,0.0,0.0,0.0,0.0001,2
1704343680.2607303,327517,1704343680,199967263,ublox_gps,2,15,43.357253299999996,-37.272435021502865,54.775,0.00019600000000000002,0.0,0.0,0.0,0.00019600000000000002,0.0,0.0,0.0,0.0001,2
1704343680.4599295,327518,1704343680,399967191,ublox_gps,2,15,43.3572541,-37.27243602150286,54.776,0.00019600000000000002,0.0,0.0,0.0,0.00019600000000000002,0.0,0.0,0.0,0.0001,2
1704343680.6552355,327519,1704343680,599967119,ublox_gps,2,15,43.3572549,-37.27243712150286,54.775,0.00019600000000000002,0.0,0.0,0.0,0.00019600000000000002,0.0,0.0,0.0,0.0001,2
1704343680.8612132,327520,1704343680,799967046,ublox_gps,2,15,43.3572555,-37.272438121502866,54.775,0.00019600000000000002,0.0,0.0,0.0,0.00019600000000000002,0.0,0.0,0.0,0.0001,2
1704343681.0643847,327521,1704343680,999966975,ublox_gps,2,15,43.357256199999995,-37.272439221502864,54.777,0.00019600000000000002,0.0,0.0,0.0,0.00019600000000000002,0.0,0.0,0.0,0.0001,2
1704343681.2608798,327522,1704343681,199966902,ublox_gps,2,15,43.357257,-37.27244022150286,54.774,0.00019600000000000002,0.0,0.0,0.0,0.00019600000000000002,0.0,0.0,0.0,0.0001,2
1704343681.4622502,327523,1704343681,399966829,ublox_gps,2,15,43.3572577,-37.27244132150287,54.771,0.00019600000000000002,0.0,0.0,0.0,0.00019600000000000002,0.0,0.0,0.0,0.0001,2
1704343681.6608713,327524,1704343681,599966757,ublox_gps,2,15,43.3572585,-37.272442321502865,54.768,0.00019600000000000002,0.0,0.0,0.0,0.00019600000000000002,0.0,0.0,0.0,0.0001,2
1704343681.8628352,327525,1704343681,799966685,ublox_gps,2,15,43.357259299999996,-37.27244332150286,54.771,0.00019600000000000002,0.0,0.0,0.0,0.00019600000000000002,0.0,0.0,0.0,0.0001,2
1704343682.067115,327526,1704343681,999966614,ublox_gps,2,15,43.3572601,-37.27244432150287,54.781,0.00019600000000000002,0.0,0.0,0.0,0.00019600000000000002,0.0,0.0,0.0,0.0001,2
1704343682.267148,327527,1704343682,199966540,ublox_gps,2,15,43.3572609,-37.272445321502865,54.785000000000004,0.00019600000000000002,0.0,0.0,0.0,0.00019600000000000002,0.0,0.0,0.0,0.0001,2
1704343682.455832,327528,1704343682,399966468,ublox_gps,2,15,43.3572616,-37.27244632150286,54.781,0.00019600000000000002,0.0,0.0,0.0,0.00019600000000000002,0.0,0.0,0.0,0.0001,2
1704343682.6627407,327529,1704343682,599966396,ublox_gps,2,15,43.357262399999996,-37.272447221502865,54.779,0.00019600000000000002,0.0,0.0,0.0,0.00019600000000000002,0.0,0.0,0.0,0.0001,2
1704343682.8619492,327530,1704343682,799966323,ublox_gps,2,15,43.3572632,-37.27244822150286,54.777,0.00019600000000000002,0.0,0.0,0.0,0.00019600000000000002,0.0,0.0,0.0,0.0001,2
1704343683.065915,327531,1704343682,999966252,ublox_gps,2,15,43.357264099999995,-37.27244922150287,54.777,0.00019600000000000002,0.0,0.0,0.0,0.00019600000000000002,0.0,0.0,0.0,0.0001,2
1704343683.262271,327532,1704343683,199966179,ublox_gps,2,15,43.3572649,-37.272450221502865,54.775,0.00019600000000000002,0.0,0.0,0.0,0.00019600000000000002,0.0,0.0,0.0,0.0001,2
1704343683.4674423,327533,1704343683,399966107,ublox_gps,2,15,43.3572657,-37.27245112150287,54.777,0.00019600000000000002,0.0,0.0,0.0,0.00019600000000000002,0.0,0.0,0.0,0.0001,2
1704343683.6609225,327534,1704343683,599966034,ublox_gps,2,15,43.3572664,-37.272452021502865,54.777,0.00019600000000000002,0.0,0.0,0.0,0.00019600000000000002,0.0,0.0,0.0,0.0001,2
1704343683.8637962,327535,1704343683,799965963,ublox_gps,2,15,43.3572673,-37.27245312150286,54.776,0.00019600000000000002,0.0,0.0,0.0,0.00019600000000000002,0.0,0.0,0.0,0.0001,2
1704343684.0715704,327536,1704343683,999965892,ublox_gps,2,15,43.3572681,-37.27245412150287,54.784,0.00019600000000000002,0.0,0.0,0.0,0.00019600000000000002,0.0,0.0,0.0,0.0001,2
1704343684.2606354,327537,1704343684,199965818,ublox_gps,2,15,43.3572689,-37.272455021502864,54.784,0.00019600000000000002,0.0,0.0,0.0,0.00019600000000000002,0.0,0.0,0.0,0.0001,2
1704343684.4659536,327538,1704343684,399965746,ublox_gps,2,15,43.3572698,-37.27245602150286,54.78,0.00019600000000000002,0.0,0.0,0.0,0.00019600000000000002,0.0,0.0,0.0,0.0001,2
1704343684.6626754,327539,1704343684,599965674,ublox_gps,2,15,43.3572705,-37.272456921502865,54.778,0.00019600000000000002,0.0,0.0,0.0,0.00019600000000000002,0.0,0.0,0.0,0.0001,2
1704343684.8639433,327540,1704343684,799965602,ublox_gps,2,15,43.3572713,-37.27245792150286,54.777,0.00019600000000000002,0.0,0.0,0.0,0.00019600000000000002,0.0,0.0,0.0,0.0001,2
1704343685.0836418,327541,1704343684,999965531,ublox_gps,2,15,43.3572722,-37.27245892150287,54.785000000000004,0.00019600000000000002,0.0,0.0,0.0,0.00019600000000000002,0.0,0.0,0.0,0.0001,2
1704343685.2630851,327542,1704343685,199965458,ublox_gps,2,15,43.357273,-37.272459921502865,54.775,0.00019600000000000002,0.0,0.0,0.0,0.00019600000000000002,0.0,0.0,0.0,0.0001,2
1704343685.4630392,327543,1704343685,399965385,ublox_gps,2,15,43.357273899999996,-37.27246092150286,54.768,0.00019600000000000002,0.0,0.0,0.0,0.00019600000000000002,0.0,0.0,0.0,0.0001,2
1704343685.6639194,327544,1704343685,599965313,ublox_gps,2,15,43.3572747,-37.27246192150287,54.772,0.00019600000000000002,0.0,0.0,0.0,0.00019600000000000002,0.0,0.0,0.0,0.0001,2
1704343685.8627515,327545,1704343685,799965241,ublox_gps,2,15,43.3572755,-37.272462921502864,54.781,0.00019600000000000002,0.0,0.0,0.0,0.00019600000000000002,0.0,0.0,0.0,0.0001,2
1704343686.0699446,327546,1704343685,999965170,ublox_gps,2,15,43.357276299999995,-37.27246382150287,54.778,0.00019600000000000002,0.0,0.0,0.0,0.00019600000000000002,0.0,0.0,0.0,0.0001,2
1704343686.2687848,327547,1704343686,199965096,ublox_gps,2,15,43.3572771,-37.272464721502864,54.774,0.00019600000000000002,0.0,0.0,0.0,0.00019600000000000002,0.0,0.0,0.0,0.0001,2
1704343686.4639583,327548,1704343686,399965024,ublox_gps,2,15,43.3572779,-37.27246562150287,54.768,0.00019600000000000002,0.0,0.0,0.0,0.00019600000000000002,0.0,0.0,0.0,0.0001,2
1704343686.665099,327549,1704343686,599964952,ublox_gps,2,15,43.3572789,-37.272466621502865,54.765,0.00019600000000000002,0.0,0.0,0.0,0.00019600000000000002,0.0,0.0,0.0,0.0001,2
1704343686.8649135,327550,1704343686,799964880,ublox_gps,2,15,43.3572797,-37.27246752150286,54.764,0.00019600000000000002,0.0,0.0,0.0,0.00019600000000000002,0.0,0.0,0.0,0.0001,2
1704343687.073934,327551,1704343686,999964808,ublox_gps,2,15,43.357280499999995,-37.272468421502865,54.762,0.00019600000000000002,0.0,0.0,0.0,0.00019600000000000002,0.0,0.0,0.0,0.0001,2
1704343687.2718885,327552,1704343687,199964735,ublox_gps,2,15,43.3572815,-37.27246942150286,54.769,0.00019600000000000002,0.0,0.0,0.0,0.00019600000000000002,0.0,0.0,0.0,0.0001,2
1704343687.4632938,327553,1704343687,399964663,ublox_gps,2,15,43.357282399999995,-37.272470321502865,54.773,0.00019600000000000002,0.0,0.0,0.0,0.00019600000000000002,0.0,0.0,0.0,0.0001,2
1704343687.6617131,327554,1704343687,599964591,ublox_gps,2,15,43.3572832,-37.27247132150286,54.769,0.00019600000000000002,0.0,0.0,0.0,0.00019600000000000002,0.0,0.0,0.0,0.0001,2
1704343687.8574347,327555,1704343687,799964518,ublox_gps,2,15,43.3572841,-37.272472221502866,54.771,0.00019600000000000002,0.0,0.0,0.0,0.00019600000000000002,0.0,0.0,0.0,0.0001,2
1704343688.0680997,327556,1704343687,999964447,ublox_gps,2,15,43.357285,-37.272473221502864,54.777,0.00019600000000000002,0.0,0.0,0.0,0.00019600000000000002,0.0,0.0,0.0,0.0001,2
1704343688.2648165,327557,1704343688,199964374,ublox_gps,2,15,43.3572858,-37.27247412150287,54.777,0.00019600000000000002,0.0,0.0,0.0,0.00019600000000000002,0.0,0.0,0.0,0.0001,2
1704343688.4641387,327558,1704343688,399964302,ublox_gps,2,15,43.357286699999996,-37.27247502150286,54.768,0.00019600000000000002,0.0,0.0,0.0,0.00019600000000000002,0.0,0.0,0.0,0.0001,2
1704343688.6633902,327559,1704343688,599964230,ublox_gps,2,15,43.3572875,-37.27247602150287,54.77,0.00019600000000000002,0.0,0.0,0.0,0.00019600000000000002,0.0,0.0,0.0,0.0001,2
1704343688.8617022,327560,1704343688,799964157,ublox_gps,2,15,43.357288399999995,-37.272476921502864,54.763,0.00019600000000000002,0.0,0.0,0.0,0.00019600000000000002,0.0,0.0,0.0,0.0001,2
1704343689.0722075,327561,1704343688,999964086,ublox_gps,2,15,43.3572893,-37.27247782150287,54.772,0.00019600000000000002,0.0,0.0,0.0,0.00019600000000000002,0.0,0.0,0.0,0.0001,2
1704343689.2630363,327562,1704343689,199964013,ublox_gps,2,15,43.3572902,-37.272478821502865,54.761,0.00019600000000000002,0.0,0.0,0.0,0.00019600000000000002,0.0,0.0,0.0,0.0001,2
1704343689.460115,327563,1704343689,399963941,ublox_gps,2,15,43.357291,-37.27247962150287,54.74,0.00019600000000000002,0.0,0.0,0.0,0.00019600000000000002,0.0,0.0,0.0,0.0001,2
1704343689.6559298,327564,1704343689,599963868,ublox_gps,2,15,43.3572918,-37.272480621502865,54.745000000000005,0.00019600000000000002,0.0,0.0,0.0,0.00019600000000000002,0.0,0.0,0.0,0.0001,2
1704343689.8625996,327565,1704343689,799963796,ublox_gps,2,15,43.3572926,-37.27248162150286,54.747,0.00019600000000000002,0.0,0.0,0.0,0.00019600000000000002,0.0,0.0,0.0,0.0001,2
1704343690.0658262,327566,1704343689,999963725,ublox_gps,2,15,43.3572935,-37.27248272150287,54.743,0.00019600000000000002,0.0,0.0,0.0,0.00019600000000000002,0.0,0.0,0.0,0.0001,2
1704343690.26119,327567,1704343690,199963652,ublox_gps,2,15,43.3572943,-37.272483721502866,54.745000000000005,0.00019600000000000002,0.0,0.0,0.0,0.00019600000000000002,0.0,0.0,0.0,0.0001,2
1704343690.4617455,327568,1704343690,399963580,ublox_gps,2,15,43.357295199999996,-37.27248472150286,54.742000000000004,0.00019600000000000002,0.0,0.0,0.0,0.00019600000000000002,0.0,0.0,0.0,0.0001,2
1704343690.6634152,327569,1704343690,599963507,ublox_gps,2,15,43.357296,-37.27248572150287,54.746,0.00019600000000000002,0.0,0.0,0.0,0.00019600000000000002,0.0,0.0,0.0,0.0001,2
