Time,header.seq,header.stamp.secs,header.stamp.nsecs,header.frame_id,child_frame_id,pose.pose.position.x,pose.pose.position.y,pose.pose.position.z,pose.pose.orientation.x,pose.pose.orientation.y,pose.pose.orientation.z,pose.pose.orientation.w,pose.covariance,twist.twist.linear.x,twist.twist.linear.y,twist.twist.linear.z,twist.twist.angular.x,twist.twist.angular.y,twist.twist.angular.z,twist.covariance
1704322718.8546605,218594,1704322718,799691183,map,,-1.0247160196128453,2.027845623557686,0.0,0.0,0.0,0.1482146443253401,0.9889552159766958,"(0.139129, 0.0, 0.0, 0.0, 0.0, 0.0, 0.0, 0.139129, 0.0, 0.0, 0.0, 0.0, 0.0, 0.0, 0.265225, 0.0, 0.0, 0.0, 0.0, 0.0, 0.0, 0.02, 0.0, 0.0, 0.0, 0.0, 0.0, 0.0, 0.02, 0.0, 0.0, 0.0, 0.0, 0.0, 0.0, 100.0)",0.0,0.0,0.0,0.0,0.0,0.0,"(0.0, 0.0, 0.0, 0.0, 0.0, 0.0, 0.0, 0.0, 0.0, 0.0, 0.0, 0.0, 0.0, 0.0, 0.0, 0.0, 0.0, 0.0, 0.0, 0.0, 0.0, 0.0, 0.0, 0.0, 0.0, 0.0, 0.0, 0.0, 0.0, 0.0, 0.0, 0.0, 0.0, 0.0, 0.0, 0.0)"
1704322719.0600119,218595,1704322718,999691169,map,,-0.9913919160941709,2.0277289176892808,0.0,0.0,0.0,0.13689569861546297,0.9905854671357663,"(0.139129, 0.0, 0.0, 0.0, 0.0, 0.0, 0.0, 0.139129, 0.0, 0.0, 0.0, 0.0, 0.0, 0.0, 0.265225, 0.0, 0.0, 0.0, 0.0, 0.0, 0.0, 0.02, 0.0, 0.0, 0.0, 0.0, 0.0, 0.0, 0.02, 0.0, 0.0, 0.0, 0.0, 0.0, 0.0, 100.0)",0.0,0.0,0.0,0.0,0.0,0.0,"(0.0, 0.0, 0.0, 0.0, 0.0, 0.0, 0.0, 0.0, 0.0, 0.0, 0.0, 0.0, 0.0, 0.0, 0.0, 0.0, 0.0, 0.0, 0.0, 0.0, 0.0, 0.0, 0.0, 0.0, 0.0, 0.0, 0.0, 0.0, 0.0, 0.0, 0.0, 0.0, 0.0, 0.0, 0.0, 0.0)"
1704322719.2533345,218596,1704322719,199691152,map,,-0.8997506491404802,2.0055149173177766,0.0,0.0,0.0,0.13771052623863503,0.9904725190347676,"(0.139129, 0.0, 0.0, 0.0, 0.0, 0.0, 0.0, 0.139129, 0.0, 0.0, 0.0, 0.0, 0.0, 0.0, 0.266256, 0.0, 0.0, 0.0, 0.0, 0.0, 0.0, 0.02, 0.0, 0.0, 0.0, 0.0, 0.0, 0.0, 0.02, 0.0, 0.0, 0.0, 0.0, 0.0, 0.0, 100.0)",0.0,0.0,0.0,0.0,0.0,0.0,"(0.0, 0.0, 0.0, 0.0, 0.0, 0.0, 0.0, 0.0, 0.0, 0.0, 0.0, 0.0, 0.0, 0.0, 0.0, 0.0, 0.0, 0.0, 0.0, 0.0, 0.0, 0.0, 0.0, 0.0, 0.0, 0.0, 0.0, 0.0, 0.0, 0.0, 0.0, 0.0, 0.0, 0.0, 0.0, 0.0)"
1704322719.4527905,218597,1704322719,399691136,map,,-0.8414334751153191,1.983170885192473,0.0,0.0,0.0,0.15051811293491532,0.9886072514798342,"(0.139876, 0.0, 0.0, 0.0, 0.0, 0.0, 0.0, 0.139876, 0.0, 0.0, 0.0, 0.0, 0.0, 0.0, 0.266256, 0.0, 0.0, 0.0, 0.0, 0.0, 0.0, 0.02, 0.0, 0.0, 0.0, 0.0, 0.0, 0.0, 0.02, 0.0, 0.0, 0.0, 0.0, 0.0, 0.0, 100.0)",0.0,0.0,0.0,0.0,0.0,0.0,"(0.0, 0.0, 0.0, 0.0, 0.0, 0.0, 0.0, 0.0, 0.0, 0.0, 0.0, 0.0, 0.0, 0.0, 0.0, 0.0, 0.0, 0.0, 0.0, 0.0, 0.0, 0.0, 0.0, 0.0, 0.0, 0.0, 0.0, 0.0, 0.0, 0.0, 0.0, 0.0, 0.0, 0.0, 0.0, 0.0)"
1704322719.6524112,218598,1704322719,599691121,map,,-0.7747852790799766,1.9608968728918743,0.0,0.0,0.0,0.1641449325070788,0.9864362326740875,"(0.139876, 0.0, 0.0, 0.0, 0.0, 0.0, 0.0, 0.139876, 0.0, 0.0, 0.0, 0.0, 0.0, 0.0, 0.266256, 0.0, 0.0, 0.0, 0.0, 0.0, 0.0, 0.02, 0.0, 0.0, 0.0, 0.0, 0.0, 0.0, 0.02, 0.0, 0.0, 0.0, 0.0, 0.0, 0.0, 100.0)",0.0,0.0,0.0,0.0,0.0,0.0,"(0.0, 0.0, 0.0, 0.0, 0.0, 0.0, 0.0, 0.0, 0.0, 0.0, 0.0, 0.0, 0.0, 0.0, 0.0, 0.0, 0.0, 0.0, 0.0, 0.0, 0.0, 0.0, 0.0, 0.0, 0.0, 0.0, 0.0, 0.0, 0.0, 0.0, 0.0, 0.0, 0.0, 0.0, 0.0, 0.0)"
1704322719.852811,218599,1704322719,799691105,map,,-0.683144014003579,1.9164688898664353,0.0,0.0,0.0,0.1763369832199549,0.9843298574913215,"(0.139876, 0.0, 0.0, 0.0, 0.0, 0.0, 0.0, 0.139876, 0.0, 0.0, 0.0, 0.0, 0.0, 0.0, 0.266256, 0.0, 0.0, 0.0, 0.0, 0.0, 0.0, 0.02, 0.0, 0.0, 0.0, 0.0, 0.0, 0.0, 0.02, 0.0, 0.0, 0.0, 0.0, 0.0, 0.0, 100.0)",0.0,0.0,0.0,0.0,0.0,0.0,"(0.0, 0.0, 0.0, 0.0, 0.0, 0.0, 0.0, 0.0, 0.0, 0.0, 0.0, 0.0, 0.0, 0.0, 0.0, 0.0, 0.0, 0.0, 0.0, 0.0, 0.0, 0.0, 0.0, 0.0, 0.0, 0.0, 0.0, 0.0, 0.0, 0.0, 0.0, 0.0, 0.0, 0.0, 0.0, 0.0)"
1704322720.0591984,218600,1704322719,999691090,map,,-0.5998337698057588,1.8831045564771487,0.0,0.0,0.0,0.18715349807109688,0.9823306816748381,"(0.139876, 0.0, 0.0, 0.0, 0.0, 0.0, 0.0, 0.139876, 0.0, 0.0, 0.0, 0.0, 0.0, 0.0, 0.266256, 0.0, 0.0, 0.0, 0.0, 0.0, 0.0, 0.02, 0.0, 0.0, 0.0, 0.0, 0.0, 0.0, 0.02, 0.0, 0.0, 0.0, 0.0, 0.0, 0.0, 100.0)",0.0,0.0,0.0,0.0,0.0,0.0,"(0.0, 0.0, 0.0, 0.0, 0.0, 0.0, 0.0, 0.0, 0.0, 0.0, 0.0, 0.0, 0.0, 0.0, 0.0, 0.0, 0.0, 0.0, 0.0, 0.0, 0.0, 0.0, 0.0, 0.0, 0.0, 0.0, 0.0, 0.0, 0.0, 0.0, 0.0, 0.0, 0.0, 0.0, 0.0, 0.0)"
1704322720.2530441,218601,1704322720,199691074,map,,-0.5248545493378682,1.8497168845368184,0.0,0.0,0.0,0.19833009708941285,0.9801352827995246,"(0.139129, 0.0, 0.0, 0.0, 0.0, 0.0, 0.0, 0.139129, 0.0, 0.0, 0.0, 0.0, 0.0, 0.0, 0.266256, 0.0, 0.0, 0.0, 0.0, 0.0, 0.0, 0.02, 0.0, 0.0, 0.0, 0.0, 0.0, 0.0, 0.02, 0.0, 0.0, 0.0, 0.0, 0.0, 0.0, 100.0)",0.0,0.0,0.0,0.0,0.0,0.0,"(0.0, 0.0, 0.0, 0.0, 0.0, 0.0, 0.0, 0.0, 0.0, 0.0, 0.0, 0.0, 0.0, 0.0, 0.0, 0.0, 0.0, 0.0, 0.0, 0.0, 0.0, 0.0, 0.0, 0.0, 0.0, 0.0, 0.0, 0.0, 0.0, 0.0, 0.0, 0.0, 0.0, 0.0, 0.0, 0.0)"
1704322720.450883,218602,1704322720,399691058,map,,-0.45820635028977674,1.827329509320842,0.0,0.0,0.0,0.20727576576175946,0.9782825547498413,"(0.138384, 0.0, 0.0, 0.0, 0.0, 0.0, 0.0, 0.138384, 0.0, 0.0, 0.0, 0.0, 0.0, 0.0, 0.265225, 0.0, 0.0, 0.0, 0.0, 0.0, 0.0, 0.02, 0.0, 0.0, 0.0, 0.0, 0.0, 0.0, 0.02, 0.0, 0.0, 0.0, 0.0, 0.0, 0.0, 100.0)",0.0,0.0,0.0,0.0,0.0,0.0,"(0.0, 0.0, 0.0, 0.0, 0.0, 0.0, 0.0, 0.0, 0.0, 0.0, 0.0, 0.0, 0.0, 0.0, 0.0, 0.0, 0.0, 0.0, 0.0, 0.0, 0.0, 0.0, 0.0, 0.0, 0.0, 0.0, 0.0, 0.0, 0.0, 0.0, 0.0, 0.0, 0.0, 0.0, 0.0, 0.0)"
1704322720.6582565,218603,1704322720,599691042,map,,-0.38322712982319385,1.8050755070187225,0.0,0.0,0.0,0.21752165975125276,0.9760554940878414,"(0.138384, 0.0, 0.0, 0.0, 0.0, 0.0, 0.0, 0.138384, 0.0, 0.0, 0.0, 0.0, 0.0, 0.0, 0.264196, 0.0, 0.0, 0.0, 0.0, 0.0, 0.0, 0.02, 0.0, 0.0, 0.0, 0.0, 0.0, 0.0, 0.02, 0.0, 0.0, 0.0, 0.0, 0.0, 0.0, 73.49879455566406)",0.0,0.0,0.0,0.0,0.0,0.0,"(0.0, 0.0, 0.0, 0.0, 0.0, 0.0, 0.0, 0.0, 0.0, 0.0, 0.0, 0.0, 0.0, 0.0, 0.0, 0.0, 0.0, 0.0, 0.0, 0.0, 0.0, 0.0, 0.0, 0.0, 0.0, 0.0, 0.0, 0.0, 0.0, 0.0, 0.0, 0.0, 0.0, 0.0, 0.0, 0.0)"
1704322720.853249,218604,1704322720,799691027,map,,-0.32490995699653247,1.7827414838517832,0.0,0.0,0.0,0.2299072947564207,0.9732125337344275,"(0.13764099999999999, 0.0, 0.0, 0.0, 0.0, 0.0, 0.0, 0.13764099999999999, 0.0, 0.0, 0.0, 0.0, 0.0, 0.0, 0.265225, 0.0, 0.0, 0.0, 0.0, 0.0, 0.0, 0.02, 0.0, 0.0, 0.0, 0.0, 0.0, 0.0, 0.02, 0.0, 0.0, 0.0, 0.0, 0.0, 0.0, 59.79510498046875)",0.0,0.0,0.0,0.0,0.0,0.0,"(0.0, 0.0, 0.0, 0.0, 0.0, 0.0, 0.0, 0.0, 0.0, 0.0, 0.0, 0.0, 0.0, 0.0, 0.0, 0.0, 0.0, 0.0, 0.0, 0.0, 0.0, 0.0, 0.0, 0.0, 0.0, 0.0, 0.0, 0.0, 0.0, 0.0, 0.0, 0.0, 0.0, 0.0, 0.0, 0.0)"
1704322721.0630522,218605,1704322720,999691012,map,,-0.25826176082793095,1.7604508060028583,0.0,0.0,0.0,0.2392251736595278,0.9709641168897895,"(0.13764099999999999, 0.0, 0.0, 0.0, 0.0, 0.0, 0.0, 0.13764099999999999, 0.0, 0.0, 0.0, 0.0, 0.0, 0.0, 0.264196, 0.0, 0.0, 0.0, 0.0, 0.0, 0.0, 0.02, 0.0, 0.0, 0.0, 0.0, 0.0, 0.0, 0.02, 0.0, 0.0, 0.0, 0.0, 0.0, 0.0, 47.11391830444336)",0.0,0.0,0.0,0.0,0.0,0.0,"(0.0, 0.0, 0.0, 0.0, 0.0, 0.0, 0.0, 0.0, 0.0, 0.0, 0.0, 0.0, 0.0, 0.0, 0.0, 0.0, 0.0, 0.0, 0.0, 0.0, 0.0, 0.0, 0.0, 0.0, 0.0, 0.0, 0.0, 0.0, 0.0, 0.0, 0.0, 0.0, 0.0, 0.0, 0.0, 0.0)"
1704322721.2604952,218606,1704322721,199690995,map,,-0.1916135651267813,1.7271131522436014,0.0,0.0,0.0,0.2535152101028578,0.9673314004241276,"(0.1369, 0.0, 0.0, 0.0, 0.0, 0.0, 0.0, 0.1369, 0.0, 0.0, 0.0, 0.0, 0.0, 0.0, 0.264196, 0.0, 0.0, 0.0, 0.0, 0.0, 0.0, 0.02, 0.0, 0.0, 0.0, 0.0, 0.0, 0.0, 0.02, 0.0, 0.0, 0.0, 0.0, 0.0, 0.0, 74.23542785644531)",0.0,0.0,0.0,0.0,0.0,0.0,"(0.0, 0.0, 0.0, 0.0, 0.0, 0.0, 0.0, 0.0, 0.0, 0.0, 0.0, 0.0, 0.0, 0.0, 0.0, 0.0, 0.0, 0.0, 0.0, 0.0, 0.0, 0.0, 0.0, 0.0, 0.0, 0.0, 0.0, 0.0, 0.0, 0.0, 0.0, 0.0, 0.0, 0.0, 0.0, 0.0)"
1704322721.4582124,218607,1704322721,399690980,map,,-0.12496536840204653,1.7159261348044335,0.0,0.0,0.0,0.25975476167001127,0.965674615898003,"(0.1369, 0.0, 0.0, 0.0, 0.0, 0.0, 0.0, 0.1369, 0.0, 0.0, 0.0, 0.0, 0.0, 0.0, 0.265225, 0.0, 0.0, 0.0, 0.0, 0.0, 0.0, 0.02, 0.0, 0.0, 0.0, 0.0, 0.0, 0.0, 0.02, 0.0, 0.0, 0.0, 0.0, 0.0, 0.0, 100.0)",0.0,0.0,0.0,0.0,0.0,0.0,"(0.0, 0.0, 0.0, 0.0, 0.0, 0.0, 0.0, 0.0, 0.0, 0.0, 0.0, 0.0, 0.0, 0.0, 0.0, 0.0, 0.0, 0.0, 0.0, 0.0, 0.0, 0.0, 0.0, 0.0, 0.0, 0.0, 0.0, 0.0, 0.0, 0.0, 0.0, 0.0, 0.0, 0.0, 0.0, 0.0)"
1704322721.6560853,218608,1704322721,599690964,map,,-0.04998614757340891,1.682598486792215,0.0,0.0,0.0,0.26464096440971036,0.9643470122089343,"(0.136161, 0.0, 0.0, 0.0, 0.0, 0.0, 0.0, 0.136161, 0.0, 0.0, 0.0, 0.0, 0.0, 0.0, 0.264196, 0.0, 0.0, 0.0, 0.0, 0.0, 0.0, 0.02, 0.0, 0.0, 0.0, 0.0, 0.0, 0.0, 0.02, 0.0, 0.0, 0.0, 0.0, 0.0, 0.0, 100.0)",0.0,0.0,0.0,0.0,0.0,0.0,"(0.0, 0.0, 0.0, 0.0, 0.0, 0.0, 0.0, 0.0, 0.0, 0.0, 0.0, 0.0, 0.0, 0.0, 0.0, 0.0, 0.0, 0.0, 0.0, 0.0, 0.0, 0.0, 0.0, 0.0, 0.0, 0.0, 0.0, 0.0, 0.0, 0.0, 0.0, 0.0, 0.0, 0.0, 0.0, 0.0)"
1704322721.857364,218609,1704322721,799690948,map,,0.02499307388269678,1.6492441642547286,0.0,0.0,0.0,0.2740194217765289,0.9617241582123519,"(0.135424, 0.0, 0.0, 0.0, 0.0, 0.0, 0.0, 0.135424, 0.0, 0.0, 0.0, 0.0, 0.0, 0.0, 0.264196, 0.0, 0.0, 0.0, 0.0, 0.0, 0.0, 0.02, 0.0, 0.0, 0.0, 0.0, 0.0, 0.0, 0.02, 0.0, 0.0, 0.0, 0.0, 0.0, 0.0, 100.0)",0.0,0.0,0.0,0.0,0.0,0.0,"(0.0, 0.0, 0.0, 0.0, 0.0, 0.0, 0.0, 0.0, 0.0, 0.0, 0.0, 0.0, 0.0, 0.0, 0.0, 0.0, 0.0, 0.0, 0.0, 0.0, 0.0, 0.0, 0.0, 0.0, 0.0, 0.0, 0.0, 0.0, 0.0, 0.0, 0.0, 0.0, 0.0, 0.0, 0.0, 0.0)"
1704322722.0616546,218610,1704322721,999690933,map,,0.09164127041177506,1.6381104974077592,0.0,0.0,0.0,0.27796125960658996,0.9605922850814064,"(0.135424, 0.0, 0.0, 0.0, 0.0, 0.0, 0.0, 0.135424, 0.0, 0.0, 0.0, 0.0, 0.0, 0.0, 0.263169, 0.0, 0.0, 0.0, 0.0, 0.0, 0.0, 0.02, 0.0, 0.0, 0.0, 0.0, 0.0, 0.0, 0.02, 0.0, 0.0, 0.0, 0.0, 0.0, 0.0, 100.0)",0.0,0.0,0.0,0.0,0.0,0.0,"(0.0, 0.0, 0.0, 0.0, 0.0, 0.0, 0.0, 0.0, 0.0, 0.0, 0.0, 0.0, 0.0, 0.0, 0.0, 0.0, 0.0, 0.0, 0.0, 0.0, 0.0, 0.0, 0.0, 0.0, 0.0, 0.0, 0.0, 0.0, 0.0, 0.0, 0.0, 0.0, 0.0, 0.0, 0.0, 0.0)"
1704322722.253278,218611,1704322722,199690917,map,,0.17495151763151556,1.615923187645808,0.0,0.0,0.0,0.28627821745878423,0.9581465348309834,"(0.134689, 0.0, 0.0, 0.0, 0.0, 0.0, 0.0, 0.134689, 0.0, 0.0, 0.0, 0.0, 0.0, 0.0, 0.262144, 0.0, 0.0, 0.0, 0.0, 0.0, 0.0, 0.02, 0.0, 0.0, 0.0, 0.0, 0.0, 0.0, 0.02, 0.0, 0.0, 0.0, 0.0, 0.0, 0.0, 100.0)",0.0,0.0,0.0,0.0,0.0,0.0,"(0.0, 0.0, 0.0, 0.0, 0.0, 0.0, 0.0, 0.0, 0.0, 0.0, 0.0, 0.0, 0.0, 0.0, 0.0, 0.0, 0.0, 0.0, 0.0, 0.0, 0.0, 0.0, 0.0, 0.0, 0.0, 0.0, 0.0, 0.0, 0.0, 0.0, 0.0, 0.0, 0.0, 0.0, 0.0, 0.0)"
1704322722.4581394,218612,1704322722,399690901,map,,0.24159971424711035,1.5936025062879282,0.0,0.0,0.0,0.29495694853864235,0.9555105433791784,"(0.133956, 0.0, 0.0, 0.0, 0.0, 0.0, 0.0, 0.133956, 0.0, 0.0, 0.0, 0.0, 0.0, 0.0, 0.262144, 0.0, 0.0, 0.0, 0.0, 0.0, 0.0, 0.02, 0.0, 0.0, 0.0, 0.0, 0.0, 0.0, 0.02, 0.0, 0.0, 0.0, 0.0, 0.0, 0.0, 100.0)",0.0,0.0,0.0,0.0,0.0,0.0,"(0.0, 0.0, 0.0, 0.0, 0.0, 0.0, 0.0, 0.0, 0.0, 0.0, 0.0, 0.0, 0.0, 0.0, 0.0, 0.0, 0.0, 0.0, 0.0, 0.0, 0.0, 0.0, 0.0, 0.0, 0.0, 0.0, 0.0, 0.0, 0.0, 0.0, 0.0, 0.0, 0.0, 0.0, 0.0, 0.0)"
1704322722.6571643,218613,1704322722,599690885,map,,0.30824791176252053,1.5713418436407254,0.0,0.0,0.0,0.3061690657314116,0.951977154762211,"(0.13322499999999998, 0.0, 0.0, 0.0, 0.0, 0.0, 0.0, 0.13322499999999998, 0.0, 0.0, 0.0, 0.0, 0.0, 0.0, 0.261121, 0.0, 0.0, 0.0, 0.0, 0.0, 0.0, 0.02, 0.0, 0.0, 0.0, 0.0, 0.0, 0.0, 0.02, 0.0, 0.0, 0.0, 0.0, 0.0, 0.0, 100.0)",0.0,0.0,0.0,0.0,0.0,0.0,"(0.0, 0.0, 0.0, 0.0, 0.0, 0.0, 0.0, 0.0, 0.0, 0.0, 0.0, 0.0, 0.0, 0.0, 0.0, 0.0, 0.0, 0.0, 0.0, 0.0, 0.0, 0.0, 0.0, 0.0, 0.0, 0.0, 0.0, 0.0, 0.0, 0.0, 0.0, 0.0, 0.0, 0.0, 0.0, 0.0)"
1704322722.8543453,218614,1704322722,799690870,map,,0.38322713358624105,1.5490778475612976,0.0,0.0,0.0,0.31534452027218285,0.9489772565948601,"(0.132496, 0.0, 0.0, 0.0, 0.0, 0.0, 0.0, 0.132496, 0.0, 0.0, 0.0, 0.0, 0.0, 0.0, 0.2601, 0.0, 0.0, 0.0, 0.0, 0.0, 0.0, 0.02, 0.0, 0.0, 0.0, 0.0, 0.0, 0.0, 0.02, 0.0, 0.0, 0.0, 0.0, 0.0, 0.0, 100.0)",0.0,0.0,0.0,0.0,0.0,0.0,"(0.0, 0.0, 0.0, 0.0, 0.0, 0.0, 0.0, 0.0, 0.0, 0.0, 0.0, 0.0, 0.0, 0.0, 0.0, 0.0, 0.0, 0.0, 0.0, 0.0, 0.0, 0.0, 0.0, 0.0, 0.0, 0.0, 0.0, 0.0, 0.0, 0.0, 0.0, 0.0, 0.0, 0.0, 0.0, 0.0)"
1704322723.0634434,218615,1704322722,999690855,map,,0.458206356216867,1.5268271892026501,0.0,0.0,0.0,0.3237538371528884,0.9461413493388717,"(0.131769, 0.0, 0.0, 0.0, 0.0, 0.0, 0.0, 0.131769, 0.0, 0.0, 0.0, 0.0, 0.0, 0.0, 0.259081, 0.0, 0.0, 0.0, 0.0, 0.0, 0.0, 0.02, 0.0, 0.0, 0.0, 0.0, 0.0, 0.0, 0.02, 0.0, 0.0, 0.0, 0.0, 0.0, 0.0, 100.0)",0.0,0.0,0.0,0.0,0.0,0.0,"(0.0, 0.0, 0.0, 0.0, 0.0, 0.0, 0.0, 0.0, 0.0, 0.0, 0.0, 0.0, 0.0, 0.0, 0.0, 0.0, 0.0, 0.0, 0.0, 0.0, 0.0, 0.0, 0.0, 0.0, 0.0, 0.0, 0.0, 0.0, 0.0, 0.0, 0.0, 0.0, 0.0, 0.0, 0.0, 0.0)"
1704322723.255248,218616,1704322723,199690838,map,,0.5248545535663711,1.5156935273602914,0.0,0.0,0.0,0.3312981172929895,0.9435261297272697,"(0.131769, 0.0, 0.0, 0.0, 0.0, 0.0, 0.0, 0.131769, 0.0, 0.0, 0.0, 0.0, 0.0, 0.0, 0.259081, 0.0, 0.0, 0.0, 0.0, 0.0, 0.0, 0.02, 0.0, 0.0, 0.0, 0.0, 0.0, 0.0, 0.02, 0.0, 0.0, 0.0, 0.0, 0.0, 0.0, 100.0)",0.0,0.0,0.0,0.0,0.0,0.0,"(0.0, 0.0, 0.0, 0.0, 0.0, 0.0, 0.0, 0.0, 0.0, 0.0, 0.0, 0.0, 0.0, 0.0, 0.0, 0.0, 0.0, 0.0, 0.0, 0.0, 0.0, 0.0, 0.0, 0.0, 0.0, 0.0, 0.0, 0.0, 0.0, 0.0, 0.0, 0.0, 0.0, 0.0, 0.0, 0.0)"
1704322723.456317,218617,1704322723,399690823,map,,0.5998337762921924,1.4934395367424922,0.0,0.0,0.0,0.3393482533052213,0.9406608118650928,"(0.131044, 0.0, 0.0, 0.0, 0.0, 0.0, 0.0, 0.131044, 0.0, 0.0, 0.0, 0.0, 0.0, 0.0, 0.259081, 0.0, 0.0, 0.0, 0.0, 0.0, 0.0, 0.02, 0.0, 0.0, 0.0, 0.0, 0.0, 0.0, 0.02, 0.0, 0.0, 0.0, 0.0, 0.0, 0.0, 61.99692916870117)",0.0,0.0,0.0,0.0,0.0,0.0,"(0.0, 0.0, 0.0, 0.0, 0.0, 0.0, 0.0, 0.0, 0.0, 0.0, 0.0, 0.0, 0.0, 0.0, 0.0, 0.0, 0.0, 0.0, 0.0, 0.0, 0.0, 0.0, 0.0, 0.0, 0.0, 0.0, 0.0, 0.0, 0.0, 0.0, 0.0, 0.0, 0.0, 0.0, 0.0, 0.0)"
1704322723.654452,218618,1704322723,599690807,map,,0.6664819734919255,1.471152202316398,0.0,0.0,0.0,0.344751413781003,0.9386940197401918,"(0.131044, 0.0, 0.0, 0.0, 0.0, 0.0, 0.0, 0.131044, 0.0, 0.0, 0.0, 0.0, 0.0, 0.0, 0.258064, 0.0, 0.0, 0.0, 0.0, 0.0, 0.0, 0.02, 0.0, 0.0, 0.0, 0.0, 0.0, 0.0, 0.02, 0.0, 0.0, 0.0, 0.0, 0.0, 0.0, 64.96263122558594)",0.0,0.0,0.0,0.0,0.0,0.0,"(0.0, 0.0, 0.0, 0.0, 0.0, 0.0, 0.0, 0.0, 0.0, 0.0, 0.0, 0.0, 0.0, 0.0, 0.0, 0.0, 0.0, 0.0, 0.0, 0.0, 0.0, 0.0, 0.0, 0.0, 0.0, 0.0, 0.0, 0.0, 0.0, 0.0, 0.0, 0.0, 0.0, 0.0, 0.0, 0.0)"
1704322723.8532374,218619,1704322723,799690791,map,,0.749792222752779,1.4489448937652092,0.0,0.0,0.0,0.35341515364872944,0.9354665836743956,"(0.130321, 0.0, 0.0, 0.0, 0.0, 0.0, 0.0, 0.130321, 0.0, 0.0, 0.0, 0.0, 0.0, 0.0, 0.258064, 0.0, 0.0, 0.0, 0.0, 0.0, 0.0, 0.02, 0.0, 0.0, 0.0, 0.0, 0.0, 0.0, 0.02, 0.0, 0.0, 0.0, 0.0, 0.0, 0.0, 70.40408325195312)",0.0,0.0,0.0,0.0,0.0,0.0,"(0.0, 0.0, 0.0, 0.0, 0.0, 0.0, 0.0, 0.0, 0.0, 0.0, 0.0, 0.0, 0.0, 0.0, 0.0, 0.0, 0.0, 0.0, 0.0, 0.0, 0.0, 0.0, 0.0, 0.0, 0.0, 0.0, 0.0, 0.0, 0.0, 0.0, 0.0, 0.0, 0.0, 0.0, 0.0, 0.0)"
1704322724.0612442,218620,1704322723,999690777,map,,0.8247714459398086,1.4267009073464865,0.0,0.0,0.0,0.36324889105903285,0.931692139681549,"(0.130321, 0.0, 0.0, 0.0, 0.0, 0.0, 0.0, 0.130321, 0.0, 0.0, 0.0, 0.0, 0.0, 0.0, 0.258064, 0.0, 0.0, 0.0, 0.0, 0.0, 0.0, 0.02, 0.0, 0.0, 0.0, 0.0, 0.0, 0.0, 0.02, 0.0, 0.0, 0.0, 0.0, 0.0, 0.0, 78.4693603515625)",0.0,0.0,0.0,0.0,0.0,0.0,"(0.0, 0.0, 0.0, 0.0, 0.0, 0.0, 0.0, 0.0, 0.0, 0.0, 0.0, 0.0, 0.0, 0.0, 0.0, 0.0, 0.0, 0.0, 0.0, 0.0, 0.0, 0.0, 0.0, 0.0, 0.0, 0.0, 0.0, 0.0, 0.0, 0.0, 0.0, 0.0, 0.0, 0.0, 0.0, 0.0)"
1704322724.25741,218621,1704322724,199690760,map,,0.908081694994749,1.4155939252437804,0.0,0.0,0.0,0.3702337684603405,0.928938618365958,"(0.1296, 0.0, 0.0, 0.0, 0.0, 0.0, 0.0, 0.1296, 0.0, 0.0, 0.0, 0.0, 0.0, 0.0, 0.258064, 0.0, 0.0, 0.0, 0.0, 0.0, 0.0, 0.02, 0.0, 0.0, 0.0, 0.0, 0.0, 0.0, 0.02, 0.0, 0.0, 0.0, 0.0, 0.0, 0.0, 91.40438079833984)",0.0,0.0,0.0,0.0,0.0,0.0,"(0.0, 0.0, 0.0, 0.0, 0.0, 0.0, 0.0, 0.0, 0.0, 0.0, 0.0, 0.0, 0.0, 0.0, 0.0, 0.0, 0.0, 0.0, 0.0, 0.0, 0.0, 0.0, 0.0, 0.0, 0.0, 0.0, 0.0, 0.0, 0.0, 0.0, 0.0, 0.0, 0.0, 0.0, 0.0, 0.0)"
1704322724.4602182,218622,1704322724,399690744,map,,0.9830609180797878,1.3933299347335215,0.0,0.0,0.0,0.3739478854049078,0.927449717775146,"(0.128881, 0.0, 0.0, 0.0, 0.0, 0.0, 0.0, 0.128881, 0.0, 0.0, 0.0, 0.0, 0.0, 0.0, 0.257049, 0.0, 0.0, 0.0, 0.0, 0.0, 0.0, 0.02, 0.0, 0.0, 0.0, 0.0, 0.0, 0.0, 0.02, 0.0, 0.0, 0.0, 0.0, 0.0, 0.0, 87.74442291259766)",0.0,0.0,0.0,0.0,0.0,0.0,"(0.0, 0.0, 0.0, 0.0, 0.0, 0.0, 0.0, 0.0, 0.0, 0.0, 0.0, 0.0, 0.0, 0.0, 0.0, 0.0, 0.0, 0.0, 0.0, 0.0, 0.0, 0.0, 0.0, 0.0, 0.0, 0.0, 0.0, 0.0, 0.0, 0.0, 0.0, 0.0, 0.0, 0.0, 0.0, 0.0)"
1704322724.6551428,218623,1704322724,599690728,map,,1.0580401396694468,1.382169605587756,0.0,0.0,0.0,0.377419427711257,0.9260424264503799,"(0.128881, 0.0, 0.0, 0.0, 0.0, 0.0, 0.0, 0.128881, 0.0, 0.0, 0.0, 0.0, 0.0, 0.0, 0.257049, 0.0, 0.0, 0.0, 0.0, 0.0, 0.0, 0.02, 0.0, 0.0, 0.0, 0.0, 0.0, 0.0, 0.02, 0.0, 0.0, 0.0, 0.0, 0.0, 0.0, 70.13666534423828)",0.0,0.0,0.0,0.0,0.0,0.0,"(0.0, 0.0, 0.0, 0.0, 0.0, 0.0, 0.0, 0.0, 0.0, 0.0, 0.0, 0.0, 0.0, 0.0, 0.0, 0.0, 0.0, 0.0, 0.0, 0.0, 0.0, 0.0, 0.0, 0.0, 0.0, 0.0, 0.0, 0.0, 0.0, 0.0, 0.0, 0.0, 0.0, 0.0, 0.0, 0.0)"
1704322724.8550239,218624,1704322724,799690713,map,,1.1413503871683313,1.371039285476158,0.0,0.0,0.0,0.37551855267340783,0.9268148771993623,"(0.128164, 0.0, 0.0, 0.0, 0.0, 0.0, 0.0, 0.128164, 0.0, 0.0, 0.0, 0.0, 0.0, 0.0, 0.256036, 0.0, 0.0, 0.0, 0.0, 0.0, 0.0, 0.02, 0.0, 0.0, 0.0, 0.0, 0.0, 0.0, 0.02, 0.0, 0.0, 0.0, 0.0, 0.0, 0.0, 80.16632843017578)",0.0,0.0,0.0,0.0,0.0,0.0,"(0.0, 0.0, 0.0, 0.0, 0.0, 0.0, 0.0, 0.0, 0.0, 0.0, 0.0, 0.0, 0.0, 0.0, 0.0, 0.0, 0.0, 0.0, 0.0, 0.0, 0.0, 0.0, 0.0, 0.0, 0.0, 0.0, 0.0, 0.0, 0.0, 0.0, 0.0, 0.0, 0.0, 0.0, 0.0, 0.0)"
1704322725.063809,218625,1704322724,999690698,map,,1.2246606371027604,1.348801974078538,0.0,0.0,0.0,0.36843538147263133,0.9296533599568801,"(0.12744899999999998, 0.0, 0.0, 0.0, 0.0, 0.0, 0.0, 0.12744899999999998, 0.0, 0.0, 0.0, 0.0, 0.0, 0.0, 0.256036, 0.0, 0.0, 0.0, 0.0, 0.0, 0.0, 0.02, 0.0, 0.0, 0.0, 0.0, 0.0, 0.0, 0.02, 0.0, 0.0, 0.0, 0.0, 0.0, 0.0, 68.80253601074219)",0.0,0.0,0.0,0.0,0.0,0.0,"(0.0, 0.0, 0.0, 0.0, 0.0, 0.0, 0.0, 0.0, 0.0, 0.0, 0.0, 0.0, 0.0, 0.0, 0.0, 0.0, 0.0, 0.0, 0.0, 0.0, 0.0, 0.0, 0.0, 0.0, 0.0, 0.0, 0.0, 0.0, 0.0, 0.0, 0.0, 0.0, 0.0, 0.0, 0.0, 0.0)"
1704322725.2530963,218626,1704322725,199690681,map,,1.3079708874283704,1.326571331478814,0.0,0.0,0.0,0.35776827463519917,0.9338103992056164,"(0.126736, 0.0, 0.0, 0.0, 0.0, 0.0, 0.0, 0.126736, 0.0, 0.0, 0.0, 0.0, 0.0, 0.0, 0.255025, 0.0, 0.0, 0.0, 0.0, 0.0, 0.0, 0.02, 0.0, 0.0, 0.0, 0.0, 0.0, 0.0, 0.02, 0.0, 0.0, 0.0, 0.0, 0.0, 0.0, 81.17127990722656)",0.0,0.0,0.0,0.0,0.0,0.0,"(0.0, 0.0, 0.0, 0.0, 0.0, 0.0, 0.0, 0.0, 0.0, 0.0, 0.0, 0.0, 0.0, 0.0, 0.0, 0.0, 0.0, 0.0, 0.0, 0.0, 0.0, 0.0, 0.0, 0.0, 0.0, 0.0, 0.0, 0.0, 0.0, 0.0, 0.0, 0.0, 0.0, 0.0, 0.0, 0.0)"
1704322725.455793,218627,1704322725,399690666,map,,1.3829501093517138,1.2931370057433296,0.0,0.0,0.0,0.3485367823418865,0.9372951036652034,"(0.126736, 0.0, 0.0, 0.0, 0.0, 0.0, 0.0, 0.126736, 0.0, 0.0, 0.0, 0.0, 0.0, 0.0, 0.254016, 0.0, 0.0, 0.0, 0.0, 0.0, 0.0, 0.02, 0.0, 0.0, 0.0, 0.0, 0.0, 0.0, 0.02, 0.0, 0.0, 0.0, 0.0, 0.0, 0.0, 100.0)",0.0,0.0,0.0,0.0,0.0,0.0,"(0.0, 0.0, 0.0, 0.0, 0.0, 0.0, 0.0, 0.0, 0.0, 0.0, 0.0, 0.0, 0.0, 0.0, 0.0, 0.0, 0.0, 0.0, 0.0, 0.0, 0.0, 0.0, 0.0, 0.0, 0.0, 0.0, 0.0, 0.0, 0.0, 0.0, 0.0, 0.0, 0.0, 0.0, 0.0, 0.0)"
1704322725.6558678,218628,1704322725,599690650,map,,1.449598306929307,1.2597126789439248,0.0,0.0,0.0,0.33514063739455946,0.9421681130067863,"(0.12531599999999998, 0.0, 0.0, 0.0, 0.0, 0.0, 0.0, 0.12531599999999998, 0.0, 0.0, 0.0, 0.0, 0.0, 0.0, 0.253009, 0.0, 0.0, 0.0, 0.0, 0.0, 0.0, 0.02, 0.0, 0.0, 0.0, 0.0, 0.0, 0.0, 0.02, 0.0, 0.0, 0.0, 0.0, 0.0, 0.0, 100.0)",0.0,0.0,0.0,0.0,0.0,0.0,"(0.0, 0.0, 0.0, 0.0, 0.0, 0.0, 0.0, 0.0, 0.0, 0.0, 0.0, 0.0, 0.0, 0.0, 0.0, 0.0, 0.0, 0.0, 0.0, 0.0, 0.0, 0.0, 0.0, 0.0, 0.0, 0.0, 0.0, 0.0, 0.0, 0.0, 0.0, 0.0, 0.0, 0.0, 0.0, 0.0)"
1704322725.8512006,218629,1704322725,799690634,map,,1.507915482156791,1.2374553606882492,0.0,0.0,0.0,0.3262024382252669,0.9452999361556579,"(0.12460899999999998, 0.0, 0.0, 0.0, 0.0, 0.0, 0.0, 0.12460899999999998, 0.0, 0.0, 0.0, 0.0, 0.0, 0.0, 0.252004, 0.0, 0.0, 0.0, 0.0, 0.0, 0.0, 0.02, 0.0, 0.0, 0.0, 0.0, 0.0, 0.0, 0.02, 0.0, 0.0, 0.0, 0.0, 0.0, 0.0, 100.0)",0.0,0.0,0.0,0.0,0.0,0.0,"(0.0, 0.0, 0.0, 0.0, 0.0, 0.0, 0.0, 0.0, 0.0, 0.0, 0.0, 0.0, 0.0, 0.0, 0.0, 0.0, 0.0, 0.0, 0.0, 0.0, 0.0, 0.0, 0.0, 0.0, 0.0, 0.0, 0.0, 0.0, 0.0, 0.0, 0.0, 0.0, 0.0, 0.0, 0.0, 0.0)"
1704322726.060034,218630,1704322725,999690620,map,,1.5495706024924711,1.215131356877468,0.0,0.0,0.0,0.31696118245289134,0.9484385108261183,"(0.12320099999999999, 0.0, 0.0, 0.0, 0.0, 0.0, 0.0, 0.12320099999999999, 0.0, 0.0, 0.0, 0.0, 0.0, 0.0, 0.251001, 0.0, 0.0, 0.0, 0.0, 0.0, 0.0, 0.02, 0.0, 0.0, 0.0, 0.0, 0.0, 0.0, 0.02, 0.0, 0.0, 0.0, 0.0, 0.0, 0.0, 100.0)",0.0,0.0,0.0,0.0,0.0,0.0,"(0.0, 0.0, 0.0, 0.0, 0.0, 0.0, 0.0, 0.0, 0.0, 0.0, 0.0, 0.0, 0.0, 0.0, 0.0, 0.0, 0.0, 0.0, 0.0, 0.0, 0.0, 0.0, 0.0, 0.0, 0.0, 0.0, 0.0, 0.0, 0.0, 0.0, 0.0, 0.0, 0.0, 0.0, 0.0, 0.0)"
1704322726.25505,218631,1704322726,199690603,map,,1.5745636718460139,1.203924343826362,0.0,0.0,0.0,0.31782323910737104,0.9481499821670086,"(0.12249999999999998, 0.0, 0.0, 0.0, 0.0, 0.0, 0.0, 0.12249999999999998, 0.0, 0.0, 0.0, 0.0, 0.0, 0.0, 0.25, 0.0, 0.0, 0.0, 0.0, 0.0, 0.0, 0.02, 0.0, 0.0, 0.0, 0.0, 0.0, 0.0, 0.02, 0.0, 0.0, 0.0, 0.0, 0.0, 0.0, 100.0)",0.0,0.0,0.0,0.0,0.0,0.0,"(0.0, 0.0, 0.0, 0.0, 0.0, 0.0, 0.0, 0.0, 0.0, 0.0, 0.0, 0.0, 0.0, 0.0, 0.0, 0.0, 0.0, 0.0, 0.0, 0.0, 0.0, 0.0, 0.0, 0.0, 0.0, 0.0, 0.0, 0.0, 0.0, 0.0, 0.0, 0.0, 0.0, 0.0, 0.0, 0.0)"
1704322726.453756,218632,1704322726,399690587,map,,1.5912257190527932,1.1927506709163038,0.0,0.0,0.0,0.3209972625947191,0.9470801219573225,"(0.12110399999999999, 0.0, 0.0, 0.0, 0.0, 0.0, 0.0, 0.12110399999999999, 0.0, 0.0, 0.0, 0.0, 0.0, 0.0, 0.248004, 0.0, 0.0, 0.0, 0.0, 0.0, 0.0, 0.02, 0.0, 0.0, 0.0, 0.0, 0.0, 0.0, 0.02, 0.0, 0.0, 0.0, 0.0, 0.0, 0.0, 100.0)",0.0,0.0,0.0,0.0,0.0,0.0,"(0.0, 0.0, 0.0, 0.0, 0.0, 0.0, 0.0, 0.0, 0.0, 0.0, 0.0, 0.0, 0.0, 0.0, 0.0, 0.0, 0.0, 0.0, 0.0, 0.0, 0.0, 0.0, 0.0, 0.0, 0.0, 0.0, 0.0, 0.0, 0.0, 0.0, 0.0, 0.0, 0.0, 0.0, 0.0, 0.0)"
1704322726.8523047,218633,1704322726,799690556,map,,1.591225716355782,1.192717328814748,0.0,0.0,0.0,0.33149770045680677,0.9434560268458988,"(0.11971599999999999, 0.0, 0.0, 0.0, 0.0, 0.0, 0.0, 0.11971599999999999, 0.0, 0.0, 0.0, 0.0, 0.0, 0.0, 0.24601599999999998, 0.0, 0.0, 0.0, 0.0, 0.0, 0.0, 0.02, 0.0, 0.0, 0.0, 0.0, 0.0, 0.0, 0.02, 0.0, 0.0, 0.0, 0.0, 0.0, 0.0, 100.0)",0.0,0.0,0.0,0.0,0.0,0.0,"(0.0, 0.0, 0.0, 0.0, 0.0, 0.0, 0.0, 0.0, 0.0, 0.0, 0.0, 0.0, 0.0, 0.0, 0.0, 0.0, 0.0, 0.0, 0.0, 0.0, 0.0, 0.0, 0.0, 0.0, 0.0, 0.0, 0.0, 0.0, 0.0, 0.0, 0.0, 0.0, 0.0, 0.0, 0.0, 0.0)"
1704322727.059324,218634,1704322726,999690541,map,,1.5995567455946094,1.1816403456605222,0.0,0.0,0.0,0.3385508760957624,0.9409480879914639,"(0.11833599999999998, 0.0, 0.0, 0.0, 0.0, 0.0, 0.0, 0.11833599999999998, 0.0, 0.0, 0.0, 0.0, 0.0, 0.0, 0.245025, 0.0, 0.0, 0.0, 0.0, 0.0, 0.0, 0.02, 0.0, 0.0, 0.0, 0.0, 0.0, 0.0, 0.02, 0.0, 0.0, 0.0, 0.0, 0.0, 0.0, 100.0)",0.0,0.0,0.0,0.0,0.0,0.0,"(0.0, 0.0, 0.0, 0.0, 0.0, 0.0, 0.0, 0.0, 0.0, 0.0, 0.0, 0.0, 0.0, 0.0, 0.0, 0.0, 0.0, 0.0, 0.0, 0.0, 0.0, 0.0, 0.0, 0.0, 0.0, 0.0, 0.0, 0.0, 0.0, 0.0, 0.0, 0.0, 0.0, 0.0, 0.0, 0.0)"
1704322727.2551792,218635,1704322727,199690524,map,,1.5995567460103342,1.1816470138854125,0.0,0.0,0.0,0.3468960740616319,0.9379035738286888,"(0.11764900000000002, 0.0, 0.0, 0.0, 0.0, 0.0, 0.0, 0.11764900000000002, 0.0, 0.0, 0.0, 0.0, 0.0, 0.0, 0.244036, 0.0, 0.0, 0.0, 0.0, 0.0, 0.0, 0.02, 0.0, 0.0, 0.0, 0.0, 0.0, 0.0, 0.02, 0.0, 0.0, 0.0, 0.0, 0.0, 0.0, 100.0)",0.0,0.0,0.0,0.0,0.0,0.0,"(0.0, 0.0, 0.0, 0.0, 0.0, 0.0, 0.0, 0.0, 0.0, 0.0, 0.0, 0.0, 0.0, 0.0, 0.0, 0.0, 0.0, 0.0, 0.0, 0.0, 0.0, 0.0, 0.0, 0.0, 0.0, 0.0, 0.0, 0.0, 0.0, 0.0, 0.0, 0.0, 0.0, 0.0, 0.0, 0.0)"
1704322727.4542983,218636,1704322727,399690508,map,,1.6078877739668442,1.181687026172367,0.0,0.0,0.0,0.35880579587800393,0.9334122352124768,"(0.11628100000000002, 0.0, 0.0, 0.0, 0.0, 0.0, 0.0, 0.11628100000000002, 0.0, 0.0, 0.0, 0.0, 0.0, 0.0, 0.243049, 0.0, 0.0, 0.0, 0.0, 0.0, 0.0, 0.02, 0.0, 0.0, 0.0, 0.0, 0.0, 0.0, 0.02, 0.0, 0.0, 0.0, 0.0, 0.0, 0.0, 100.0)",0.0,0.0,0.0,0.0,0.0,0.0,"(0.0, 0.0, 0.0, 0.0, 0.0, 0.0, 0.0, 0.0, 0.0, 0.0, 0.0, 0.0, 0.0, 0.0, 0.0, 0.0, 0.0, 0.0, 0.0, 0.0, 0.0, 0.0, 0.0, 0.0, 0.0, 0.0, 0.0, 0.0, 0.0, 0.0, 0.0, 0.0, 0.0, 0.0, 0.0, 0.0)"
1704322727.6512134,218637,1704322727,599690493,map,,1.6078877760357515,1.1705733648174494,0.0,0.0,0.0,0.37577066541553344,0.9267126884925917,"(0.11560000000000002, 0.0, 0.0, 0.0, 0.0, 0.0, 0.0, 0.11560000000000002, 0.0, 0.0, 0.0, 0.0, 0.0, 0.0, 0.242064, 0.0, 0.0, 0.0, 0.0, 0.0, 0.0, 0.02, 0.0, 0.0, 0.0, 0.0, 0.0, 0.0, 0.02, 0.0, 0.0, 0.0, 0.0, 0.0, 0.0, 100.0)",0.0,0.0,0.0,0.0,0.0,0.0,"(0.0, 0.0, 0.0, 0.0, 0.0, 0.0, 0.0, 0.0, 0.0, 0.0, 0.0, 0.0, 0.0, 0.0, 0.0, 0.0, 0.0, 0.0, 0.0, 0.0, 0.0, 0.0, 0.0, 0.0, 0.0, 0.0, 0.0, 0.0, 0.0, 0.0, 0.0, 0.0, 0.0, 0.0, 0.0, 0.0)"
1704322727.8543162,218638,1704322727,799690477,map,,1.6078877742776574,1.1705500255730286,0.0,0.0,0.0,0.39284110197200806,0.9196063661161868,"(0.11492100000000001, 0.0, 0.0, 0.0, 0.0, 0.0, 0.0, 0.11492100000000001, 0.0, 0.0, 0.0, 0.0, 0.0, 0.0, 0.241081, 0.0, 0.0, 0.0, 0.0, 0.0, 0.0, 0.02, 0.0, 0.0, 0.0, 0.0, 0.0, 0.0, 0.02, 0.0, 0.0, 0.0, 0.0, 0.0, 0.0, 100.0)",0.0,0.0,0.0,0.0,0.0,0.0,"(0.0, 0.0, 0.0, 0.0, 0.0, 0.0, 0.0, 0.0, 0.0, 0.0, 0.0, 0.0, 0.0, 0.0, 0.0, 0.0, 0.0, 0.0, 0.0, 0.0, 0.0, 0.0, 0.0, 0.0, 0.0, 0.0, 0.0, 0.0, 0.0, 0.0, 0.0, 0.0, 0.0, 0.0, 0.0, 0.0)"
1704322728.0590308,218639,1704322727,999690462,map,,1.6162187992160026,1.1705533616637172,0.0,0.0,0.0,0.40791916351848606,0.9130180480332131,"(0.11424400000000001, 0.0, 0.0, 0.0, 0.0, 0.0, 0.0, 0.11424400000000001, 0.0, 0.0, 0.0, 0.0, 0.0, 0.0, 0.239121, 0.0, 0.0, 0.0, 0.0, 0.0, 0.0, 0.02, 0.0, 0.0, 0.0, 0.0, 0.0, 0.0, 0.02, 0.0, 0.0, 0.0, 0.0, 0.0, 0.0, 100.0)",0.0,0.0,0.0,0.0,0.0,0.0,"(0.0, 0.0, 0.0, 0.0, 0.0, 0.0, 0.0, 0.0, 0.0, 0.0, 0.0, 0.0, 0.0, 0.0, 0.0, 0.0, 0.0, 0.0, 0.0, 0.0, 0.0, 0.0, 0.0, 0.0, 0.0, 0.0, 0.0, 0.0, 0.0, 0.0, 0.0, 0.0, 0.0, 0.0, 0.0, 0.0)"
1704322728.2538278,218640,1704322728,199690445,map,,1.6162187978613614,1.170536690581692,0.0,0.0,0.0,0.42417312385240513,0.9055811178471491,"(0.11289600000000001, 0.0, 0.0, 0.0, 0.0, 0.0, 0.0, 0.11289600000000001, 0.0, 0.0, 0.0, 0.0, 0.0, 0.0, 0.238144, 0.0, 0.0, 0.0, 0.0, 0.0, 0.0, 0.02, 0.0, 0.0, 0.0, 0.0, 0.0, 0.0, 0.02, 0.0, 0.0, 0.0, 0.0, 0.0, 0.0, 100.0)",0.0,0.0,0.0,0.0,0.0,0.0,"(0.0, 0.0, 0.0, 0.0, 0.0, 0.0, 0.0, 0.0, 0.0, 0.0, 0.0, 0.0, 0.0, 0.0, 0.0, 0.0, 0.0, 0.0, 0.0, 0.0, 0.0, 0.0, 0.0, 0.0, 0.0, 0.0, 0.0, 0.0, 0.0, 0.0, 0.0, 0.0, 0.0, 0.0, 0.0, 0.0)"
1704322728.4554439,218641,1704322728,399690430,map,,1.6162187964121486,1.1705166860674807,0.0,0.0,0.0,0.4299951660393091,0.9028311897485748,"(0.11222500000000002, 0.0, 0.0, 0.0, 0.0, 0.0, 0.0, 0.11222500000000002, 0.0, 0.0, 0.0, 0.0, 0.0, 0.0, 0.237169, 0.0, 0.0, 0.0, 0.0, 0.0, 0.0, 0.02, 0.0, 0.0, 0.0, 0.0, 0.0, 0.0, 0.02, 0.0, 0.0, 0.0, 0.0, 0.0, 0.0, 100.0)",0.0,0.0,0.0,0.0,0.0,0.0,"(0.0, 0.0, 0.0, 0.0, 0.0, 0.0, 0.0, 0.0, 0.0, 0.0, 0.0, 0.0, 0.0, 0.0, 0.0, 0.0, 0.0, 0.0, 0.0, 0.0, 0.0, 0.0, 0.0, 0.0, 0.0, 0.0, 0.0, 0.0, 0.0, 0.0, 0.0, 0.0, 0.0, 0.0, 0.0, 0.0)"
1704322728.6544137,218642,1704322728,599690414,map,,1.6245498237160112,1.1594096954709672,0.0,0.0,0.0,0.4188572978745772,0.908052071203633,"(0.11155600000000002, 0.0, 0.0, 0.0, 0.0, 0.0, 0.0, 0.11155600000000002, 0.0, 0.0, 0.0, 0.0, 0.0, 0.0, 0.236196, 0.0, 0.0, 0.0, 0.0, 0.0, 0.0, 0.02, 0.0, 0.0, 0.0, 0.0, 0.0, 0.0, 0.02, 0.0, 0.0, 0.0, 0.0, 0.0, 0.0, 100.0)",0.0,0.0,0.0,0.0,0.0,0.0,"(0.0, 0.0, 0.0, 0.0, 0.0, 0.0, 0.0, 0.0, 0.0, 0.0, 0.0, 0.0, 0.0, 0.0, 0.0, 0.0, 0.0, 0.0, 0.0, 0.0, 0.0, 0.0, 0.0, 0.0, 0.0, 0.0, 0.0, 0.0, 0.0, 0.0, 0.0, 0.0, 0.0, 0.0, 0.0, 0.0)"
1704322728.8528268,218643,1704322728,799690398,map,,1.6662049523441387,1.137192385589715,0.0,0.0,0.0,0.40206088558683795,0.9156129336576279,"(0.11088900000000002, 0.0, 0.0, 0.0, 0.0, 0.0, 0.0, 0.11088900000000002, 0.0, 0.0, 0.0, 0.0, 0.0, 0.0, 0.235225, 0.0, 0.0, 0.0, 0.0, 0.0, 0.0, 0.02, 0.0, 0.0, 0.0, 0.0, 0.0, 0.0, 0.02, 0.0, 0.0, 0.0, 0.0, 0.0, 0.0, 100.0)",0.0,0.0,0.0,0.0,0.0,0.0,"(0.0, 0.0, 0.0, 0.0, 0.0, 0.0, 0.0, 0.0, 0.0, 0.0, 0.0, 0.0, 0.0, 0.0, 0.0, 0.0, 0.0, 0.0, 0.0, 0.0, 0.0, 0.0, 0.0, 0.0, 0.0, 0.0, 0.0, 0.0, 0.0, 0.0, 0.0, 0.0, 0.0, 0.0, 0.0, 0.0)"
1704322729.0723302,218644,1704322728,999690384,map,,1.7328531534963,1.1038114083224893,0.0,0.0,0.0,0.37139113689561176,0.9284765066685237,"(0.109561, 0.0, 0.0, 0.0, 0.0, 0.0, 0.0, 0.109561, 0.0, 0.0, 0.0, 0.0, 0.0, 0.0, 0.234256, 0.0, 0.0, 0.0, 0.0, 0.0, 0.0, 0.02, 0.0, 0.0, 0.0, 0.0, 0.0, 0.0, 0.02, 0.0, 0.0, 0.0, 0.0, 0.0, 0.0, 100.0)",0.0,0.0,0.0,0.0,0.0,0.0,"(0.0, 0.0, 0.0, 0.0, 0.0, 0.0, 0.0, 0.0, 0.0, 0.0, 0.0, 0.0, 0.0, 0.0, 0.0, 0.0, 0.0, 0.0, 0.0, 0.0, 0.0, 0.0, 0.0, 0.0, 0.0, 0.0, 0.0, 0.0, 0.0, 0.0, 0.0, 0.0, 0.0, 0.0, 0.0, 0.0)"
1704322729.2593791,218645,1704322729,199690367,map,,1.791170340858685,1.059416794538122,0.0,0.0,0.0,0.3334339087266092,0.9427734767754634,"(0.10890000000000001, 0.0, 0.0, 0.0, 0.0, 0.0, 0.0, 0.10890000000000001, 0.0, 0.0, 0.0, 0.0, 0.0, 0.0, 0.233289, 0.0, 0.0, 0.0, 0.0, 0.0, 0.0, 0.02, 0.0, 0.0, 0.0, 0.0, 0.0, 0.0, 0.02, 0.0, 0.0, 0.0, 0.0, 0.0, 0.0, 100.0)",0.0,0.0,0.0,0.0,0.0,0.0,"(0.0, 0.0, 0.0, 0.0, 0.0, 0.0, 0.0, 0.0, 0.0, 0.0, 0.0, 0.0, 0.0, 0.0, 0.0, 0.0, 0.0, 0.0, 0.0, 0.0, 0.0, 0.0, 0.0, 0.0, 0.0, 0.0, 0.0, 0.0, 0.0, 0.0, 0.0, 0.0, 0.0, 0.0, 0.0, 0.0)"
1704322729.4551814,218646,1704322729,399690351,map,,1.832825478394091,1.0150088403390405,0.0,0.0,0.0,0.288306606096535,0.9575381459143534,"(0.108241, 0.0, 0.0, 0.0, 0.0, 0.0, 0.0, 0.108241, 0.0, 0.0, 0.0, 0.0, 0.0, 0.0, 0.23232399999999997, 0.0, 0.0, 0.0, 0.0, 0.0, 0.0, 0.02, 0.0, 0.0, 0.0, 0.0, 0.0, 0.0, 0.02, 0.0, 0.0, 0.0, 0.0, 0.0, 0.0, 100.0)",0.0,0.0,0.0,0.0,0.0,0.0,"(0.0, 0.0, 0.0, 0.0, 0.0, 0.0, 0.0, 0.0, 0.0, 0.0, 0.0, 0.0, 0.0, 0.0, 0.0, 0.0, 0.0, 0.0, 0.0, 0.0, 0.0, 0.0, 0.0, 0.0, 0.0, 0.0, 0.0, 0.0, 0.0, 0.0, 0.0, 0.0, 0.0, 0.0, 0.0, 0.0)"
1704322729.6629953,218647,1704322729,599690335,map,,1.8828116403698183,0.9705942199380712,0.0,0.0,0.0,0.24174638128862622,0.9703394700484229,"(0.10758400000000001, 0.0, 0.0, 0.0, 0.0, 0.0, 0.0, 0.10758400000000001, 0.0, 0.0, 0.0, 0.0, 0.0, 0.0, 0.23232399999999997, 0.0, 0.0, 0.0, 0.0, 0.0, 0.0, 0.02, 0.0, 0.0, 0.0, 0.0, 0.0, 0.0, 0.02, 0.0, 0.0, 0.0, 0.0, 0.0, 0.0, 100.0)",0.0,0.0,0.0,0.0,0.0,0.0,"(0.0, 0.0, 0.0, 0.0, 0.0, 0.0, 0.0, 0.0, 0.0, 0.0, 0.0, 0.0, 0.0, 0.0, 0.0, 0.0, 0.0, 0.0, 0.0, 0.0, 0.0, 0.0, 0.0, 0.0, 0.0, 0.0, 0.0, 0.0, 0.0, 0.0, 0.0, 0.0, 0.0, 0.0, 0.0, 0.0)"
1704322729.863763,218648,1704322729,799690320,map,,1.9161357503792666,0.9150059193225448,0.0,0.0,0.0,0.20226600635211256,0.9793306196961101,"(0.10692900000000001, 0.0, 0.0, 0.0, 0.0, 0.0, 0.0, 0.10692900000000001, 0.0, 0.0, 0.0, 0.0, 0.0, 0.0, 0.23136099999999998, 0.0, 0.0, 0.0, 0.0, 0.0, 0.0, 0.02, 0.0, 0.0, 0.0, 0.0, 0.0, 0.0, 0.02, 0.0, 0.0, 0.0, 0.0, 0.0, 0.0, 100.0)",0.0,0.0,0.0,0.0,0.0,0.0,"(0.0, 0.0, 0.0, 0.0, 0.0, 0.0, 0.0, 0.0, 0.0, 0.0, 0.0, 0.0, 0.0, 0.0, 0.0, 0.0, 0.0, 0.0, 0.0, 0.0, 0.0, 0.0, 0.0, 0.0, 0.0, 0.0, 0.0, 0.0, 0.0, 0.0, 0.0, 0.0, 0.0, 0.0, 0.0, 0.0)"
1704322730.072068,218649,1704322729,999690305,map,,1.9411288330351408,0.8705312782348635,0.0,0.0,0.0,0.157360732657568,0.987541188921998,"(0.10692900000000001, 0.0, 0.0, 0.0, 0.0, 0.0, 0.0, 0.10692900000000001, 0.0, 0.0, 0.0, 0.0, 0.0, 0.0, 0.2304, 0.0, 0.0, 0.0, 0.0, 0.0, 0.0, 0.02, 0.0, 0.0, 0.0, 0.0, 0.0, 0.0, 0.02, 0.0, 0.0, 0.0, 0.0, 0.0, 0.0, 100.0)",0.0,0.0,0.0,0.0,0.0,0.0,"(0.0, 0.0, 0.0, 0.0, 0.0, 0.0, 0.0, 0.0, 0.0, 0.0, 0.0, 0.0, 0.0, 0.0, 0.0, 0.0, 0.0, 0.0, 0.0, 0.0, 0.0, 0.0, 0.0, 0.0, 0.0, 0.0, 0.0, 0.0, 0.0, 0.0, 0.0, 0.0, 0.0, 0.0, 0.0, 0.0)"
1704322730.2622228,218650,1704322730,199690288,map,,1.9744529485380349,0.8149963246577802,0.0,0.0,0.0,0.11064002051599515,0.993860546485381,"(0.10627600000000001, 0.0, 0.0, 0.0, 0.0, 0.0, 0.0, 0.10627600000000001, 0.0, 0.0, 0.0, 0.0, 0.0, 0.0, 0.2304, 0.0, 0.0, 0.0, 0.0, 0.0, 0.0, 0.02, 0.0, 0.0, 0.0, 0.0, 0.0, 0.0, 0.02, 0.0, 0.0, 0.0, 0.0, 0.0, 0.0, 100.0)",0.0,0.0,0.0,0.0,0.0,0.0,"(0.0, 0.0, 0.0, 0.0, 0.0, 0.0, 0.0, 0.0, 0.0, 0.0, 0.0, 0.0, 0.0, 0.0, 0.0, 0.0, 0.0, 0.0, 0.0, 0.0, 0.0, 0.0, 0.0, 0.0, 0.0, 0.0, 0.0, 0.0, 0.0, 0.0, 0.0, 0.0, 0.0, 0.0, 0.0, 0.0)"
1704322730.458092,218651,1704322730,399690272,map,,2.0077770712472445,0.737257389246464,0.0,0.0,0.0,0.04567207665988529,0.9989564862463097,"(0.10627600000000001, 0.0, 0.0, 0.0, 0.0, 0.0, 0.0, 0.10627600000000001, 0.0, 0.0, 0.0, 0.0, 0.0, 0.0, 0.2304, 0.0, 0.0, 0.0, 0.0, 0.0, 0.0, 0.02, 0.0, 0.0, 0.0, 0.0, 0.0, 0.0, 0.02, 0.0, 0.0, 0.0, 0.0, 0.0, 0.0, 100.0)",0.0,0.0,0.0,0.0,0.0,0.0,"(0.0, 0.0, 0.0, 0.0, 0.0, 0.0, 0.0, 0.0, 0.0, 0.0, 0.0, 0.0, 0.0, 0.0, 0.0, 0.0, 0.0, 0.0, 0.0, 0.0, 0.0, 0.0, 0.0, 0.0, 0.0, 0.0, 0.0, 0.0, 0.0, 0.0, 0.0, 0.0, 0.0, 0.0, 0.0, 0.0)"
1704322730.6604273,218652,1704322730,599690257,map,,2.041101190492168,0.6260474403385031,0.0,0.0,0.0,-0.04112573229144773,0.9991539791961458,"(0.10562500000000001, 0.0, 0.0, 0.0, 0.0, 0.0, 0.0, 0.10562500000000001, 0.0, 0.0, 0.0, 0.0, 0.0, 0.0, 0.2304, 0.0, 0.0, 0.0, 0.0, 0.0, 0.0, 0.02, 0.0, 0.0, 0.0, 0.0, 0.0, 0.0, 0.02, 0.0, 0.0, 0.0, 0.0, 0.0, 0.0, 100.0)",0.0,0.0,0.0,0.0,0.0,0.0,"(0.0, 0.0, 0.0, 0.0, 0.0, 0.0, 0.0, 0.0, 0.0, 0.0, 0.0, 0.0, 0.0, 0.0, 0.0, 0.0, 0.0, 0.0, 0.0, 0.0, 0.0, 0.0, 0.0, 0.0, 0.0, 0.0, 0.0, 0.0, 0.0, 0.0, 0.0, 0.0, 0.0, 0.0, 0.0, 0.0)"
1704322730.8614812,218653,1704322730,799690241,map,,2.074425338395564,0.4594325620347094,0.0,0.0,0.0,-0.1285819810789795,0.9916988827974976,"(0.10562500000000001, 0.0, 0.0, 0.0, 0.0, 0.0, 0.0, 0.10562500000000001, 0.0, 0.0, 0.0, 0.0, 0.0, 0.0, 0.22944099999999998, 0.0, 0.0, 0.0, 0.0, 0.0, 0.0, 0.02, 0.0, 0.0, 0.0, 0.0, 0.0, 0.0, 0.02, 0.0, 0.0, 0.0, 0.0, 0.0, 0.0, 100.0)",0.0,0.0,0.0,0.0,0.0,0.0,"(0.0, 0.0, 0.0, 0.0, 0.0, 0.0, 0.0, 0.0, 0.0, 0.0, 0.0, 0.0, 0.0, 0.0, 0.0, 0.0, 0.0, 0.0, 0.0, 0.0, 0.0, 0.0, 0.0, 0.0, 0.0, 0.0, 0.0, 0.0, 0.0, 0.0, 0.0, 0.0, 0.0, 0.0, 0.0, 0.0)"
1704322731.059107,218654,1704322730,999690226,map,,2.0910874457209876,0.24834970039672122,0.0,0.0,0.0,-0.21193596372022547,0.9772835552090188,"(0.104976, 0.0, 0.0, 0.0, 0.0, 0.0, 0.0, 0.104976, 0.0, 0.0, 0.0, 0.0, 0.0, 0.0, 0.22944099999999998, 0.0, 0.0, 0.0, 0.0, 0.0, 0.0, 0.02, 0.0, 0.0, 0.0, 0.0, 0.0, 0.0, 0.02, 0.0, 0.0, 0.0, 0.0, 0.0, 0.0, 100.0)",0.0,0.0,0.0,0.0,0.0,0.0,"(0.0, 0.0, 0.0, 0.0, 0.0, 0.0, 0.0, 0.0, 0.0, 0.0, 0.0, 0.0, 0.0, 0.0, 0.0, 0.0, 0.0, 0.0, 0.0, 0.0, 0.0, 0.0, 0.0, 0.0, 0.0, 0.0, 0.0, 0.0, 0.0, 0.0, 0.0, 0.0, 0.0, 0.0, 0.0, 0.0)"
1704322731.2519011,218655,1704322731,199690210,map,,2.08275648069721,0.015029510379643174,0.0,0.0,0.0,-0.2560148772012028,0.9666728415817075,"(0.104329, 0.0, 0.0, 0.0, 0.0, 0.0, 0.0, 0.104329, 0.0, 0.0, 0.0, 0.0, 0.0, 0.0, 0.228484, 0.0, 0.0, 0.0, 0.0, 0.0, 0.0, 0.02, 0.0, 0.0, 0.0, 0.0, 0.0, 0.0, 0.02, 0.0, 0.0, 0.0, 0.0, 0.0, 0.0, 100.0)",0.0,0.0,0.0,0.0,0.0,0.0,"(0.0, 0.0, 0.0, 0.0, 0.0, 0.0, 0.0, 0.0, 0.0, 0.0, 0.0, 0.0, 0.0, 0.0, 0.0, 0.0, 0.0, 0.0, 0.0, 0.0, 0.0, 0.0, 0.0, 0.0, 0.0, 0.0, 0.0, 0.0, 0.0, 0.0, 0.0, 0.0, 0.0, 0.0, 0.0, 0.0)"
1704322731.4543037,218656,1704322731,399690194,map,,2.049432440259546,-0.2405313411125819,0.0,0.0,0.0,-0.2724917568135453,0.9621581171869141,"(0.10304100000000001, 0.0, 0.0, 0.0, 0.0, 0.0, 0.0, 0.10304100000000001, 0.0, 0.0, 0.0, 0.0, 0.0, 0.0, 0.22752899999999998, 0.0, 0.0, 0.0, 0.0, 0.0, 0.0, 0.02, 0.0, 0.0, 0.0, 0.0, 0.0, 0.0, 0.02, 0.0, 0.0, 0.0, 0.0, 0.0, 0.0, 100.0)",0.0,0.0,0.0,0.0,0.0,0.0,"(0.0, 0.0, 0.0, 0.0, 0.0, 0.0, 0.0, 0.0, 0.0, 0.0, 0.0, 0.0, 0.0, 0.0, 0.0, 0.0, 0.0, 0.0, 0.0, 0.0, 0.0, 0.0, 0.0, 0.0, 0.0, 0.0, 0.0, 0.0, 0.0, 0.0, 0.0, 0.0, 0.0, 0.0, 0.0, 0.0)"
1704322731.6523511,218657,1704322731,599690178,map,,2.0077773774972107,-0.49602884786917867,0.0,0.0,0.0,-0.2650442465949698,0.9642362507948479,"(0.1024, 0.0, 0.0, 0.0, 0.0, 0.0, 0.0, 0.1024, 0.0, 0.0, 0.0, 0.0, 0.0, 0.0, 0.22657599999999997, 0.0, 0.0, 0.0, 0.0, 0.0, 0.0, 0.02, 0.0, 0.0, 0.0, 0.0, 0.0, 0.0, 0.02, 0.0, 0.0, 0.0, 0.0, 0.0, 0.0, 100.0)",0.0,0.0,0.0,0.0,0.0,0.0,"(0.0, 0.0, 0.0, 0.0, 0.0, 0.0, 0.0, 0.0, 0.0, 0.0, 0.0, 0.0, 0.0, 0.0, 0.0, 0.0, 0.0, 0.0, 0.0, 0.0, 0.0, 0.0, 0.0, 0.0, 0.0, 0.0, 0.0, 0.0, 0.0, 0.0, 0.0, 0.0, 0.0, 0.0, 0.0, 0.0)"
1704322731.8537548,218658,1704322731,799690163,map,,1.982784361102997,-0.7627066869532435,0.0,0.0,0.0,-0.24237774820560598,0.9701819557045883,"(0.101761, 0.0, 0.0, 0.0, 0.0, 0.0, 0.0, 0.101761, 0.0, 0.0, 0.0, 0.0, 0.0, 0.0, 0.225625, 0.0, 0.0, 0.0, 0.0, 0.0, 0.0, 0.02, 0.0, 0.0, 0.0, 0.0, 0.0, 0.0, 0.02, 0.0, 0.0, 0.0, 0.0, 0.0, 0.0, 100.0)",0.0,0.0,0.0,0.0,0.0,0.0,"(0.0, 0.0, 0.0, 0.0, 0.0, 0.0, 0.0, 0.0, 0.0, 0.0, 0.0, 0.0, 0.0, 0.0, 0.0, 0.0, 0.0, 0.0, 0.0, 0.0, 0.0, 0.0, 0.0, 0.0, 0.0, 0.0, 0.0, 0.0, 0.0, 0.0, 0.0, 0.0, 0.0, 0.0, 0.0, 0.0)"
1704322732.0614161,218659,1704322731,999690148,map,,1.97445340257169,-1.007053849830017,0.0,0.0,0.0,-0.20514364456843848,0.9787318759972918,"(0.101124, 0.0, 0.0, 0.0, 0.0, 0.0, 0.0, 0.101124, 0.0, 0.0, 0.0, 0.0, 0.0, 0.0, 0.22372899999999998, 0.0, 0.0, 0.0, 0.0, 0.0, 0.0, 0.02, 0.0, 0.0, 0.0, 0.0, 0.0, 0.0, 0.02, 0.0, 0.0, 0.0, 0.0, 0.0, 0.0, 66.54080963134766)",0.0,0.0,0.0,0.0,0.0,0.0,"(0.0, 0.0, 0.0, 0.0, 0.0, 0.0, 0.0, 0.0, 0.0, 0.0, 0.0, 0.0, 0.0, 0.0, 0.0, 0.0, 0.0, 0.0, 0.0, 0.0, 0.0, 0.0, 0.0, 0.0, 0.0, 0.0, 0.0, 0.0, 0.0, 0.0, 0.0, 0.0, 0.0, 0.0, 0.0, 0.0)"
1704322732.2541199,218660,1704322732,199690131,map,,1.9744534671973382,-1.2514343501601637,0.0,0.0,0.0,-0.1636831293302675,0.9865129665506941,"(0.10048900000000001, 0.0, 0.0, 0.0, 0.0, 0.0, 0.0, 0.10048900000000001, 0.0, 0.0, 0.0, 0.0, 0.0, 0.0, 0.22278399999999998, 0.0, 0.0, 0.0, 0.0, 0.0, 0.0, 0.02, 0.0, 0.0, 0.0, 0.0, 0.0, 0.0, 0.02, 0.0, 0.0, 0.0, 0.0, 0.0, 0.0, 18.516719818115234)",0.0,0.0,0.0,0.0,0.0,0.0,"(0.0, 0.0, 0.0, 0.0, 0.0, 0.0, 0.0, 0.0, 0.0, 0.0, 0.0, 0.0, 0.0, 0.0, 0.0, 0.0, 0.0, 0.0, 0.0, 0.0, 0.0, 0.0, 0.0, 0.0, 0.0, 0.0, 0.0, 0.0, 0.0, 0.0, 0.0, 0.0, 0.0, 0.0, 0.0, 0.0)"
1704322732.45734,218661,1704322732,399690116,map,,1.9911156036262927,-1.5179154784816902,0.0,0.0,0.0,-0.13100805350602523,0.9913813039978928,"(0.099856, 0.0, 0.0, 0.0, 0.0, 0.0, 0.0, 0.099856, 0.0, 0.0, 0.0, 0.0, 0.0, 0.0, 0.22184099999999998, 0.0, 0.0, 0.0, 0.0, 0.0, 0.0, 0.02, 0.0, 0.0, 0.0, 0.0, 0.0, 0.0, 0.02, 0.0, 0.0, 0.0, 0.0, 0.0, 0.0, 8.36096477508545)",0.0,0.0,0.0,0.0,0.0,0.0,"(0.0, 0.0, 0.0, 0.0, 0.0, 0.0, 0.0, 0.0, 0.0, 0.0, 0.0, 0.0, 0.0, 0.0, 0.0, 0.0, 0.0, 0.0, 0.0, 0.0, 0.0, 0.0, 0.0, 0.0, 0.0, 0.0, 0.0, 0.0, 0.0, 0.0, 0.0, 0.0, 0.0, 0.0, 0.0, 0.0)"
1704322732.6571155,218662,1704322732,599690100,map,,2.007777728438885,-1.7733962964428305,0.0,0.0,0.0,-0.10460754285305641,0.9945135805901526,"(0.09922500000000001, 0.0, 0.0, 0.0, 0.0, 0.0, 0.0, 0.09922500000000001, 0.0, 0.0, 0.0, 0.0, 0.0, 0.0, 0.22089999999999999, 0.0, 0.0, 0.0, 0.0, 0.0, 0.0, 0.02, 0.0, 0.0, 0.0, 0.0, 0.0, 0.0, 0.02, 0.0, 0.0, 0.0, 0.0, 0.0, 0.0, 9.668661117553711)",0.0,0.0,0.0,0.0,0.0,0.0,"(0.0, 0.0, 0.0, 0.0, 0.0, 0.0, 0.0, 0.0, 0.0, 0.0, 0.0, 0.0, 0.0, 0.0, 0.0, 0.0, 0.0, 0.0, 0.0, 0.0, 0.0, 0.0, 0.0, 0.0, 0.0, 0.0, 0.0, 0.0, 0.0, 0.0, 0.0, 0.0, 0.0, 0.0, 0.0, 0.0)"
1704322732.85563,218663,1704322732,799690084,map,,2.057763967837197,-2.0288704380005678,0.0,0.0,0.0,-0.08532429260745346,0.9963532330910748,"(0.098596, 0.0, 0.0, 0.0, 0.0, 0.0, 0.0, 0.098596, 0.0, 0.0, 0.0, 0.0, 0.0, 0.0, 0.21996099999999996, 0.0, 0.0, 0.0, 0.0, 0.0, 0.0, 0.02, 0.0, 0.0, 0.0, 0.0, 0.0, 0.0, 0.02, 0.0, 0.0, 0.0, 0.0, 0.0, 0.0, 15.90263557434082)",0.0,0.0,0.0,0.0,0.0,0.0,"(0.0, 0.0, 0.0, 0.0, 0.0, 0.0, 0.0, 0.0, 0.0, 0.0, 0.0, 0.0, 0.0, 0.0, 0.0, 0.0, 0.0, 0.0, 0.0, 0.0, 0.0, 0.0, 0.0, 0.0, 0.0, 0.0, 0.0, 0.0, 0.0, 0.0, 0.0, 0.0, 0.0, 0.0, 0.0, 0.0)"
1704322733.065446,218664,1704322732,999690070,map,,2.116081235327139,-2.295521574264763,0.0,0.0,0.0,-0.07790451793057666,0.9969608247499018,"(0.097969, 0.0, 0.0, 0.0, 0.0, 0.0, 0.0, 0.097969, 0.0, 0.0, 0.0, 0.0, 0.0, 0.0, 0.21902400000000002, 0.0, 0.0, 0.0, 0.0, 0.0, 0.0, 0.02, 0.0, 0.0, 0.0, 0.0, 0.0, 0.0, 0.02, 0.0, 0.0, 0.0, 0.0, 0.0, 0.0, 14.909990310668945)",0.0,0.0,0.0,0.0,0.0,0.0,"(0.0, 0.0, 0.0, 0.0, 0.0, 0.0, 0.0, 0.0, 0.0, 0.0, 0.0, 0.0, 0.0, 0.0, 0.0, 0.0, 0.0, 0.0, 0.0, 0.0, 0.0, 0.0, 0.0, 0.0, 0.0, 0.0, 0.0, 0.0, 0.0, 0.0, 0.0, 0.0, 0.0, 0.0, 0.0, 0.0)"
1704322733.2564015,218665,1704322733,199690053,map,,2.1577364643790435,-2.584306692135438,0.0,0.0,0.0,-0.09511788605290493,0.9954660153680921,"(0.097344, 0.0, 0.0, 0.0, 0.0, 0.0, 0.0, 0.097344, 0.0, 0.0, 0.0, 0.0, 0.0, 0.0, 0.21808900000000003, 0.0, 0.0, 0.0, 0.0, 0.0, 0.0, 0.02, 0.0, 0.0, 0.0, 0.0, 0.0, 0.0, 0.02, 0.0, 0.0, 0.0, 0.0, 0.0, 0.0, 10.777067184448242)",0.0,0.0,0.0,0.0,0.0,0.0,"(0.0, 0.0, 0.0, 0.0, 0.0, 0.0, 0.0, 0.0, 0.0, 0.0, 0.0, 0.0, 0.0, 0.0, 0.0, 0.0, 0.0, 0.0, 0.0, 0.0, 0.0, 0.0, 0.0, 0.0, 0.0, 0.0, 0.0, 0.0, 0.0, 0.0, 0.0, 0.0, 0.0, 0.0, 0.0, 0.0)"
1704322733.4573486,218666,1704322733,399690037,map,,2.191060662406772,-2.8731384818662806,0.0,0.0,0.0,-0.11948515055904121,0.992835987862992,"(0.096721, 0.0, 0.0, 0.0, 0.0, 0.0, 0.0, 0.096721, 0.0, 0.0, 0.0, 0.0, 0.0, 0.0, 0.21715600000000002, 0.0, 0.0, 0.0, 0.0, 0.0, 0.0, 0.02, 0.0, 0.0, 0.0, 0.0, 0.0, 0.0, 0.02, 0.0, 0.0, 0.0, 0.0, 0.0, 0.0, 7.224282741546631)",0.0,0.0,0.0,0.0,0.0,0.0,"(0.0, 0.0, 0.0, 0.0, 0.0, 0.0, 0.0, 0.0, 0.0, 0.0, 0.0, 0.0, 0.0, 0.0, 0.0, 0.0, 0.0, 0.0, 0.0, 0.0, 0.0, 0.0, 0.0, 0.0, 0.0, 0.0, 0.0, 0.0, 0.0, 0.0, 0.0, 0.0, 0.0, 0.0, 0.0, 0.0)"
1704322733.6534274,218667,1704322733,599690021,map,,2.191060751119035,-3.173053935302991,0.0,0.0,0.0,-0.1407424911981677,0.990046236885598,"(0.0961, 0.0, 0.0, 0.0, 0.0, 0.0, 0.0, 0.0961, 0.0, 0.0, 0.0, 0.0, 0.0, 0.0, 0.21622500000000003, 0.0, 0.0, 0.0, 0.0, 0.0, 0.0, 0.02, 0.0, 0.0, 0.0, 0.0, 0.0, 0.0, 0.02, 0.0, 0.0, 0.0, 0.0, 0.0, 0.0, 8.822785377502441)",0.0,0.0,0.0,0.0,0.0,0.0,"(0.0, 0.0, 0.0, 0.0, 0.0, 0.0, 0.0, 0.0, 0.0, 0.0, 0.0, 0.0, 0.0, 0.0, 0.0, 0.0, 0.0, 0.0, 0.0, 0.0, 0.0, 0.0, 0.0, 0.0, 0.0, 0.0, 0.0, 0.0, 0.0, 0.0, 0.0, 0.0, 0.0, 0.0, 0.0, 0.0)"
1704322733.8509257,218668,1704322733,799690006,map,,2.1660677457698143,-3.4507387464497024,0.0,0.0,0.0,-0.15977869364676725,0.9871528600255041,"(0.095481, 0.0, 0.0, 0.0, 0.0, 0.0, 0.0, 0.095481, 0.0, 0.0, 0.0, 0.0, 0.0, 0.0, 0.21622500000000003, 0.0, 0.0, 0.0, 0.0, 0.0, 0.0, 0.02, 0.0, 0.0, 0.0, 0.0, 0.0, 0.0, 0.02, 0.0, 0.0, 0.0, 0.0, 0.0, 0.0, 20.083681106567383)",0.0,0.0,0.0,0.0,0.0,0.0,"(0.0, 0.0, 0.0, 0.0, 0.0, 0.0, 0.0, 0.0, 0.0, 0.0, 0.0, 0.0, 0.0, 0.0, 0.0, 0.0, 0.0, 0.0, 0.0, 0.0, 0.0, 0.0, 0.0, 0.0, 0.0, 0.0, 0.0, 0.0, 0.0, 0.0, 0.0, 0.0, 0.0, 0.0, 0.0, 0.0)"
1704322734.0554485,218669,1704322733,999689991,map,,2.1244126812068833,-3.7283902272098834,0.0,0.0,0.0,-0.18284365587652635,0.9831420027166505,"(0.095481, 0.0, 0.0, 0.0, 0.0, 0.0, 0.0, 0.095481, 0.0, 0.0, 0.0, 0.0, 0.0, 0.0, 0.21529600000000002, 0.0, 0.0, 0.0, 0.0, 0.0, 0.0, 0.02, 0.0, 0.0, 0.0, 0.0, 0.0, 0.0, 0.02, 0.0, 0.0, 0.0, 0.0, 0.0, 0.0, 37.28237533569336)",0.0,0.0,0.0,0.0,0.0,0.0,"(0.0, 0.0, 0.0, 0.0, 0.0, 0.0, 0.0, 0.0, 0.0, 0.0, 0.0, 0.0, 0.0, 0.0, 0.0, 0.0, 0.0, 0.0, 0.0, 0.0, 0.0, 0.0, 0.0, 0.0, 0.0, 0.0, 0.0, 0.0, 0.0, 0.0, 0.0, 0.0, 0.0, 0.0, 0.0, 0.0)"
1704322734.2538946,218670,1704322734,199689974,map,,2.08275760351981,-3.9727207314188058,0.0,0.0,0.0,-0.2069909992004645,0.9783428469866754,"(0.094864, 0.0, 0.0, 0.0, 0.0, 0.0, 0.0, 0.094864, 0.0, 0.0, 0.0, 0.0, 0.0, 0.0, 0.21529600000000002, 0.0, 0.0, 0.0, 0.0, 0.0, 0.0, 0.02, 0.0, 0.0, 0.0, 0.0, 0.0, 0.0, 0.02, 0.0, 0.0, 0.0, 0.0, 0.0, 0.0, 41.149940490722656)",0.0,0.0,0.0,0.0,0.0,0.0,"(0.0, 0.0, 0.0, 0.0, 0.0, 0.0, 0.0, 0.0, 0.0, 0.0, 0.0, 0.0, 0.0, 0.0, 0.0, 0.0, 0.0, 0.0, 0.0, 0.0, 0.0, 0.0, 0.0, 0.0, 0.0, 0.0, 0.0, 0.0, 0.0, 0.0, 0.0, 0.0, 0.0, 0.0, 0.0, 0.0)"
1704322734.4559276,218671,1704322734,399689959,map,,1.99944736031444,-4.228291574417814,0.0,0.0,0.0,-0.21307134379927956,0.9770366433515015,"(0.094249, 0.0, 0.0, 0.0, 0.0, 0.0, 0.0, 0.094249, 0.0, 0.0, 0.0, 0.0, 0.0, 0.0, 0.21436900000000003, 0.0, 0.0, 0.0, 0.0, 0.0, 0.0, 0.02, 0.0, 0.0, 0.0, 0.0, 0.0, 0.0, 0.02, 0.0, 0.0, 0.0, 0.0, 0.0, 0.0, 42.921112060546875)",0.0,0.0,0.0,0.0,0.0,0.0,"(0.0, 0.0, 0.0, 0.0, 0.0, 0.0, 0.0, 0.0, 0.0, 0.0, 0.0, 0.0, 0.0, 0.0, 0.0, 0.0, 0.0, 0.0, 0.0, 0.0, 0.0, 0.0, 0.0, 0.0, 0.0, 0.0, 0.0, 0.0, 0.0, 0.0, 0.0, 0.0, 0.0, 0.0, 0.0, 0.0)"
1704322734.653019,218672,1704322734,599689943,map,,1.924468156761036,-4.517130052318958,0.0,0.0,0.0,-0.21116390195518972,0.9774506670472218,"(0.094249, 0.0, 0.0, 0.0, 0.0, 0.0, 0.0, 0.094249, 0.0, 0.0, 0.0, 0.0, 0.0, 0.0, 0.21344400000000002, 0.0, 0.0, 0.0, 0.0, 0.0, 0.0, 0.02, 0.0, 0.0, 0.0, 0.0, 0.0, 0.0, 0.02, 0.0, 0.0, 0.0, 0.0, 0.0, 0.0, 37.361488342285156)",0.0,0.0,0.0,0.0,0.0,0.0,"(0.0, 0.0, 0.0, 0.0, 0.0, 0.0, 0.0, 0.0, 0.0, 0.0, 0.0, 0.0, 0.0, 0.0, 0.0, 0.0, 0.0, 0.0, 0.0, 0.0, 0.0, 0.0, 0.0, 0.0, 0.0, 0.0, 0.0, 0.0, 0.0, 0.0, 0.0, 0.0, 0.0, 0.0, 0.0, 0.0)"
1704322734.8513048,218673,1704322734,799689927,map,,1.84115791471346,-4.794841540550977,0.0,0.0,0.0,-0.2004185618098312,0.979710365405041,"(0.093636, 0.0, 0.0, 0.0, 0.0, 0.0, 0.0, 0.093636, 0.0, 0.0, 0.0, 0.0, 0.0, 0.0, 0.21252100000000002, 0.0, 0.0, 0.0, 0.0, 0.0, 0.0, 0.02, 0.0, 0.0, 0.0, 0.0, 0.0, 0.0, 0.02, 0.0, 0.0, 0.0, 0.0, 0.0, 0.0, 25.355213165283203)",0.0,0.0,0.0,0.0,0.0,0.0,"(0.0, 0.0, 0.0, 0.0, 0.0, 0.0, 0.0, 0.0, 0.0, 0.0, 0.0, 0.0, 0.0, 0.0, 0.0, 0.0, 0.0, 0.0, 0.0, 0.0, 0.0, 0.0, 0.0, 0.0, 0.0, 0.0, 0.0, 0.0, 0.0, 0.0, 0.0, 0.0, 0.0, 0.0, 0.0, 0.0)"
1704322735.060954,218674,1704322734,999689913,map,,1.7745097325936576,-5.083663347981549,0.0,0.0,0.0,-0.1785704408181424,0.983927130262203,"(0.093636, 0.0, 0.0, 0.0, 0.0, 0.0, 0.0, 0.093636, 0.0, 0.0, 0.0, 0.0, 0.0, 0.0, 0.2116, 0.0, 0.0, 0.0, 0.0, 0.0, 0.0, 0.02, 0.0, 0.0, 0.0, 0.0, 0.0, 0.0, 0.02, 0.0, 0.0, 0.0, 0.0, 0.0, 0.0, 16.362043380737305)",0.0,0.0,0.0,0.0,0.0,0.0,"(0.0, 0.0, 0.0, 0.0, 0.0, 0.0, 0.0, 0.0, 0.0, 0.0, 0.0, 0.0, 0.0, 0.0, 0.0, 0.0, 0.0, 0.0, 0.0, 0.0, 0.0, 0.0, 0.0, 0.0, 0.0, 0.0, 0.0, 0.0, 0.0, 0.0, 0.0, 0.0, 0.0, 0.0, 0.0, 0.0)"
1704322735.2549336,218675,1704322735,199689896,map,,1.7161925858589901,-5.361234833267909,0.0,0.0,0.0,-0.16362512210259286,0.9865225894103549,"(0.093025, 0.0, 0.0, 0.0, 0.0, 0.0, 0.0, 0.093025, 0.0, 0.0, 0.0, 0.0, 0.0, 0.0, 0.210681, 0.0, 0.0, 0.0, 0.0, 0.0, 0.0, 0.02, 0.0, 0.0, 0.0, 0.0, 0.0, 0.0, 0.02, 0.0, 0.0, 0.0, 0.0, 0.0, 0.0, 9.530508995056152)",0.0,0.0,0.0,0.0,0.0,0.0,"(0.0, 0.0, 0.0, 0.0, 0.0, 0.0, 0.0, 0.0, 0.0, 0.0, 0.0, 0.0, 0.0, 0.0, 0.0, 0.0, 0.0, 0.0, 0.0, 0.0, 0.0, 0.0, 0.0, 0.0, 0.0, 0.0, 0.0, 0.0, 0.0, 0.0, 0.0, 0.0, 0.0, 0.0, 0.0, 0.0)"
1704322735.45619,218676,1704322735,399689880,map,,1.6578754200182015,-5.616708994884209,0.0,0.0,0.0,-0.1370885320746553,0.9905587990491106,"(0.092416, 0.0, 0.0, 0.0, 0.0, 0.0, 0.0, 0.092416, 0.0, 0.0, 0.0, 0.0, 0.0, 0.0, 0.209764, 0.0, 0.0, 0.0, 0.0, 0.0, 0.0, 0.02, 0.0, 0.0, 0.0, 0.0, 0.0, 0.0, 0.02, 0.0, 0.0, 0.0, 0.0, 0.0, 0.0, 5.886837005615234)",0.0,0.0,0.0,0.0,0.0,0.0,"(0.0, 0.0, 0.0, 0.0, 0.0, 0.0, 0.0, 0.0, 0.0, 0.0, 0.0, 0.0, 0.0, 0.0, 0.0, 0.0, 0.0, 0.0, 0.0, 0.0, 0.0, 0.0, 0.0, 0.0, 0.0, 0.0, 0.0, 0.0, 0.0, 0.0, 0.0, 0.0, 0.0, 0.0, 0.0, 0.0)"
1704322735.6584547,218677,1704322735,599689865,map,,1.6412134094079565,-5.894503789619531,0.0,0.0,0.0,-0.10858001018146111,0.9940877131264594,"(0.091809, 0.0, 0.0, 0.0, 0.0, 0.0, 0.0, 0.091809, 0.0, 0.0, 0.0, 0.0, 0.0, 0.0, 0.209764, 0.0, 0.0, 0.0, 0.0, 0.0, 0.0, 0.02, 0.0, 0.0, 0.0, 0.0, 0.0, 0.0, 0.02, 0.0, 0.0, 0.0, 0.0, 0.0, 0.0, 7.66616153717041)",0.0,0.0,0.0,0.0,0.0,0.0,"(0.0, 0.0, 0.0, 0.0, 0.0, 0.0, 0.0, 0.0, 0.0, 0.0, 0.0, 0.0, 0.0, 0.0, 0.0, 0.0, 0.0, 0.0, 0.0, 0.0, 0.0, 0.0, 0.0, 0.0, 0.0, 0.0, 0.0, 0.0, 0.0, 0.0, 0.0, 0.0, 0.0, 0.0, 0.0, 0.0)"
1704322735.8548179,218678,1704322735,799689849,map,,1.6162203712219099,-6.1833589127975,0.0,0.0,0.0,-0.0899397488442029,0.9959472082283487,"(0.091809, 0.0, 0.0, 0.0, 0.0, 0.0, 0.0, 0.091809, 0.0, 0.0, 0.0, 0.0, 0.0, 0.0, 0.208849, 0.0, 0.0, 0.0, 0.0, 0.0, 0.0, 0.02, 0.0, 0.0, 0.0, 0.0, 0.0, 0.0, 0.02, 0.0, 0.0, 0.0, 0.0, 0.0, 0.0, 7.649828910827637)",0.0,0.0,0.0,0.0,0.0,0.0,"(0.0, 0.0, 0.0, 0.0, 0.0, 0.0, 0.0, 0.0, 0.0, 0.0, 0.0, 0.0, 0.0, 0.0, 0.0, 0.0, 0.0, 0.0, 0.0, 0.0, 0.0, 0.0, 0.0, 0.0, 0.0, 0.0, 0.0, 0.0, 0.0, 0.0, 0.0, 0.0, 0.0, 0.0, 0.0, 0.0)"
1704322736.0637941,218679,1704322735,999689834,map,,1.599558366978709,-6.472177368735806,0.0,0.0,0.0,-0.07556920811087398,0.9971405591918802,"(0.091204, 0.0, 0.0, 0.0, 0.0, 0.0, 0.0, 0.091204, 0.0, 0.0, 0.0, 0.0, 0.0, 0.0, 0.208849, 0.0, 0.0, 0.0, 0.0, 0.0, 0.0, 0.02, 0.0, 0.0, 0.0, 0.0, 0.0, 0.0, 0.02, 0.0, 0.0, 0.0, 0.0, 0.0, 0.0, 8.850966453552246)",0.0,0.0,0.0,0.0,0.0,0.0,"(0.0, 0.0, 0.0, 0.0, 0.0, 0.0, 0.0, 0.0, 0.0, 0.0, 0.0, 0.0, 0.0, 0.0, 0.0, 0.0, 0.0, 0.0, 0.0, 0.0, 0.0, 0.0, 0.0, 0.0, 0.0, 0.0, 0.0, 0.0, 0.0, 0.0, 0.0, 0.0, 0.0, 0.0, 0.0, 0.0)"
1704322736.256259,218680,1704322736,199689817,map,,1.5912273941122606,-6.738735176579184,0.0,0.0,0.0,-0.06643383284407538,0.9977908327167802,"(0.091204, 0.0, 0.0, 0.0, 0.0, 0.0, 0.0, 0.091204, 0.0, 0.0, 0.0, 0.0, 0.0, 0.0, 0.207936, 0.0, 0.0, 0.0, 0.0, 0.0, 0.0, 0.02, 0.0, 0.0, 0.0, 0.0, 0.0, 0.0, 0.02, 0.0, 0.0, 0.0, 0.0, 0.0, 0.0, 8.040885925292969)",0.0,0.0,0.0,0.0,0.0,0.0,"(0.0, 0.0, 0.0, 0.0, 0.0, 0.0, 0.0, 0.0, 0.0, 0.0, 0.0, 0.0, 0.0, 0.0, 0.0, 0.0, 0.0, 0.0, 0.0, 0.0, 0.0, 0.0, 0.0, 0.0, 0.0, 0.0, 0.0, 0.0, 0.0, 0.0, 0.0, 0.0, 0.0, 0.0, 0.0, 0.0)"
1704322736.4586575,218681,1704322736,399689802,map,,1.5828964161492194,-7.02762361936933,0.0,0.0,0.0,-0.07244396974953751,0.9973724837025173,"(0.091204, 0.0, 0.0, 0.0, 0.0, 0.0, 0.0, 0.091204, 0.0, 0.0, 0.0, 0.0, 0.0, 0.0, 0.207936, 0.0, 0.0, 0.0, 0.0, 0.0, 0.0, 0.02, 0.0, 0.0, 0.0, 0.0, 0.0, 0.0, 0.02, 0.0, 0.0, 0.0, 0.0, 0.0, 0.0, 7.298884868621826)",0.0,0.0,0.0,0.0,0.0,0.0,"(0.0, 0.0, 0.0, 0.0, 0.0, 0.0, 0.0, 0.0, 0.0, 0.0, 0.0, 0.0, 0.0, 0.0, 0.0, 0.0, 0.0, 0.0, 0.0, 0.0, 0.0, 0.0, 0.0, 0.0, 0.0, 0.0, 0.0, 0.0, 0.0, 0.0, 0.0, 0.0, 0.0, 0.0, 0.0, 0.0)"
1704322736.6536717,218682,1704322736,599689786,map,,1.5662344210680506,-7.316275429337493,0.0,0.0,0.0,-0.0848506323047948,0.9963936823351884,"(0.091204, 0.0, 0.0, 0.0, 0.0, 0.0, 0.0, 0.091204, 0.0, 0.0, 0.0, 0.0, 0.0, 0.0, 0.208849, 0.0, 0.0, 0.0, 0.0, 0.0, 0.0, 0.02, 0.0, 0.0, 0.0, 0.0, 0.0, 0.0, 0.02, 0.0, 0.0, 0.0, 0.0, 0.0, 0.0, 5.608461856842041)",0.0,0.0,0.0,0.0,0.0,0.0,"(0.0, 0.0, 0.0, 0.0, 0.0, 0.0, 0.0, 0.0, 0.0, 0.0, 0.0, 0.0, 0.0, 0.0, 0.0, 0.0, 0.0, 0.0, 0.0, 0.0, 0.0, 0.0, 0.0, 0.0, 0.0, 0.0, 0.0, 0.0, 0.0, 0.0, 0.0, 0.0, 0.0, 0.0, 0.0, 0.0)"
1704322736.8601062,218683,1704322736,799689770,map,,1.5495724279777146,-7.627157890594226,0.0,0.0,0.0,-0.1250539568869269,0.9921499422299649,"(0.091204, 0.0, 0.0, 0.0, 0.0, 0.0, 0.0, 0.091204, 0.0, 0.0, 0.0, 0.0, 0.0, 0.0, 0.208849, 0.0, 0.0, 0.0, 0.0, 0.0, 0.0, 0.02, 0.0, 0.0, 0.0, 0.0, 0.0, 0.0, 0.02, 0.0, 0.0, 0.0, 0.0, 0.0, 0.0, 2.6590771675109863)",0.0,0.0,0.0,0.0,0.0,0.0,"(0.0, 0.0, 0.0, 0.0, 0.0, 0.0, 0.0, 0.0, 0.0, 0.0, 0.0, 0.0, 0.0, 0.0, 0.0, 0.0, 0.0, 0.0, 0.0, 0.0, 0.0, 0.0, 0.0, 0.0, 0.0, 0.0, 0.0, 0.0, 0.0, 0.0, 0.0, 0.0, 0.0, 0.0, 0.0, 0.0)"
1704322737.0663347,218684,1704322736,999689755,map,,1.5245793884838372,-7.915903024710185,0.0,0.0,0.0,-0.1312491258537743,0.9913494171898323,"(0.091204, 0.0, 0.0, 0.0, 0.0, 0.0, 0.0, 0.091204, 0.0, 0.0, 0.0, 0.0, 0.0, 0.0, 0.208849, 0.0, 0.0, 0.0, 0.0, 0.0, 0.0, 0.02, 0.0, 0.0, 0.0, 0.0, 0.0, 0.0, 0.02, 0.0, 0.0, 0.0, 0.0, 0.0, 0.0, 3.185401201248169)",0.0,0.0,0.0,0.0,0.0,0.0,"(0.0, 0.0, 0.0, 0.0, 0.0, 0.0, 0.0, 0.0, 0.0, 0.0, 0.0, 0.0, 0.0, 0.0, 0.0, 0.0, 0.0, 0.0, 0.0, 0.0, 0.0, 0.0, 0.0, 0.0, 0.0, 0.0, 0.0, 0.0, 0.0, 0.0, 0.0, 0.0, 0.0, 0.0, 0.0, 0.0)"
1704322737.2582824,218685,1704322737,199689739,map,,1.491255315779635,-8.193447854435483,0.0,0.0,0.0,-0.13215828819980555,0.9912286249196485,"(0.09060099999999999, 0.0, 0.0, 0.0, 0.0, 0.0, 0.0, 0.09060099999999999, 0.0, 0.0, 0.0, 0.0, 0.0, 0.0, 0.208849, 0.0, 0.0, 0.0, 0.0, 0.0, 0.0, 0.02, 0.0, 0.0, 0.0, 0.0, 0.0, 0.0, 0.02, 0.0, 0.0, 0.0, 0.0, 0.0, 0.0, 5.029064655303955)",0.0,0.0,0.0,0.0,0.0,0.0,"(0.0, 0.0, 0.0, 0.0, 0.0, 0.0, 0.0, 0.0, 0.0, 0.0, 0.0, 0.0, 0.0, 0.0, 0.0, 0.0, 0.0, 0.0, 0.0, 0.0, 0.0, 0.0, 0.0, 0.0, 0.0, 0.0, 0.0, 0.0, 0.0, 0.0, 0.0, 0.0, 0.0, 0.0, 0.0, 0.0)"
1704322737.459322,218686,1704322737,399689723,map,,1.4496001923477453,-8.471162655983033,0.0,0.0,0.0,-0.13988866269793032,0.9901672394341193,"(0.09060099999999999, 0.0, 0.0, 0.0, 0.0, 0.0, 0.0, 0.09060099999999999, 0.0, 0.0, 0.0, 0.0, 0.0, 0.0, 0.207936, 0.0, 0.0, 0.0, 0.0, 0.0, 0.0, 0.02, 0.0, 0.0, 0.0, 0.0, 0.0, 0.0, 0.02, 0.0, 0.0, 0.0, 0.0, 0.0, 0.0, 7.473766326904297)",0.0,0.0,0.0,0.0,0.0,0.0,"(0.0, 0.0, 0.0, 0.0, 0.0, 0.0, 0.0, 0.0, 0.0, 0.0, 0.0, 0.0, 0.0, 0.0, 0.0, 0.0, 0.0, 0.0, 0.0, 0.0, 0.0, 0.0, 0.0, 0.0, 0.0, 0.0, 0.0, 0.0, 0.0, 0.0, 0.0, 0.0, 0.0, 0.0, 0.0, 0.0)"
1704322737.6545205,218687,1704322737,599689707,map,,1.3996140244162087,-8.737830452080996,0.0,0.0,0.0,-0.1473184521033852,0.9890891131085523,"(0.09, 0.0, 0.0, 0.0, 0.0, 0.0, 0.0, 0.09, 0.0, 0.0, 0.0, 0.0, 0.0, 0.0, 0.20702500000000001, 0.0, 0.0, 0.0, 0.0, 0.0, 0.0, 0.02, 0.0, 0.0, 0.0, 0.0, 0.0, 0.0, 0.02, 0.0, 0.0, 0.0, 0.0, 0.0, 0.0, 9.076069831848145)",0.0,0.0,0.0,0.0,0.0,0.0,"(0.0, 0.0, 0.0, 0.0, 0.0, 0.0, 0.0, 0.0, 0.0, 0.0, 0.0, 0.0, 0.0, 0.0, 0.0, 0.0, 0.0, 0.0, 0.0, 0.0, 0.0, 0.0, 0.0, 0.0, 0.0, 0.0, 0.0, 0.0, 0.0, 0.0, 0.0, 0.0, 0.0, 0.0, 0.0, 0.0)"
1704322737.8584595,218688,1704322737,799689691,map,,1.332965786184375,-9.004408269332346,0.0,0.0,0.0,-0.14630316680606043,0.9892398007472799,"(0.09, 0.0, 0.0, 0.0, 0.0, 0.0, 0.0, 0.09, 0.0, 0.0, 0.0, 0.0, 0.0, 0.0, 0.20702500000000001, 0.0, 0.0, 0.0, 0.0, 0.0, 0.0, 0.02, 0.0, 0.0, 0.0, 0.0, 0.0, 0.0, 0.02, 0.0, 0.0, 0.0, 0.0, 0.0, 0.0, 11.605524063110352)",0.0,0.0,0.0,0.0,0.0,0.0,"(0.0, 0.0, 0.0, 0.0, 0.0, 0.0, 0.0, 0.0, 0.0, 0.0, 0.0, 0.0, 0.0, 0.0, 0.0, 0.0, 0.0, 0.0, 0.0, 0.0, 0.0, 0.0, 0.0, 0.0, 0.0, 0.0, 0.0, 0.0, 0.0, 0.0, 0.0, 0.0, 0.0, 0.0, 0.0, 0.0)"
1704322738.0633752,218689,1704322737,999689677,map,,1.2413244311405955,-9.271032745234105,0.0,0.0,0.0,-0.1451059430990168,0.9894161234169094,"(0.09, 0.0, 0.0, 0.0, 0.0, 0.0, 0.0, 0.09, 0.0, 0.0, 0.0, 0.0, 0.0, 0.0, 0.20702500000000001, 0.0, 0.0, 0.0, 0.0, 0.0, 0.0, 0.02, 0.0, 0.0, 0.0, 0.0, 0.0, 0.0, 0.02, 0.0, 0.0, 0.0, 0.0, 0.0, 0.0, 17.71640396118164)",0.0,0.0,0.0,0.0,0.0,0.0,"(0.0, 0.0, 0.0, 0.0, 0.0, 0.0, 0.0, 0.0, 0.0, 0.0, 0.0, 0.0, 0.0, 0.0, 0.0, 0.0, 0.0, 0.0, 0.0, 0.0, 0.0, 0.0, 0.0, 0.0, 0.0, 0.0, 0.0, 0.0, 0.0, 0.0, 0.0, 0.0, 0.0, 0.0, 0.0, 0.0)"
1704322738.25595,218690,1704322738,199689660,map,,1.1746761738764826,-9.515489885862749,0.0,0.0,0.0,-0.14438092458548074,0.9895221819726133,"(0.09, 0.0, 0.0, 0.0, 0.0, 0.0, 0.0, 0.09, 0.0, 0.0, 0.0, 0.0, 0.0, 0.0, 0.207936, 0.0, 0.0, 0.0, 0.0, 0.0, 0.0, 0.02, 0.0, 0.0, 0.0, 0.0, 0.0, 0.0, 0.02, 0.0, 0.0, 0.0, 0.0, 0.0, 0.0, 17.838850021362305)",0.0,0.0,0.0,0.0,0.0,0.0,"(0.0, 0.0, 0.0, 0.0, 0.0, 0.0, 0.0, 0.0, 0.0, 0.0, 0.0, 0.0, 0.0, 0.0, 0.0, 0.0, 0.0, 0.0, 0.0, 0.0, 0.0, 0.0, 0.0, 0.0, 0.0, 0.0, 0.0, 0.0, 0.0, 0.0, 0.0, 0.0, 0.0, 0.0, 0.0, 0.0)"
1704322738.4575126,218691,1704322738,399689644,map,,1.0996968814988868,-9.782111021499038,0.0,0.0,0.0,-0.14555255160514013,0.9893505216662257,"(0.09, 0.0, 0.0, 0.0, 0.0, 0.0, 0.0, 0.09, 0.0, 0.0, 0.0, 0.0, 0.0, 0.0, 0.207936, 0.0, 0.0, 0.0, 0.0, 0.0, 0.0, 0.02, 0.0, 0.0, 0.0, 0.0, 0.0, 0.0, 0.02, 0.0, 0.0, 0.0, 0.0, 0.0, 0.0, 15.091567993164062)",0.0,0.0,0.0,0.0,0.0,0.0,"(0.0, 0.0, 0.0, 0.0, 0.0, 0.0, 0.0, 0.0, 0.0, 0.0, 0.0, 0.0, 0.0, 0.0, 0.0, 0.0, 0.0, 0.0, 0.0, 0.0, 0.0, 0.0, 0.0, 0.0, 0.0, 0.0, 0.0, 0.0, 0.0, 0.0, 0.0, 0.0, 0.0, 0.0, 0.0, 0.0)"
1704322738.657759,218692,1704322738,599689628,map,,1.024717588276588,-10.070932807977158,0.0,0.0,0.0,-0.1454514027469798,0.9893653973325204,"(0.09, 0.0, 0.0, 0.0, 0.0, 0.0, 0.0, 0.09, 0.0, 0.0, 0.0, 0.0, 0.0, 0.0, 0.207936, 0.0, 0.0, 0.0, 0.0, 0.0, 0.0, 0.02, 0.0, 0.0, 0.0, 0.0, 0.0, 0.0, 0.02, 0.0, 0.0, 0.0, 0.0, 0.0, 0.0, 10.44931697845459)",0.0,0.0,0.0,0.0,0.0,0.0,"(0.0, 0.0, 0.0, 0.0, 0.0, 0.0, 0.0, 0.0, 0.0, 0.0, 0.0, 0.0, 0.0, 0.0, 0.0, 0.0, 0.0, 0.0, 0.0, 0.0, 0.0, 0.0, 0.0, 0.0, 0.0, 0.0, 0.0, 0.0, 0.0, 0.0, 0.0, 0.0, 0.0, 0.0, 0.0, 0.0)"
1704322738.8556955,218693,1704322738,799689613,map,,0.9330762142583398,-10.34860428331872,0.0,0.0,0.0,-0.14031871778401167,0.9901063869299354,"(0.09, 0.0, 0.0, 0.0, 0.0, 0.0, 0.0, 0.09, 0.0, 0.0, 0.0, 0.0, 0.0, 0.0, 0.20702500000000001, 0.0, 0.0, 0.0, 0.0, 0.0, 0.0, 0.02, 0.0, 0.0, 0.0, 0.0, 0.0, 0.0, 0.02, 0.0, 0.0, 0.0, 0.0, 0.0, 0.0, 7.311824321746826)",0.0,0.0,0.0,0.0,0.0,0.0,"(0.0, 0.0, 0.0, 0.0, 0.0, 0.0, 0.0, 0.0, 0.0, 0.0, 0.0, 0.0, 0.0, 0.0, 0.0, 0.0, 0.0, 0.0, 0.0, 0.0, 0.0, 0.0, 0.0, 0.0, 0.0, 0.0, 0.0, 0.0, 0.0, 0.0, 0.0, 0.0, 0.0, 0.0, 0.0, 0.0)"
1704322739.0692313,218694,1704322738,999689598,map,,0.8830900124606618,-10.60424171341304,0.0,0.0,0.0,-0.13642106178656765,0.9906509445314357,"(0.09, 0.0, 0.0, 0.0, 0.0, 0.0, 0.0, 0.09, 0.0, 0.0, 0.0, 0.0, 0.0, 0.0, 0.20702500000000001, 0.0, 0.0, 0.0, 0.0, 0.0, 0.0, 0.02, 0.0, 0.0, 0.0, 0.0, 0.0, 0.0, 0.02, 0.0, 0.0, 0.0, 0.0, 0.0, 0.0, 5.355453968048096)",0.0,0.0,0.0,0.0,0.0,0.0,"(0.0, 0.0, 0.0, 0.0, 0.0, 0.0, 0.0, 0.0, 0.0, 0.0, 0.0, 0.0, 0.0, 0.0, 0.0, 0.0, 0.0, 0.0, 0.0, 0.0, 0.0, 0.0, 0.0, 0.0, 0.0, 0.0, 0.0, 0.0, 0.0, 0.0, 0.0, 0.0, 0.0, 0.0, 0.0, 0.0)"
1704322739.260592,218695,1704322739,199689581,map,,0.8081106954101454,-10.859839155985984,0.0,0.0,0.0,-0.13150332254257863,0.9913157298057277,"(0.09060099999999999, 0.0, 0.0, 0.0, 0.0, 0.0, 0.0, 0.09060099999999999, 0.0, 0.0, 0.0, 0.0, 0.0, 0.0, 0.20702500000000001, 0.0, 0.0, 0.0, 0.0, 0.0, 0.0, 0.02, 0.0, 0.0, 0.0, 0.0, 0.0, 0.0, 0.02, 0.0, 0.0, 0.0, 0.0, 0.0, 0.0, 4.408417224884033)",0.0,0.0,0.0,0.0,0.0,0.0,"(0.0, 0.0, 0.0, 0.0, 0.0, 0.0, 0.0, 0.0, 0.0, 0.0, 0.0, 0.0, 0.0, 0.0, 0.0, 0.0, 0.0, 0.0, 0.0, 0.0, 0.0, 0.0, 0.0, 0.0, 0.0, 0.0, 0.0, 0.0, 0.0, 0.0, 0.0, 0.0, 0.0, 0.0, 0.0, 0.0)"
1704322739.4552412,218696,1704322739,399689566,map,,0.7331313753129589,-11.137663905914977,0.0,0.0,0.0,-0.12835555741225996,0.9917282142207048,"(0.09060099999999999, 0.0, 0.0, 0.0, 0.0, 0.0, 0.0, 0.09060099999999999, 0.0, 0.0, 0.0, 0.0, 0.0, 0.0, 0.20702500000000001, 0.0, 0.0, 0.0, 0.0, 0.0, 0.0, 0.02, 0.0, 0.0, 0.0, 0.0, 0.0, 0.0, 0.02, 0.0, 0.0, 0.0, 0.0, 0.0, 0.0, 4.580643653869629)",0.0,0.0,0.0,0.0,0.0,0.0,"(0.0, 0.0, 0.0, 0.0, 0.0, 0.0, 0.0, 0.0, 0.0, 0.0, 0.0, 0.0, 0.0, 0.0, 0.0, 0.0, 0.0, 0.0, 0.0, 0.0, 0.0, 0.0, 0.0, 0.0, 0.0, 0.0, 0.0, 0.0, 0.0, 0.0, 0.0, 0.0, 0.0, 0.0, 0.0, 0.0)"
1704322739.6633468,218697,1704322739,599689550,map,,0.6831451736188594,-11.415278718095529,0.0,0.0,0.0,-0.12277441006143973,0.9924346045125922,"(0.09060099999999999, 0.0, 0.0, 0.0, 0.0, 0.0, 0.0, 0.09060099999999999, 0.0, 0.0, 0.0, 0.0, 0.0, 0.0, 0.20702500000000001, 0.0, 0.0, 0.0, 0.0, 0.0, 0.0, 0.02, 0.0, 0.0, 0.0, 0.0, 0.0, 0.0, 0.02, 0.0, 0.0, 0.0, 0.0, 0.0, 0.0, 4.961130619049072)",0.0,0.0,0.0,0.0,0.0,0.0,"(0.0, 0.0, 0.0, 0.0, 0.0, 0.0, 0.0, 0.0, 0.0, 0.0, 0.0, 0.0, 0.0, 0.0, 0.0, 0.0, 0.0, 0.0, 0.0, 0.0, 0.0, 0.0, 0.0, 0.0, 0.0, 0.0, 0.0, 0.0, 0.0, 0.0, 0.0, 0.0, 0.0, 0.0, 0.0, 0.0)"
1704322739.8561854,218698,1704322739,799689534,map,,0.6414899925848763,-11.559686274086339,0.0,0.0,0.0,-0.12607803501214948,0.9920203269527672,"(0.09060099999999999, 0.0, 0.0, 0.0, 0.0, 0.0, 0.0, 0.09060099999999999, 0.0, 0.0, 0.0, 0.0, 0.0, 0.0, 0.20611600000000002, 0.0, 0.0, 0.0, 0.0, 0.0, 0.0, 0.02, 0.0, 0.0, 0.0, 0.0, 0.0, 0.0, 0.02, 0.0, 0.0, 0.0, 0.0, 0.0, 0.0, 4.745065212249756)",0.0,0.0,0.0,0.0,0.0,0.0,"(0.0, 0.0, 0.0, 0.0, 0.0, 0.0, 0.0, 0.0, 0.0, 0.0, 0.0, 0.0, 0.0, 0.0, 0.0, 0.0, 0.0, 0.0, 0.0, 0.0, 0.0, 0.0, 0.0, 0.0, 0.0, 0.0, 0.0, 0.0, 0.0, 0.0, 0.0, 0.0, 0.0, 0.0, 0.0, 0.0)"
