Time,header.seq,header.stamp.secs,header.stamp.nsecs,header.frame_id,status.status,status.service,latitude,longitude,altitude,position_covariance_0,position_covariance_1,position_covariance_2,position_covariance_3,position_covariance_4,position_covariance_5,position_covariance_6,position_covariance_7,position_covariance_8,position_covariance_type
1704322718.85465,218881,1704322718,799691183,ublox_gps,0,15,41.6469333,-27.316476634817917,236.121,0.139129,0.0,0.0,0.0,0.139129,0.0,0.0,0.0,0.265225,2
1704322719.0596387,218882,1704322718,999691169,ublox_gps,0,15,41.6469333,-27.316476234817916,236.086,0.139129,0.0,0.0,0.0,0.139129,0.0,0.0,0.0,0.265225,2
1704322719.2531085,218883,1704322719,199691152,ublox_gps,0,15,41.6469331,-27.316475134817914,236.086,0.139129,0.0,0.0,0.0,0.139129,0.0,0.0,0.0,0.266256,2
1704322719.4526634,218884,1704322719,399691136,ublox_gps,0,15,41.646932899999996,-27.316474434817916,236.047,0.139876,0.0,0.0,0.0,0.139876,0.0,0.0,0.0,0.266256,2
1704322719.6522827,218885,1704322719,599691121,ublox_gps,0,15,41.6469327,-27.316473634817918,236.029,0.139876,0.0,0.0,0.0,0.139876,0.0,0.0,0.0,0.266256,2
1704322719.8526473,218886,1704322719,799691105,ublox_gps,0,15,41.646932299999996,-27.31647253481792,236.029,0.139876,0.0,0.0,0.0,0.139876,0.0,0.0,0.0,0.266256,2
1704322720.0591826,218887,1704322719,999691090,ublox_gps,0,15,41.646932,-27.316471534817914,236.016,0.139876,0.0,0.0,0.0,0.139876,0.0,0.0,0.0,0.266256,2
1704322720.2527068,218888,1704322720,199691074,ublox_gps,0,15,41.646931699999996,-27.316470634817918,235.996,0.139129,0.0,0.0,0.0,0.139129,0.0,0.0,0.0,0.266256,2
1704322720.45085,218889,1704322720,399691058,ublox_gps,0,15,41.6469315,-27.316469834817916,235.94400000000002,0.138384,0.0,0.0,0.0,0.138384,0.0,0.0,0.0,0.265225,2
1704322720.6579032,218890,1704322720,599691042,ublox_gps,0,15,41.6469313,-27.316468934817916,235.93200000000002,0.138384,0.0,0.0,0.0,0.138384,0.0,0.0,0.0,0.264196,2
1704322720.853241,218891,1704322720,799691027,ublox_gps,0,15,41.646931099999996,-27.31646823481792,235.89600000000002,0.13764099999999999,0.0,0.0,0.0,0.13764099999999999,0.0,0.0,0.0,0.265225,2
1704322721.0628817,218892,1704322720,999691012,ublox_gps,0,15,41.6469309,-27.316467434817916,235.87300000000002,0.13764099999999999,0.0,0.0,0.0,0.13764099999999999,0.0,0.0,0.0,0.264196,2
1704322721.2602541,218893,1704322721,199690995,ublox_gps,0,15,41.6469306,-27.316466634817914,235.868,0.1369,0.0,0.0,0.0,0.1369,0.0,0.0,0.0,0.264196,2
1704322721.4580715,218894,1704322721,399690980,ublox_gps,0,15,41.646930499999996,-27.31646583481792,235.844,0.1369,0.0,0.0,0.0,0.1369,0.0,0.0,0.0,0.265225,2
1704322721.655917,218895,1704322721,599690964,ublox_gps,0,15,41.6469302,-27.316464934817915,235.842,0.136161,0.0,0.0,0.0,0.136161,0.0,0.0,0.0,0.264196,2
1704322721.8571522,218896,1704322721,799690948,ublox_gps,0,15,41.646929899999996,-27.316464034817916,235.832,0.135424,0.0,0.0,0.0,0.135424,0.0,0.0,0.0,0.264196,2
1704322722.0611303,218897,1704322721,999690933,ublox_gps,0,15,41.646929799999995,-27.316463234817917,235.824,0.135424,0.0,0.0,0.0,0.135424,0.0,0.0,0.0,0.263169,2
1704322722.253089,218898,1704322722,199690917,ublox_gps,0,15,41.6469296,-27.316462234817916,235.832,0.134689,0.0,0.0,0.0,0.134689,0.0,0.0,0.0,0.262144,2
1704322722.4579494,218899,1704322722,399690901,ublox_gps,0,15,41.6469294,-27.316461434817917,235.8,0.133956,0.0,0.0,0.0,0.133956,0.0,0.0,0.0,0.262144,2
1704322722.657114,218900,1704322722,599690885,ublox_gps,0,15,41.646929199999995,-27.316460634817915,235.786,0.13322499999999998,0.0,0.0,0.0,0.13322499999999998,0.0,0.0,0.0,0.261121,2
1704322722.8541327,218901,1704322722,799690870,ublox_gps,0,15,41.646929,-27.31645973481792,235.77100000000002,0.132496,0.0,0.0,0.0,0.132496,0.0,0.0,0.0,0.2601,2
1704322723.0631921,218902,1704322722,999690855,ublox_gps,0,15,41.6469288,-27.316458834817915,235.76,0.131769,0.0,0.0,0.0,0.131769,0.0,0.0,0.0,0.259081,2
1704322723.254954,218903,1704322723,199690838,ublox_gps,0,15,41.6469287,-27.316458034817916,235.752,0.131769,0.0,0.0,0.0,0.131769,0.0,0.0,0.0,0.259081,2
1704322723.4560306,218904,1704322723,399690823,ublox_gps,0,15,41.6469285,-27.316457134817917,235.74,0.131044,0.0,0.0,0.0,0.131044,0.0,0.0,0.0,0.259081,2
1704322723.6539526,218905,1704322723,599690807,ublox_gps,0,15,41.6469283,-27.316456334817914,235.71800000000002,0.131044,0.0,0.0,0.0,0.131044,0.0,0.0,0.0,0.258064,2
1704322723.8530762,218906,1704322723,799690791,ublox_gps,0,15,41.6469281,-27.316455334817917,235.72,0.130321,0.0,0.0,0.0,0.130321,0.0,0.0,0.0,0.258064,2
1704322724.0609636,218907,1704322723,999690777,ublox_gps,0,15,41.6469279,-27.316454434817917,235.711,0.130321,0.0,0.0,0.0,0.130321,0.0,0.0,0.0,0.258064,2
1704322724.257145,218908,1704322724,199690760,ublox_gps,0,15,41.6469278,-27.316453434817916,235.711,0.1296,0.0,0.0,0.0,0.1296,0.0,0.0,0.0,0.258064,2
1704322724.4598784,218909,1704322724,399690744,ublox_gps,0,15,41.6469276,-27.316452534817916,235.696,0.128881,0.0,0.0,0.0,0.128881,0.0,0.0,0.0,0.257049,2
1704322724.6548634,218910,1704322724,599690728,ublox_gps,0,15,41.6469275,-27.316451634817916,235.68,0.128881,0.0,0.0,0.0,0.128881,0.0,0.0,0.0,0.257049,2
1704322724.8548605,218911,1704322724,799690713,ublox_gps,0,15,41.646927399999996,-27.31645063481792,235.673,0.128164,0.0,0.0,0.0,0.128164,0.0,0.0,0.0,0.256036,2
1704322725.0635846,218912,1704322724,999690698,ublox_gps,0,15,41.6469272,-27.316449634817914,235.666,0.12744899999999998,0.0,0.0,0.0,0.12744899999999998,0.0,0.0,0.0,0.256036,2
1704322725.2528431,218913,1704322725,199690681,ublox_gps,0,15,41.646927,-27.316448634817917,235.661,0.126736,0.0,0.0,0.0,0.126736,0.0,0.0,0.0,0.255025,2
1704322725.4555748,218914,1704322725,399690666,ublox_gps,0,15,41.6469267,-27.316447734817917,235.627,0.126736,0.0,0.0,0.0,0.126736,0.0,0.0,0.0,0.254016,2
1704322725.6556613,218915,1704322725,599690650,ublox_gps,0,15,41.6469264,-27.316446934817918,235.596,0.12531599999999998,0.0,0.0,0.0,0.12531599999999998,0.0,0.0,0.0,0.253009,2
1704322725.8510149,218916,1704322725,799690634,ublox_gps,0,15,41.646926199999996,-27.316446234817917,235.583,0.12460899999999998,0.0,0.0,0.0,0.12460899999999998,0.0,0.0,0.0,0.252004,2
1704322726.0597155,218917,1704322725,999690620,ublox_gps,0,15,41.646926,-27.31644573481792,235.55,0.12320099999999999,0.0,0.0,0.0,0.12320099999999999,0.0,0.0,0.0,0.251001,2
1704322726.2549157,218918,1704322726,199690603,ublox_gps,0,15,41.6469259,-27.316445434817915,235.52,0.12249999999999998,0.0,0.0,0.0,0.12249999999999998,0.0,0.0,0.0,0.25,2
1704322726.4535763,218919,1704322726,399690587,ublox_gps,0,15,41.6469258,-27.316445234817916,235.5,0.12110399999999999,0.0,0.0,0.0,0.12110399999999999,0.0,0.0,0.0,0.248004,2
1704322726.6549501,218920,1704322726,599690572,ublox_gps,0,15,41.6469258,-27.316445234817916,235.496,0.12040899999999999,0.0,0.0,0.0,0.12040899999999999,0.0,0.0,0.0,0.247009,2
1704322726.8522053,218921,1704322726,799690556,ublox_gps,0,15,41.6469258,-27.316445234817916,235.49,0.11971599999999999,0.0,0.0,0.0,0.11971599999999999,0.0,0.0,0.0,0.24601599999999998,2
1704322727.0590947,218922,1704322726,999690541,ublox_gps,0,15,41.6469257,-27.31644513481792,235.499,0.11833599999999998,0.0,0.0,0.0,0.11833599999999998,0.0,0.0,0.0,0.245025,2
1704322727.2549489,218923,1704322727,199690524,ublox_gps,0,15,41.6469257,-27.31644513481792,235.501,0.11764900000000002,0.0,0.0,0.0,0.11764900000000002,0.0,0.0,0.0,0.244036,2
1704322727.454067,218924,1704322727,399690508,ublox_gps,0,15,41.6469257,-27.316445034817917,235.513,0.11628100000000002,0.0,0.0,0.0,0.11628100000000002,0.0,0.0,0.0,0.243049,2
1704322727.650862,218925,1704322727,599690493,ublox_gps,0,15,41.646925599999996,-27.316445034817917,235.511,0.11560000000000002,0.0,0.0,0.0,0.11560000000000002,0.0,0.0,0.0,0.242064,2
1704322727.8542244,218926,1704322727,799690477,ublox_gps,0,15,41.646925599999996,-27.316445034817917,235.50400000000002,0.11492100000000001,0.0,0.0,0.0,0.11492100000000001,0.0,0.0,0.0,0.241081,2
1704322728.0587852,218927,1704322727,999690462,ublox_gps,0,15,41.646925599999996,-27.316444934817916,235.505,0.11424400000000001,0.0,0.0,0.0,0.11424400000000001,0.0,0.0,0.0,0.239121,2
1704322728.2536542,218928,1704322728,199690445,ublox_gps,0,15,41.646925599999996,-27.316444934817916,235.5,0.11289600000000001,0.0,0.0,0.0,0.11289600000000001,0.0,0.0,0.0,0.238144,2
1704322728.4551363,218929,1704322728,399690430,ublox_gps,0,15,41.646925599999996,-27.316444934817916,235.494,0.11222500000000002,0.0,0.0,0.0,0.11222500000000002,0.0,0.0,0.0,0.237169,2
1704322728.6541762,218930,1704322728,599690414,ublox_gps,0,15,41.646925499999995,-27.316444834817915,235.494,0.11155600000000002,0.0,0.0,0.0,0.11155600000000002,0.0,0.0,0.0,0.236196,2
1704322728.8525522,218931,1704322728,799690398,ublox_gps,0,15,41.6469253,-27.316444334817916,235.493,0.11088900000000002,0.0,0.0,0.0,0.11088900000000002,0.0,0.0,0.0,0.235225,2
1704322729.072114,218932,1704322728,999690384,ublox_gps,0,15,41.646924999999996,-27.316443534817914,235.475,0.109561,0.0,0.0,0.0,0.109561,0.0,0.0,0.0,0.234256,2
1704322729.2591968,218933,1704322729,199690367,ublox_gps,0,15,41.6469246,-27.316442834817916,235.485,0.10890000000000001,0.0,0.0,0.0,0.10890000000000001,0.0,0.0,0.0,0.233289,2
1704322729.4549472,218934,1704322729,399690351,ublox_gps,0,15,41.6469242,-27.316442334817914,235.491,0.108241,0.0,0.0,0.0,0.108241,0.0,0.0,0.0,0.23232399999999997,2
1704322729.6628826,218935,1704322729,599690335,ublox_gps,0,15,41.646923799999996,-27.316441734817914,235.495,0.10758400000000001,0.0,0.0,0.0,0.10758400000000001,0.0,0.0,0.0,0.23232399999999997,2
1704322729.8635683,218936,1704322729,799690320,ublox_gps,0,15,41.6469233,-27.316441334817917,235.479,0.10692900000000001,0.0,0.0,0.0,0.10692900000000001,0.0,0.0,0.0,0.23136099999999998,2
1704322730.0718217,218937,1704322729,999690305,ublox_gps,0,15,41.6469229,-27.316441034817917,235.465,0.10692900000000001,0.0,0.0,0.0,0.10692900000000001,0.0,0.0,0.0,0.2304,2
1704322730.2619271,218938,1704322730,199690288,ublox_gps,0,15,41.6469224,-27.316440634817916,235.465,0.10627600000000001,0.0,0.0,0.0,0.10627600000000001,0.0,0.0,0.0,0.2304,2
1704322730.457865,218939,1704322730,399690272,ublox_gps,0,15,41.6469217,-27.316440234817918,235.46800000000002,0.10627600000000001,0.0,0.0,0.0,0.10627600000000001,0.0,0.0,0.0,0.2304,2
1704322730.6602716,218940,1704322730,599690257,ublox_gps,0,15,41.646920699999995,-27.316439834817917,235.42600000000002,0.10562500000000001,0.0,0.0,0.0,0.10562500000000001,0.0,0.0,0.0,0.2304,2
1704322730.861391,218941,1704322730,799690241,ublox_gps,0,15,41.6469192,-27.316439434817916,235.423,0.10562500000000001,0.0,0.0,0.0,0.10562500000000001,0.0,0.0,0.0,0.22944099999999998,2
1704322731.0589716,218942,1704322730,999690226,ublox_gps,0,15,41.6469173,-27.316439234817917,235.40800000000002,0.104976,0.0,0.0,0.0,0.104976,0.0,0.0,0.0,0.22944099999999998,2
1704322731.2517645,218943,1704322731,199690210,ublox_gps,0,15,41.646915199999995,-27.316439334817915,235.386,0.104329,0.0,0.0,0.0,0.104329,0.0,0.0,0.0,0.228484,2
1704322731.4540262,218944,1704322731,399690194,ublox_gps,0,15,41.6469129,-27.316439734817916,235.356,0.10304100000000001,0.0,0.0,0.0,0.10304100000000001,0.0,0.0,0.0,0.22752899999999998,2
1704322731.6519828,218945,1704322731,599690178,ublox_gps,0,15,41.6469106,-27.316440234817918,235.345,0.1024,0.0,0.0,0.0,0.1024,0.0,0.0,0.0,0.22657599999999997,2
1704322731.8535876,218946,1704322731,799690163,ublox_gps,0,15,41.6469082,-27.316440534817914,235.312,0.101761,0.0,0.0,0.0,0.101761,0.0,0.0,0.0,0.225625,2
1704322732.06118,218947,1704322731,999690148,ublox_gps,0,15,41.646906,-27.316440634817916,235.314,0.101124,0.0,0.0,0.0,0.101124,0.0,0.0,0.0,0.22372899999999998,2
1704322732.253995,218948,1704322732,199690131,ublox_gps,0,15,41.6469038,-27.316440634817916,235.306,0.10048900000000001,0.0,0.0,0.0,0.10048900000000001,0.0,0.0,0.0,0.22278399999999998,2
1704322732.4571877,218949,1704322732,399690116,ublox_gps,0,15,41.6469014,-27.316440434817917,235.332,0.099856,0.0,0.0,0.0,0.099856,0.0,0.0,0.0,0.22184099999999998,2
1704322732.656972,218950,1704322732,599690100,ublox_gps,0,15,41.6468991,-27.316440234817918,235.326,0.09922500000000001,0.0,0.0,0.0,0.09922500000000001,0.0,0.0,0.0,0.22089999999999999,2
1704322732.8551638,218951,1704322732,799690084,ublox_gps,0,15,41.6468968,-27.316439634817918,235.322,0.098596,0.0,0.0,0.0,0.098596,0.0,0.0,0.0,0.21996099999999996,2
1704322733.065155,218952,1704322732,999690070,ublox_gps,0,15,41.6468944,-27.316438934817917,235.297,0.097969,0.0,0.0,0.0,0.097969,0.0,0.0,0.0,0.21902400000000002,2
1704322733.2560947,218953,1704322733,199690053,ublox_gps,0,15,41.6468918,-27.31643843481792,235.296,0.097344,0.0,0.0,0.0,0.097344,0.0,0.0,0.0,0.21808900000000003,2
1704322733.457121,218954,1704322733,399690037,ublox_gps,0,15,41.6468892,-27.316438034817917,235.281,0.096721,0.0,0.0,0.0,0.096721,0.0,0.0,0.0,0.21715600000000002,2
1704322733.6530569,218955,1704322733,599690021,ublox_gps,0,15,41.6468865,-27.316438034817917,235.273,0.0961,0.0,0.0,0.0,0.0961,0.0,0.0,0.0,0.21622500000000003,2
1704322733.8505733,218956,1704322733,799690006,ublox_gps,0,15,41.646884,-27.316438334817917,235.27,0.095481,0.0,0.0,0.0,0.095481,0.0,0.0,0.0,0.21622500000000003,2
1704322734.055222,218957,1704322733,999689991,ublox_gps,0,15,41.6468815,-27.316438834817916,235.27700000000002,0.095481,0.0,0.0,0.0,0.095481,0.0,0.0,0.0,0.21529600000000002,2
1704322734.2537959,218958,1704322734,199689974,ublox_gps,0,15,41.646879299999995,-27.316439334817915,235.284,0.094864,0.0,0.0,0.0,0.094864,0.0,0.0,0.0,0.21529600000000002,2
1704322734.4555733,218959,1704322734,399689959,ublox_gps,0,15,41.646876999999996,-27.316440334817916,235.251,0.094249,0.0,0.0,0.0,0.094249,0.0,0.0,0.0,0.21436900000000003,2
1704322734.6530118,218960,1704322734,599689943,ublox_gps,0,15,41.6468744,-27.316441234817916,235.234,0.094249,0.0,0.0,0.0,0.094249,0.0,0.0,0.0,0.21344400000000002,2
1704322734.850877,218961,1704322734,799689927,ublox_gps,0,15,41.6468719,-27.316442234817917,235.223,0.093636,0.0,0.0,0.0,0.093636,0.0,0.0,0.0,0.21252100000000002,2
1704322735.0606618,218962,1704322734,999689913,ublox_gps,0,15,41.6468693,-27.316443034817915,235.211,0.093636,0.0,0.0,0.0,0.093636,0.0,0.0,0.0,0.2116,2
1704322735.254723,218963,1704322735,199689896,ublox_gps,0,15,41.6468668,-27.316443734817916,235.24200000000002,0.093025,0.0,0.0,0.0,0.093025,0.0,0.0,0.0,0.210681,2
1704322735.4559443,218964,1704322735,399689880,ublox_gps,0,15,41.6468645,-27.316444434817917,235.238,0.092416,0.0,0.0,0.0,0.092416,0.0,0.0,0.0,0.209764,2
1704322735.6582808,218965,1704322735,599689865,ublox_gps,0,15,41.646862,-27.316444634817916,235.202,0.091809,0.0,0.0,0.0,0.091809,0.0,0.0,0.0,0.209764,2
1704322735.8545227,218966,1704322735,799689849,ublox_gps,0,15,41.6468594,-27.316444934817916,235.18,0.091809,0.0,0.0,0.0,0.091809,0.0,0.0,0.0,0.208849,2
1704322736.0636158,218967,1704322735,999689834,ublox_gps,0,15,41.646856799999995,-27.31644513481792,235.169,0.091204,0.0,0.0,0.0,0.091204,0.0,0.0,0.0,0.208849,2
1704322736.2559981,218968,1704322736,199689817,ublox_gps,0,15,41.646854399999995,-27.316445234817916,235.172,0.091204,0.0,0.0,0.0,0.091204,0.0,0.0,0.0,0.207936,2
1704322736.458657,218969,1704322736,399689802,ublox_gps,0,15,41.6468518,-27.316445334817914,235.14000000000001,0.091204,0.0,0.0,0.0,0.091204,0.0,0.0,0.0,0.207936,2
1704322736.6535375,218970,1704322736,599689786,ublox_gps,0,15,41.6468492,-27.316445534817916,235.179,0.091204,0.0,0.0,0.0,0.091204,0.0,0.0,0.0,0.208849,2
1704322736.8596857,218971,1704322736,799689770,ublox_gps,0,15,41.6468464,-27.31644573481792,235.213,0.091204,0.0,0.0,0.0,0.091204,0.0,0.0,0.0,0.208849,2
1704322737.0660522,218972,1704322736,999689755,ublox_gps,0,15,41.6468438,-27.316446034817915,235.22400000000002,0.091204,0.0,0.0,0.0,0.091204,0.0,0.0,0.0,0.208849,2
1704322737.258216,218973,1704322737,199689739,ublox_gps,0,15,41.6468413,-27.316446434817916,235.263,0.09060099999999999,0.0,0.0,0.0,0.09060099999999999,0.0,0.0,0.0,0.208849,2
1704322737.4591615,218974,1704322737,399689723,ublox_gps,0,15,41.6468388,-27.316446934817918,235.251,0.09060099999999999,0.0,0.0,0.0,0.09060099999999999,0.0,0.0,0.0,0.207936,2
1704322737.654181,218975,1704322737,599689707,ublox_gps,0,15,41.6468364,-27.316447534817918,235.221,0.09,0.0,0.0,0.0,0.09,0.0,0.0,0.0,0.20702500000000001,2
1704322737.8581014,218976,1704322737,799689691,ublox_gps,0,15,41.646834,-27.316448334817917,235.21800000000002,0.09,0.0,0.0,0.0,0.09,0.0,0.0,0.0,0.20702500000000001,2
1704322738.0629706,218977,1704322737,999689677,ublox_gps,0,15,41.6468316,-27.31644943481792,235.201,0.09,0.0,0.0,0.0,0.09,0.0,0.0,0.0,0.20702500000000001,2
1704322738.2557878,218978,1704322738,199689660,ublox_gps,0,15,41.6468294,-27.316450234817914,235.17000000000002,0.09,0.0,0.0,0.0,0.09,0.0,0.0,0.0,0.207936,2
1704322738.4570749,218979,1704322738,399689644,ublox_gps,0,15,41.646826999999995,-27.316451134817918,235.154,0.09,0.0,0.0,0.0,0.09,0.0,0.0,0.0,0.207936,2
1704322738.6577384,218980,1704322738,599689628,ublox_gps,0,15,41.6468244,-27.316452034817914,235.142,0.09,0.0,0.0,0.0,0.09,0.0,0.0,0.0,0.207936,2
1704322738.855566,218981,1704322738,799689613,ublox_gps,0,15,41.6468219,-27.316453134817916,235.143,0.09,0.0,0.0,0.0,0.09,0.0,0.0,0.0,0.20702500000000001,2
1704322739.0691304,218982,1704322738,999689598,ublox_gps,0,15,41.6468196,-27.316453734817916,235.09,0.09,0.0,0.0,0.0,0.09,0.0,0.0,0.0,0.20702500000000001,2
1704322739.260184,218983,1704322739,199689581,ublox_gps,0,15,41.646817299999995,-27.316454634817916,235.049,0.09060099999999999,0.0,0.0,0.0,0.09060099999999999,0.0,0.0,0.0,0.20702500000000001,2
1704322739.455069,218984,1704322739,399689566,ublox_gps,0,15,41.6468148,-27.316455534817916,235.00400000000002,0.09060099999999999,0.0,0.0,0.0,0.09060099999999999,0.0,0.0,0.0,0.20702500000000001,2
1704322739.6630824,218985,1704322739,599689550,ublox_gps,0,15,41.6468123,-27.316456134817916,235.022,0.09060099999999999,0.0,0.0,0.0,0.09060099999999999,0.0,0.0,0.0,0.20702500000000001,2
1704322739.856014,218986,1704322739,799689534,ublox_gps,0,15,41.646811,-27.316456634817918,235.017,0.09060099999999999,0.0,0.0,0.0,0.09060099999999999,0.0,0.0,0.0,0.20611600000000002,2
1704322740.0631042,218987,1704322739,999689519,ublox_gps,0,15,41.6468102,-27.316456934817914,234.985,0.09,0.0,0.0,0.0,0.09,0.0,0.0,0.0,0.205209,2
1704322740.2520416,218988,1704322740,199689503,ublox_gps,0,15,41.646808899999996,-27.316457434817917,234.98600000000002,0.09,0.0,0.0,0.0,0.09,0.0,0.0,0.0,0.204304,2
1704322740.4562094,218989,1704322740,399689487,ublox_gps,0,15,41.6468079,-27.31645793481792,234.93800000000002,0.089401,0.0,0.0,0.0,0.089401,0.0,0.0,0.0,0.203401,2
1704322740.6581006,218990,1704322740,599689472,ublox_gps,0,15,41.6468068,-27.316458334817916,234.919,0.089401,0.0,0.0,0.0,0.089401,0.0,0.0,0.0,0.201601,2
1704322740.8579662,218991,1704322740,799689456,ublox_gps,0,15,41.6468057,-27.316458834817915,234.88,0.088804,0.0,0.0,0.0,0.088804,0.0,0.0,0.0,0.20070400000000002,2
1704322741.0631137,218992,1704322740,999689441,ublox_gps,0,15,41.6468047,-27.316459334817914,234.86100000000002,0.088209,0.0,0.0,0.0,0.088209,0.0,0.0,0.0,0.19980900000000001,2
1704322741.2551804,218993,1704322741,199689424,ublox_gps,0,15,41.6468035,-27.316459934817914,234.827,0.088209,0.0,0.0,0.0,0.088209,0.0,0.0,0.0,0.198916,2
1704322741.45933,218994,1704322741,399689409,ublox_gps,0,15,41.6468025,-27.316460234817917,234.81900000000002,0.08761599999999999,0.0,0.0,0.0,0.08761599999999999,0.0,0.0,0.0,0.198025,2
1704322741.6611238,218995,1704322741,599689393,ublox_gps,0,15,41.646801499999995,-27.316460734817916,234.798,0.08761599999999999,0.0,0.0,0.0,0.08761599999999999,0.0,0.0,0.0,0.197136,2
1704322741.855188,218996,1704322741,799689377,ublox_gps,0,15,41.6468005,-27.316461234817915,234.758,0.08702499999999999,0.0,0.0,0.0,0.08702499999999999,0.0,0.0,0.0,0.196249,2
1704322742.0639133,218997,1704322741,999689363,ublox_gps,0,15,41.6467994,-27.316461634817916,234.77,0.08702499999999999,0.0,0.0,0.0,0.08702499999999999,0.0,0.0,0.0,0.196249,2
1704322742.2576487,218998,1704322742,199689346,ublox_gps,0,15,41.6467983,-27.316462034817917,234.792,0.08702499999999999,0.0,0.0,0.0,0.08702499999999999,0.0,0.0,0.0,0.195364,2
1704322742.4560227,218999,1704322742,399689330,ublox_gps,0,15,41.646797299999996,-27.316462534817916,234.781,0.08702499999999999,0.0,0.0,0.0,0.08702499999999999,0.0,0.0,0.0,0.19448100000000001,2
1704322742.659194,219000,1704322742,599689314,ublox_gps,0,15,41.6467962,-27.316462834817916,234.756,0.08702499999999999,0.0,0.0,0.0,0.08702499999999999,0.0,0.0,0.0,0.19448100000000001,2
1704322742.857983,219001,1704322742,799689299,ublox_gps,0,15,41.6467951,-27.316463134817916,234.79,0.08643599999999999,0.0,0.0,0.0,0.08643599999999999,0.0,0.0,0.0,0.1936,2
1704322743.0619423,219002,1704322742,999689284,ublox_gps,0,15,41.6467939,-27.316463534817917,234.803,0.08643599999999999,0.0,0.0,0.0,0.08643599999999999,0.0,0.0,0.0,0.192721,2
1704322743.2579908,219003,1704322743,199689267,ublox_gps,0,15,41.6467928,-27.316463834817917,234.769,0.085849,0.0,0.0,0.0,0.085849,0.0,0.0,0.0,0.191844,2
1704322743.4590352,219004,1704322743,399689251,ublox_gps,0,15,41.6467915,-27.316464134817917,234.75,0.085849,0.0,0.0,0.0,0.085849,0.0,0.0,0.0,0.191844,2
1704322743.6580195,219005,1704322743,599689236,ublox_gps,0,15,41.6467904,-27.316464334817915,234.778,0.085849,0.0,0.0,0.0,0.085849,0.0,0.0,0.0,0.190969,2
1704322743.8537424,219006,1704322743,799689220,ublox_gps,0,15,41.646789399999996,-27.31646463481792,234.774,0.085849,0.0,0.0,0.0,0.085849,0.0,0.0,0.0,0.190096,2
1704322744.061161,219007,1704322743,999689205,ublox_gps,0,15,41.6467885,-27.316464734817917,234.769,0.08526399999999999,0.0,0.0,0.0,0.08526399999999999,0.0,0.0,0.0,0.189225,2
1704322744.258184,219008,1704322744,199689189,ublox_gps,0,15,41.646787499999995,-27.316464834817914,234.779,0.08526399999999999,0.0,0.0,0.0,0.08526399999999999,0.0,0.0,0.0,0.188356,2
1704322744.459596,219009,1704322744,399689173,ublox_gps,0,15,41.6467865,-27.316465034817917,234.791,0.08468099999999999,0.0,0.0,0.0,0.08468099999999999,0.0,0.0,0.0,0.187489,2
1704322744.659652,219010,1704322744,599689157,ublox_gps,0,15,41.6467854,-27.316465134817918,234.774,0.08468099999999999,0.0,0.0,0.0,0.08468099999999999,0.0,0.0,0.0,0.18662399999999998,2
1704322744.857589,219011,1704322744,799689141,ublox_gps,0,15,41.6467842,-27.316465434817914,234.761,0.0841,0.0,0.0,0.0,0.0841,0.0,0.0,0.0,0.18576099999999998,2
1704322745.068829,219012,1704322744,999689127,ublox_gps,0,15,41.646783,-27.316465634817916,234.75,0.0841,0.0,0.0,0.0,0.0841,0.0,0.0,0.0,0.18576099999999998,2
1704322745.2571368,219013,1704322745,199689110,ublox_gps,0,15,41.6467819,-27.316465934817916,234.747,0.08352099999999998,0.0,0.0,0.0,0.08352099999999998,0.0,0.0,0.0,0.18489999999999998,2
1704322745.4590569,219014,1704322745,399689094,ublox_gps,0,15,41.6467807,-27.316466334817918,234.74800000000002,0.08352099999999998,0.0,0.0,0.0,0.08352099999999998,0.0,0.0,0.0,0.18404099999999998,2
1704322745.6548703,219015,1704322745,599689079,ublox_gps,0,15,41.646779599999995,-27.316466634817914,234.728,0.08294399999999999,0.0,0.0,0.0,0.08294399999999999,0.0,0.0,0.0,0.18404099999999998,2
1704322745.8549771,219016,1704322745,799689063,ublox_gps,0,15,41.646778499999996,-27.316467234817914,234.70600000000002,0.08294399999999999,0.0,0.0,0.0,0.08294399999999999,0.0,0.0,0.0,0.18318399999999999,2
1704322746.061084,219017,1704322745,999689048,ublox_gps,0,15,41.6467773,-27.316467934817915,234.709,0.08294399999999999,0.0,0.0,0.0,0.08294399999999999,0.0,0.0,0.0,0.182329,2
1704322746.259836,219018,1704322746,199689032,ublox_gps,0,15,41.646775999999996,-27.316468934817916,234.70000000000002,0.08294399999999999,0.0,0.0,0.0,0.08294399999999999,0.0,0.0,0.0,0.181476,2
1704322746.4579825,219019,1704322746,399689016,ublox_gps,0,15,41.6467743,-27.316470334817915,234.674,0.08294399999999999,0.0,0.0,0.0,0.08294399999999999,0.0,0.0,0.0,0.181476,2
1704322746.6538558,219020,1704322746,599689000,ublox_gps,0,15,41.646772399999996,-27.316472234817915,234.672,0.08294399999999999,0.0,0.0,0.0,0.08294399999999999,0.0,0.0,0.0,0.18062499999999998,2
1704322746.8551936,219021,1704322746,799688984,ublox_gps,0,15,41.646770499999995,-27.316474634817915,234.655,0.08294399999999999,0.0,0.0,0.0,0.08294399999999999,0.0,0.0,0.0,0.179776,2
1704322747.0600252,219022,1704322746,999688970,ublox_gps,0,15,41.6467689,-27.316477234817917,234.649,0.08294399999999999,0.0,0.0,0.0,0.08294399999999999,0.0,0.0,0.0,0.179776,2
1704322747.254634,219023,1704322747,199688953,ublox_gps,0,15,41.6467676,-27.316479934817917,234.637,0.08294399999999999,0.0,0.0,0.0,0.08294399999999999,0.0,0.0,0.0,0.17892899999999998,2
1704322747.4521356,219024,1704322747,399688937,ublox_gps,0,15,41.6467666,-27.316482634817916,234.598,0.08294399999999999,0.0,0.0,0.0,0.08294399999999999,0.0,0.0,0.0,0.17892899999999998,2
1704322747.657101,219025,1704322747,599688922,ublox_gps,0,15,41.6467658,-27.316485434817917,234.54500000000002,0.08294399999999999,0.0,0.0,0.0,0.08294399999999999,0.0,0.0,0.0,0.17892899999999998,2
1704322747.853642,219026,1704322747,799688906,ublox_gps,0,15,41.646764999999995,-27.316488434817916,234.518,0.08294399999999999,0.0,0.0,0.0,0.08294399999999999,0.0,0.0,0.0,0.178084,2
1704322748.0599174,219027,1704322747,999688891,ublox_gps,0,15,41.646764499999996,-27.31649133481792,234.491,0.08352099999999998,0.0,0.0,0.0,0.08352099999999998,0.0,0.0,0.0,0.178084,2
1704322748.2556834,219028,1704322748,199688875,ublox_gps,0,15,41.6467641,-27.316494234817917,234.447,0.08352099999999998,0.0,0.0,0.0,0.08352099999999998,0.0,0.0,0.0,0.178084,2
1704322748.4559932,219029,1704322748,399688859,ublox_gps,0,15,41.6467637,-27.316497134817915,234.429,0.0841,0.0,0.0,0.0,0.0841,0.0,0.0,0.0,0.17892899999999998,2
1704322748.6561408,219030,1704322748,599688844,ublox_gps,0,15,41.6467635,-27.316499934817916,234.42000000000002,0.08468099999999999,0.0,0.0,0.0,0.08468099999999999,0.0,0.0,0.0,0.17892899999999998,2
1704322748.8530095,219031,1704322748,799688828,ublox_gps,0,15,41.646763299999996,-27.316502734817917,234.385,0.08526399999999999,0.0,0.0,0.0,0.08526399999999999,0.0,0.0,0.0,0.17892899999999998,2
1704322749.058928,219032,1704322748,999688813,ublox_gps,0,15,41.6467631,-27.316505634817915,234.363,0.08526399999999999,0.0,0.0,0.0,0.08526399999999999,0.0,0.0,0.0,0.17892899999999998,2
1704322749.251117,219033,1704322749,199688797,ublox_gps,0,15,41.646763,-27.316508534817917,234.36100000000002,0.085849,0.0,0.0,0.0,0.085849,0.0,0.0,0.0,0.179776,2
1704322749.456104,219034,1704322749,399688781,ublox_gps,0,15,41.6467631,-27.31651143481792,234.338,0.08643599999999999,0.0,0.0,0.0,0.08643599999999999,0.0,0.0,0.0,0.179776,2
1704322749.6551378,219035,1704322749,599688765,ublox_gps,0,15,41.646763199999995,-27.316514334817917,234.338,0.08702499999999999,0.0,0.0,0.0,0.08702499999999999,0.0,0.0,0.0,0.179776,2
1704322749.854545,219036,1704322749,799688749,ublox_gps,0,15,41.6467634,-27.316517134817914,234.34300000000002,0.08702499999999999,0.0,0.0,0.0,0.08702499999999999,0.0,0.0,0.0,0.179776,2
1704322750.0610762,219037,1704322749,999688735,ublox_gps,0,15,41.646763799999995,-27.316519834817917,234.31300000000002,0.08761599999999999,0.0,0.0,0.0,0.08761599999999999,0.0,0.0,0.0,0.179776,2
1704322750.254015,219038,1704322750,199688718,ublox_gps,0,15,41.6467643,-27.316522834817917,234.309,0.08761599999999999,0.0,0.0,0.0,0.08761599999999999,0.0,0.0,0.0,0.17892899999999998,2
1704322750.456197,219039,1704322750,399688702,ublox_gps,0,15,41.6467648,-27.316525734817915,234.288,0.08761599999999999,0.0,0.0,0.0,0.08761599999999999,0.0,0.0,0.0,0.17892899999999998,2
1704322750.6559384,219040,1704322750,599688686,ublox_gps,0,15,41.6467654,-27.316528634817914,234.302,0.08702499999999999,0.0,0.0,0.0,0.08702499999999999,0.0,0.0,0.0,0.178084,2
1704322750.854208,219041,1704322750,799688671,ublox_gps,0,15,41.646766,-27.316531234817916,234.278,0.08702499999999999,0.0,0.0,0.0,0.08702499999999999,0.0,0.0,0.0,0.178084,2
1704322751.0641124,219042,1704322750,999688656,ublox_gps,0,15,41.6467666,-27.316534034817916,234.276,0.08702499999999999,0.0,0.0,0.0,0.08702499999999999,0.0,0.0,0.0,0.17724099999999998,2
1704322751.2595904,219043,1704322751,199688639,ublox_gps,0,15,41.6467674,-27.316536834817917,234.27,0.08702499999999999,0.0,0.0,0.0,0.08702499999999999,0.0,0.0,0.0,0.17724099999999998,2
1704322751.4551933,219044,1704322751,399688624,ublox_gps,0,15,41.646768099999996,-27.316539534817917,234.255,0.08702499999999999,0.0,0.0,0.0,0.08702499999999999,0.0,0.0,0.0,0.17639999999999997,2
1704322751.6560771,219045,1704322751,599688608,ublox_gps,0,15,41.6467688,-27.316542234817916,234.24,0.08702499999999999,0.0,0.0,0.0,0.08702499999999999,0.0,0.0,0.0,0.17639999999999997,2
1704322751.857928,219046,1704322751,799688592,ublox_gps,0,15,41.6467694,-27.316544934817916,234.226,0.08702499999999999,0.0,0.0,0.0,0.08702499999999999,0.0,0.0,0.0,0.175561,2
1704322752.0640075,219047,1704322751,999688578,ublox_gps,0,15,41.646769899999995,-27.316547734817917,234.21200000000002,0.08643599999999999,0.0,0.0,0.0,0.08643599999999999,0.0,0.0,0.0,0.175561,2
1704322752.255181,219048,1704322752,199688561,ublox_gps,0,15,41.6467703,-27.316550534817914,234.211,0.08643599999999999,0.0,0.0,0.0,0.08643599999999999,0.0,0.0,0.0,0.174724,2
1704322752.4559507,219049,1704322752,399688545,ublox_gps,0,15,41.6467707,-27.316553434817916,234.205,0.08643599999999999,0.0,0.0,0.0,0.08643599999999999,0.0,0.0,0.0,0.173889,2
1704322752.655215,219050,1704322752,599688529,ublox_gps,0,15,41.646771,-27.31655643481792,234.207,0.08643599999999999,0.0,0.0,0.0,0.08643599999999999,0.0,0.0,0.0,0.173056,2
1704322752.8517227,219051,1704322752,799688513,ublox_gps,0,15,41.6467713,-27.31655943481792,234.205,0.085849,0.0,0.0,0.0,0.085849,0.0,0.0,0.0,0.173056,2
1704322753.0607917,219052,1704322752,999688499,ublox_gps,0,15,41.6467716,-27.316562434817918,234.203,0.085849,0.0,0.0,0.0,0.085849,0.0,0.0,0.0,0.172225,2
1704322753.2542598,219053,1704322753,199688482,ublox_gps,0,15,41.646772,-27.316565334817916,234.21,0.08643599999999999,0.0,0.0,0.0,0.08643599999999999,0.0,0.0,0.0,0.172225,2
1704322753.4559934,219054,1704322753,399688466,ublox_gps,0,15,41.646772299999995,-27.316568334817916,234.21,0.08643599999999999,0.0,0.0,0.0,0.08643599999999999,0.0,0.0,0.0,0.171396,2
1704322753.657828,219055,1704322753,599688450,ublox_gps,0,15,41.6467727,-27.316571234817914,234.217,0.08643599999999999,0.0,0.0,0.0,0.08643599999999999,0.0,0.0,0.0,0.171396,2
1704322753.8536835,219056,1704322753,799688435,ublox_gps,0,15,41.6467732,-27.31657403481792,234.191,0.08643599999999999,0.0,0.0,0.0,0.08643599999999999,0.0,0.0,0.0,0.171396,2
1704322754.0602643,219057,1704322753,999688420,ublox_gps,0,15,41.6467738,-27.316576934817917,234.198,0.08643599999999999,0.0,0.0,0.0,0.08643599999999999,0.0,0.0,0.0,0.17056899999999997,2
1704322754.256096,219058,1704322754,199688403,ublox_gps,0,15,41.6467744,-27.316579634817916,234.198,0.08643599999999999,0.0,0.0,0.0,0.08643599999999999,0.0,0.0,0.0,0.17056899999999997,2
1704322754.4551938,219059,1704322754,399688387,ublox_gps,0,15,41.6467751,-27.316582334817916,234.195,0.08643599999999999,0.0,0.0,0.0,0.08643599999999999,0.0,0.0,0.0,0.16974399999999998,2
1704322754.653173,219060,1704322754,599688371,ublox_gps,0,15,41.6467758,-27.316585134817917,234.20000000000002,0.085849,0.0,0.0,0.0,0.085849,0.0,0.0,0.0,0.16974399999999998,2
1704322754.8558564,219061,1704322754,799688356,ublox_gps,0,15,41.646776599999995,-27.316587934817917,234.199,0.08643599999999999,0.0,0.0,0.0,0.08643599999999999,0.0,0.0,0.0,0.168921,2
1704322755.060093,219062,1704322754,999688341,ublox_gps,0,15,41.6467773,-27.316590734817915,234.216,0.085849,0.0,0.0,0.0,0.085849,0.0,0.0,0.0,0.168921,2
1704322755.2561738,219063,1704322755,199688324,ublox_gps,0,15,41.646778,-27.316593434817918,234.198,0.085849,0.0,0.0,0.0,0.085849,0.0,0.0,0.0,0.16809999999999997,2
1704322755.4567535,219064,1704322755,399688308,ublox_gps,0,15,41.6467787,-27.316596334817916,234.203,0.085849,0.0,0.0,0.0,0.085849,0.0,0.0,0.0,0.16809999999999997,2
1704322755.654201,219065,1704322755,599688293,ublox_gps,0,15,41.6467792,-27.316599134817917,234.20600000000002,0.085849,0.0,0.0,0.0,0.085849,0.0,0.0,0.0,0.16728099999999999,2
1704322755.8574662,219066,1704322755,799688277,ublox_gps,0,15,41.646779699999996,-27.31660203481792,234.219,0.085849,0.0,0.0,0.0,0.085849,0.0,0.0,0.0,0.16646399999999997,2
1704322756.0608451,219067,1704322755,999688262,ublox_gps,0,15,41.646780199999995,-27.316604734817915,234.221,0.08526399999999999,0.0,0.0,0.0,0.08526399999999999,0.0,0.0,0.0,0.16646399999999997,2
1704322756.2549596,219068,1704322756,199688245,ublox_gps,0,15,41.6467806,-27.316607534817916,234.227,0.08526399999999999,0.0,0.0,0.0,0.08526399999999999,0.0,0.0,0.0,0.165649,2
1704322756.45212,219069,1704322756,399688230,ublox_gps,0,15,41.646781,-27.316610434817918,234.23000000000002,0.08526399999999999,0.0,0.0,0.0,0.08526399999999999,0.0,0.0,0.0,0.165649,2
1704322756.6559415,219070,1704322756,599688214,ublox_gps,0,15,41.6467813,-27.316613334817916,234.22400000000002,0.08526399999999999,0.0,0.0,0.0,0.08526399999999999,0.0,0.0,0.0,0.164836,2
1704322756.8528621,219071,1704322756,799688198,ublox_gps,0,15,41.6467817,-27.316616134817917,234.198,0.08526399999999999,0.0,0.0,0.0,0.08526399999999999,0.0,0.0,0.0,0.164836,2
1704322757.060913,219072,1704322756,999688184,ublox_gps,0,15,41.646782099999996,-27.31661903481792,234.18,0.08526399999999999,0.0,0.0,0.0,0.08526399999999999,0.0,0.0,0.0,0.164836,2
1704322757.2594872,219073,1704322757,199688167,ublox_gps,0,15,41.6467824,-27.316621934817917,234.181,0.08526399999999999,0.0,0.0,0.0,0.08526399999999999,0.0,0.0,0.0,0.16402500000000003,2
1704322757.4599664,219074,1704322757,399688151,ublox_gps,0,15,41.6467829,-27.316624634817916,234.181,0.08468099999999999,0.0,0.0,0.0,0.08468099999999999,0.0,0.0,0.0,0.16402500000000003,2
1704322757.6569033,219075,1704322757,599688135,ublox_gps,0,15,41.6467834,-27.316627434817917,234.178,0.08468099999999999,0.0,0.0,0.0,0.08468099999999999,0.0,0.0,0.0,0.16402500000000003,2
1704322757.8550751,219076,1704322757,799688120,ublox_gps,0,15,41.646783899999996,-27.316630134817917,234.165,0.08468099999999999,0.0,0.0,0.0,0.08468099999999999,0.0,0.0,0.0,0.16321600000000003,2
1704322758.0608203,219077,1704322757,999688105,ublox_gps,0,15,41.646784499999995,-27.316632934817918,234.159,0.08468099999999999,0.0,0.0,0.0,0.08468099999999999,0.0,0.0,0.0,0.16321600000000003,2
1704322758.2520714,219078,1704322758,199688088,ublox_gps,0,15,41.6467853,-27.31663543481792,234.14000000000001,0.08468099999999999,0.0,0.0,0.0,0.08468099999999999,0.0,0.0,0.0,0.16321600000000003,2
1704322758.4571342,219079,1704322758,399688073,ublox_gps,0,15,41.6467861,-27.316638134817914,234.132,0.08468099999999999,0.0,0.0,0.0,0.08468099999999999,0.0,0.0,0.0,0.16402500000000003,2
1704322758.6554163,219080,1704322758,599688057,ublox_gps,0,15,41.6467868,-27.316640734817916,234.116,0.08468099999999999,0.0,0.0,0.0,0.08468099999999999,0.0,0.0,0.0,0.16321600000000003,2
1704322758.8543336,219081,1704322758,799688041,ublox_gps,0,15,41.646787599999996,-27.31664333481792,234.114,0.0841,0.0,0.0,0.0,0.0841,0.0,0.0,0.0,0.16321600000000003,2
1704322759.059803,219082,1704322758,999688026,ublox_gps,0,15,41.646788199999996,-27.316646134817915,234.10500000000002,0.0841,0.0,0.0,0.0,0.0841,0.0,0.0,0.0,0.16321600000000003,2
1704322759.2547488,219083,1704322759,199688010,ublox_gps,0,15,41.646788699999995,-27.316649034817914,234.108,0.0841,0.0,0.0,0.0,0.0841,0.0,0.0,0.0,0.16321600000000003,2
1704322759.4560828,219084,1704322759,399687994,ublox_gps,0,15,41.646789299999995,-27.316651734817917,234.107,0.08352099999999998,0.0,0.0,0.0,0.08352099999999998,0.0,0.0,0.0,0.16321600000000003,2
1704322759.6562016,219085,1704322759,599687978,ublox_gps,0,15,41.6467896,-27.316654534817914,234.096,0.08352099999999998,0.0,0.0,0.0,0.08352099999999998,0.0,0.0,0.0,0.16240900000000003,2
1704322759.85419,219086,1704322759,799687962,ublox_gps,0,15,41.646789899999995,-27.316657434817916,234.108,0.08352099999999998,0.0,0.0,0.0,0.08352099999999998,0.0,0.0,0.0,0.16240900000000003,2
1704322760.0632231,219087,1704322759,999687948,ublox_gps,0,15,41.6467901,-27.316660334817918,234.103,0.08294399999999999,0.0,0.0,0.0,0.08294399999999999,0.0,0.0,0.0,0.16160400000000003,2
1704322760.255912,219088,1704322760,199687931,ublox_gps,0,15,41.6467904,-27.316663234817916,234.1,0.08236899999999998,0.0,0.0,0.0,0.08236899999999998,0.0,0.0,0.0,0.16160400000000003,2
1704322760.4541967,219089,1704322760,399687915,ublox_gps,0,15,41.646790599999996,-27.316666234817916,234.098,0.08236899999999998,0.0,0.0,0.0,0.08236899999999998,0.0,0.0,0.0,0.16160400000000003,2
1704322760.655747,219090,1704322760,599687899,ublox_gps,0,15,41.6467909,-27.316669234817915,234.095,0.08236899999999998,0.0,0.0,0.0,0.08236899999999998,0.0,0.0,0.0,0.16160400000000003,2
1704322760.8549273,219091,1704322760,799687884,ublox_gps,0,15,41.646791199999996,-27.316672134817914,234.101,0.08236899999999998,0.0,0.0,0.0,0.08236899999999998,0.0,0.0,0.0,0.16160400000000003,2
1704322761.061717,219092,1704322760,999687869,ublox_gps,0,15,41.6467915,-27.316675034817916,234.097,0.08179599999999998,0.0,0.0,0.0,0.08179599999999998,0.0,0.0,0.0,0.16080100000000003,2
1704322761.2558787,219093,1704322761,199687852,ublox_gps,0,15,41.6467919,-27.316677934817918,234.103,0.08179599999999998,0.0,0.0,0.0,0.08179599999999998,0.0,0.0,0.0,0.16080100000000003,2
1704322761.4568493,219094,1704322761,399687836,ublox_gps,0,15,41.646792399999995,-27.316680834817916,234.1,0.08122499999999999,0.0,0.0,0.0,0.08122499999999999,0.0,0.0,0.0,0.16080100000000003,2
1704322761.655548,219095,1704322761,599687821,ublox_gps,0,15,41.646792999999995,-27.316683634817917,234.107,0.08122499999999999,0.0,0.0,0.0,0.08122499999999999,0.0,0.0,0.0,0.16000000000000003,2
1704322761.8500984,219096,1704322761,799687805,ublox_gps,0,15,41.646793699999996,-27.316686334817916,234.101,0.08122499999999999,0.0,0.0,0.0,0.08122499999999999,0.0,0.0,0.0,0.16000000000000003,2
1704322762.0637457,219097,1704322761,999687790,ublox_gps,0,15,41.646794199999995,-27.316689034817916,234.097,0.08065599999999999,0.0,0.0,0.0,0.08065599999999999,0.0,0.0,0.0,0.159201,2
1704322762.2542489,219098,1704322762,199687773,ublox_gps,0,15,41.646794799999995,-27.316691734817915,234.12,0.08065599999999999,0.0,0.0,0.0,0.08065599999999999,0.0,0.0,0.0,0.159201,2
1704322762.4568365,219099,1704322762,399687757,ublox_gps,0,15,41.6467956,-27.31669443481792,234.133,0.08065599999999999,0.0,0.0,0.0,0.08065599999999999,0.0,0.0,0.0,0.159201,2
1704322762.6562212,219100,1704322762,599687742,ublox_gps,0,15,41.6467963,-27.316697134817915,234.132,0.08008899999999998,0.0,0.0,0.0,0.08008899999999998,0.0,0.0,0.0,0.15840400000000002,2
1704322762.8538303,219101,1704322762,799687726,ublox_gps,0,15,41.6467969,-27.316699834817918,234.132,0.08008899999999998,0.0,0.0,0.0,0.08008899999999998,0.0,0.0,0.0,0.15840400000000002,2
1704322763.0608776,219102,1704322762,999687711,ublox_gps,0,15,41.6467974,-27.316702534817914,234.124,0.08008899999999998,0.0,0.0,0.0,0.08008899999999998,0.0,0.0,0.0,0.15840400000000002,2
1704322763.2570105,219103,1704322763,199687695,ublox_gps,0,15,41.646797899999996,-27.316705434817916,234.138,0.08008899999999998,0.0,0.0,0.0,0.08008899999999998,0.0,0.0,0.0,0.15840400000000002,2
1704322763.455748,219104,1704322763,399687679,ublox_gps,0,15,41.6467984,-27.316708234817916,234.142,0.08008899999999998,0.0,0.0,0.0,0.08008899999999998,0.0,0.0,0.0,0.15840400000000002,2
1704322763.6524577,219105,1704322763,599687663,ublox_gps,0,15,41.6467988,-27.316711034817917,234.15,0.08008899999999998,0.0,0.0,0.0,0.08008899999999998,0.0,0.0,0.0,0.15760900000000003,2
1704322763.8553088,219106,1704322763,799687647,ublox_gps,0,15,41.646799099999996,-27.316713934817916,234.148,0.08008899999999998,0.0,0.0,0.0,0.08008899999999998,0.0,0.0,0.0,0.15760900000000003,2
1704322764.0621321,219107,1704322763,999687633,ublox_gps,0,15,41.6467993,-27.316716834817917,234.137,0.08008899999999998,0.0,0.0,0.0,0.08008899999999998,0.0,0.0,0.0,0.15760900000000003,2
1704322764.2568526,219108,1704322764,199687616,ublox_gps,0,15,41.6467995,-27.316719934817918,234.13400000000001,0.07952399999999998,0.0,0.0,0.0,0.07952399999999998,0.0,0.0,0.0,0.15760900000000003,2
1704322764.4569688,219109,1704322764,399687600,ublox_gps,0,15,41.6467998,-27.316722834817917,234.12800000000001,0.07952399999999998,0.0,0.0,0.0,0.07952399999999998,0.0,0.0,0.0,0.15760900000000003,2
1704322764.6550696,219110,1704322764,599687585,ublox_gps,0,15,41.6468002,-27.316725634817914,234.12,0.07952399999999998,0.0,0.0,0.0,0.07952399999999998,0.0,0.0,0.0,0.15760900000000003,2
1704322764.855163,219111,1704322764,799687569,ublox_gps,0,15,41.6468005,-27.316728334817917,234.101,0.07952399999999998,0.0,0.0,0.0,0.07952399999999998,0.0,0.0,0.0,0.156816,2
1704322765.0612488,219112,1704322764,999687554,ublox_gps,0,15,41.646800899999995,-27.316731134817914,234.09300000000002,0.07952399999999998,0.0,0.0,0.0,0.07952399999999998,0.0,0.0,0.0,0.156816,2
1704322765.2587678,219113,1704322765,199687537,ublox_gps,0,15,41.6468014,-27.31673393481792,234.079,0.07896100000000002,0.0,0.0,0.0,0.07896100000000002,0.0,0.0,0.0,0.156816,2
1704322765.4541557,219114,1704322765,399687522,ublox_gps,0,15,41.6468018,-27.316736634817914,234.078,0.07896100000000002,0.0,0.0,0.0,0.07896100000000002,0.0,0.0,0.0,0.15602500000000002,2
1704322765.6578786,219115,1704322765,599687506,ublox_gps,0,15,41.6468025,-27.316739234817916,234.071,0.07896100000000002,0.0,0.0,0.0,0.07896100000000002,0.0,0.0,0.0,0.15602500000000002,2
1704322765.8593721,219116,1704322765,799687490,ublox_gps,0,15,41.6468031,-27.316741934817916,234.077,0.07896100000000002,0.0,0.0,0.0,0.07896100000000002,0.0,0.0,0.0,0.15602500000000002,2
1704322766.067106,219117,1704322765,999687475,ublox_gps,0,15,41.6468037,-27.316744534817914,234.085,0.07896100000000002,0.0,0.0,0.0,0.07896100000000002,0.0,0.0,0.0,0.155236,2
1704322766.2561197,219118,1704322766,199687459,ublox_gps,0,15,41.6468043,-27.316747134817916,234.072,0.07896100000000002,0.0,0.0,0.0,0.07896100000000002,0.0,0.0,0.0,0.155236,2
1704322766.454997,219119,1704322766,399687443,ublox_gps,0,15,41.6468049,-27.316749834817916,234.06300000000002,0.07896100000000002,0.0,0.0,0.0,0.07896100000000002,0.0,0.0,0.0,0.154449,2
1704322766.6561244,219120,1704322766,599687427,ublox_gps,0,15,41.6468056,-27.316752534817915,234.043,0.07896100000000002,0.0,0.0,0.0,0.07896100000000002,0.0,0.0,0.0,0.154449,2
1704322766.85889,219121,1704322766,799687411,ublox_gps,0,15,41.6468061,-27.316755334817916,234.044,0.07896100000000002,0.0,0.0,0.0,0.07896100000000002,0.0,0.0,0.0,0.154449,2
1704322767.0609918,219122,1704322766,999687397,ublox_gps,0,15,41.6468065,-27.316758134817917,234.04,0.07896100000000002,0.0,0.0,0.0,0.07896100000000002,0.0,0.0,0.0,0.154449,2
1704322767.2540658,219123,1704322767,199687380,ublox_gps,0,15,41.6468068,-27.316760934817914,234.026,0.07840000000000001,0.0,0.0,0.0,0.07840000000000001,0.0,0.0,0.0,0.15366400000000002,2
1704322767.4568615,219124,1704322767,399687364,ublox_gps,0,15,41.6468071,-27.31676373481792,234.00300000000001,0.07840000000000001,0.0,0.0,0.0,0.07840000000000001,0.0,0.0,0.0,0.15366400000000002,2
1704322767.658253,219125,1704322767,599687349,ublox_gps,0,15,41.6468074,-27.316766534817916,234.005,0.07840000000000001,0.0,0.0,0.0,0.07840000000000001,0.0,0.0,0.0,0.15288100000000002,2
1704322767.8552828,219126,1704322767,799687333,ublox_gps,0,15,41.6468077,-27.316769334817916,234.001,0.07840000000000001,0.0,0.0,0.0,0.07840000000000001,0.0,0.0,0.0,0.15288100000000002,2
1704322768.0639622,219127,1704322767,999687318,ublox_gps,0,15,41.6468079,-27.31677223481792,233.972,0.07840000000000001,0.0,0.0,0.0,0.07840000000000001,0.0,0.0,0.0,0.15288100000000002,2
1704322768.2560225,219128,1704322768,199687302,ublox_gps,0,15,41.646808199999995,-27.316775034817915,233.958,0.07840000000000001,0.0,0.0,0.0,0.07840000000000001,0.0,0.0,0.0,0.15288100000000002,2
1704322768.4600143,219129,1704322768,399687286,ublox_gps,0,15,41.6468087,-27.316777834817916,233.94400000000002,0.07840000000000001,0.0,0.0,0.0,0.07840000000000001,0.0,0.0,0.0,0.1521,2
1704322768.6575646,219130,1704322768,599687270,ublox_gps,0,15,41.646809,-27.316780634817917,233.937,0.07840000000000001,0.0,0.0,0.0,0.07840000000000001,0.0,0.0,0.0,0.1521,2
1704322768.8554487,219131,1704322768,799687254,ublox_gps,0,15,41.646809399999995,-27.316783434817914,233.928,0.07784100000000002,0.0,0.0,0.0,0.07784100000000002,0.0,0.0,0.0,0.1521,2
1704322769.0601275,219132,1704322768,999687240,ublox_gps,0,15,41.6468099,-27.316786134817917,233.91400000000002,0.07784100000000002,0.0,0.0,0.0,0.07784100000000002,0.0,0.0,0.0,0.1521,2
1704322769.2577631,219133,1704322769,199687223,ublox_gps,0,15,41.6468103,-27.316788834817917,233.893,0.07784100000000002,0.0,0.0,0.0,0.07784100000000002,0.0,0.0,0.0,0.1521,2
1704322769.4562225,219134,1704322769,399687207,ublox_gps,0,15,41.6468109,-27.316791534817916,233.88,0.07784100000000002,0.0,0.0,0.0,0.07784100000000002,0.0,0.0,0.0,0.151321,2
1704322769.6569774,219135,1704322769,599687192,ublox_gps,0,15,41.6468115,-27.31679413481792,233.875,0.07784100000000002,0.0,0.0,0.0,0.07784100000000002,0.0,0.0,0.0,0.151321,2
1704322769.8560524,219136,1704322769,799687176,ublox_gps,0,15,41.6468122,-27.316796834817914,233.865,0.07784100000000002,0.0,0.0,0.0,0.07784100000000002,0.0,0.0,0.0,0.151321,2
1704322770.0645263,219137,1704322769,999687161,ublox_gps,0,15,41.6468128,-27.316799434817916,233.856,0.07784100000000002,0.0,0.0,0.0,0.07784100000000002,0.0,0.0,0.0,0.151321,2
1704322770.257101,219138,1704322770,199687144,ublox_gps,0,15,41.6468133,-27.316802234817917,233.859,0.07784100000000002,0.0,0.0,0.0,0.07784100000000002,0.0,0.0,0.0,0.151321,2
1704322770.4571722,219139,1704322770,399687129,ublox_gps,0,15,41.6468138,-27.316804834817916,233.852,0.07728400000000002,0.0,0.0,0.0,0.07728400000000002,0.0,0.0,0.0,0.151321,2
1704322770.654979,219140,1704322770,599687113,ublox_gps,0,15,41.6468144,-27.31680753481792,233.854,0.07728400000000002,0.0,0.0,0.0,0.07728400000000002,0.0,0.0,0.0,0.150544,2
1704322770.8517933,219141,1704322770,799687097,ublox_gps,0,15,41.646814899999995,-27.316810234817915,233.842,0.07728400000000002,0.0,0.0,0.0,0.07728400000000002,0.0,0.0,0.0,0.150544,2
1704322771.0641258,219142,1704322770,999687082,ublox_gps,0,15,41.6468153,-27.31681303481792,233.835,0.07728400000000002,0.0,0.0,0.0,0.07728400000000002,0.0,0.0,0.0,0.150544,2
1704322771.2556481,219143,1704322771,199687066,ublox_gps,0,15,41.6468157,-27.316815834817916,233.824,0.07728400000000002,0.0,0.0,0.0,0.07728400000000002,0.0,0.0,0.0,0.149769,2
1704322771.4569807,219144,1704322771,399687050,ublox_gps,0,15,41.6468159,-27.316818734817915,233.83,0.07672900000000002,0.0,0.0,0.0,0.07672900000000002,0.0,0.0,0.0,0.149769,2
1704322771.6578255,219145,1704322771,599687034,ublox_gps,0,15,41.646816099999995,-27.316821634817916,233.827,0.07672900000000002,0.0,0.0,0.0,0.07672900000000002,0.0,0.0,0.0,0.14899600000000002,2
1704322771.8553138,219146,1704322771,799687018,ublox_gps,0,15,41.6468164,-27.31682453481792,233.818,0.07672900000000002,0.0,0.0,0.0,0.07672900000000002,0.0,0.0,0.0,0.14899600000000002,2
1704322772.064933,219147,1704322771,999687004,ublox_gps,0,15,41.646816699999995,-27.316827334817916,233.805,0.07672900000000002,0.0,0.0,0.0,0.07672900000000002,0.0,0.0,0.0,0.14899600000000002,2
1704322772.2574747,219148,1704322772,199686987,ublox_gps,0,15,41.6468171,-27.316830234817914,233.809,0.07672900000000002,0.0,0.0,0.0,0.07672900000000002,0.0,0.0,0.0,0.148225,2
1704322772.4552858,219149,1704322772,399686971,ublox_gps,0,15,41.6468175,-27.31683303481792,233.797,0.07617600000000001,0.0,0.0,0.0,0.07617600000000001,0.0,0.0,0.0,0.148225,2
1704322772.65286,219150,1704322772,599686955,ublox_gps,0,15,41.646817899999995,-27.316835834817915,233.798,0.07617600000000001,0.0,0.0,0.0,0.07617600000000001,0.0,0.0,0.0,0.147456,2
1704322772.8559566,219151,1704322772,799686940,ublox_gps,0,15,41.646818499999995,-27.31683853481792,233.8,0.07617600000000001,0.0,0.0,0.0,0.07617600000000001,0.0,0.0,0.0,0.147456,2
1704322773.0603976,219152,1704322772,999686925,ublox_gps,0,15,41.646819,-27.316841134817917,233.797,0.07617600000000001,0.0,0.0,0.0,0.07617600000000001,0.0,0.0,0.0,0.147456,2
1704322773.2582405,219153,1704322773,199686908,ublox_gps,0,15,41.6468196,-27.316843734817915,233.802,0.07617600000000001,0.0,0.0,0.0,0.07617600000000001,0.0,0.0,0.0,0.146689,2
1704322773.459165,219154,1704322773,399686892,ublox_gps,0,15,41.6468202,-27.316846334817917,233.79500000000002,0.07562500000000001,0.0,0.0,0.0,0.07562500000000001,0.0,0.0,0.0,0.146689,2
1704322773.6542175,219155,1704322773,599686877,ublox_gps,0,15,41.6468209,-27.316848834817918,233.773,0.07562500000000001,0.0,0.0,0.0,0.07562500000000001,0.0,0.0,0.0,0.146689,2
1704322773.854828,219156,1704322773,799686861,ublox_gps,0,15,41.6468215,-27.316851534817914,233.77700000000002,0.07562500000000001,0.0,0.0,0.0,0.07562500000000001,0.0,0.0,0.0,0.145924,2
1704322774.063752,219157,1704322773,999686846,ublox_gps,0,15,41.646822199999995,-27.316854234817917,233.776,0.07562500000000001,0.0,0.0,0.0,0.07562500000000001,0.0,0.0,0.0,0.145924,2
1704322774.257002,219158,1704322774,199686829,ublox_gps,0,15,41.6468227,-27.316857034817914,233.772,0.07562500000000001,0.0,0.0,0.0,0.07562500000000001,0.0,0.0,0.0,0.145924,2
1704322774.4540808,219159,1704322774,399686814,ublox_gps,0,15,41.6468233,-27.316859734817918,233.764,0.07562500000000001,0.0,0.0,0.0,0.07562500000000001,0.0,0.0,0.0,0.145924,2
1704322774.659035,219160,1704322774,599686798,ublox_gps,0,15,41.6468238,-27.316862534817915,233.75900000000001,0.07562500000000001,0.0,0.0,0.0,0.07562500000000001,0.0,0.0,0.0,0.145924,2
1704322774.8540802,219161,1704322774,799686782,ublox_gps,0,15,41.6468243,-27.316865234817918,233.743,0.07562500000000001,0.0,0.0,0.0,0.07562500000000001,0.0,0.0,0.0,0.145924,2
1704322775.0622141,219162,1704322774,999686767,ublox_gps,0,15,41.646824599999995,-27.316868034817915,233.732,0.07562500000000001,0.0,0.0,0.0,0.07562500000000001,0.0,0.0,0.0,0.145161,2
1704322775.2592335,219163,1704322775,199686751,ublox_gps,0,15,41.6468249,-27.316870934817917,233.726,0.07562500000000001,0.0,0.0,0.0,0.07562500000000001,0.0,0.0,0.0,0.145161,2
1704322775.4547052,219164,1704322775,399686735,ublox_gps,0,15,41.646825199999995,-27.316873734817918,233.716,0.07562500000000001,0.0,0.0,0.0,0.07562500000000001,0.0,0.0,0.0,0.145161,2
1704322775.6560144,219165,1704322775,599686719,ublox_gps,0,15,41.6468255,-27.316876534817915,233.709,0.07562500000000001,0.0,0.0,0.0,0.07562500000000001,0.0,0.0,0.0,0.1444,2
1704322775.8551402,219166,1704322775,799686703,ublox_gps,0,15,41.646825799999995,-27.316879334817916,233.705,0.07562500000000001,0.0,0.0,0.0,0.07562500000000001,0.0,0.0,0.0,0.1444,2
1704322776.0598028,219167,1704322775,999686689,ublox_gps,0,15,41.6468262,-27.316882134817916,233.715,0.07507600000000002,0.0,0.0,0.0,0.07507600000000002,0.0,0.0,0.0,0.1444,2
1704322776.2539759,219168,1704322776,199686672,ublox_gps,0,15,41.6468266,-27.316884934817914,233.725,0.07507600000000002,0.0,0.0,0.0,0.07507600000000002,0.0,0.0,0.0,0.143641,2
1704322776.4570053,219169,1704322776,399686656,ublox_gps,0,15,41.646827099999996,-27.316887734817918,233.714,0.07507600000000002,0.0,0.0,0.0,0.07507600000000002,0.0,0.0,0.0,0.143641,2
1704322776.654301,219170,1704322776,599686640,ublox_gps,0,15,41.646827699999996,-27.316890434817914,233.726,0.07507600000000002,0.0,0.0,0.0,0.07507600000000002,0.0,0.0,0.0,0.143641,2
1704322776.8549256,219171,1704322776,799686625,ublox_gps,0,15,41.646828299999996,-27.316893034817916,233.715,0.07507600000000002,0.0,0.0,0.0,0.07507600000000002,0.0,0.0,0.0,0.143641,2
1704322777.0601194,219172,1704322776,999686610,ublox_gps,0,15,41.646828899999996,-27.316895734817916,233.72,0.07507600000000002,0.0,0.0,0.0,0.07507600000000002,0.0,0.0,0.0,0.143641,2
1704322777.2546546,219173,1704322777,199686593,ublox_gps,0,15,41.6468296,-27.316898334817914,233.716,0.07507600000000002,0.0,0.0,0.0,0.07507600000000002,0.0,0.0,0.0,0.143641,2
1704322777.4550507,219174,1704322777,399686577,ublox_gps,0,15,41.6468303,-27.316900834817915,233.72400000000002,0.07507600000000002,0.0,0.0,0.0,0.07507600000000002,0.0,0.0,0.0,0.143641,2
1704322777.6571603,219175,1704322777,599686562,ublox_gps,0,15,41.646831,-27.316903434817917,233.722,0.07507600000000002,0.0,0.0,0.0,0.07507600000000002,0.0,0.0,0.0,0.143641,2
1704322777.8537192,219176,1704322777,799686546,ublox_gps,0,15,41.6468316,-27.31690603481792,233.738,0.07507600000000002,0.0,0.0,0.0,0.07507600000000002,0.0,0.0,0.0,0.142884,2
1704322778.0637977,219177,1704322777,999686531,ublox_gps,0,15,41.6468321,-27.316908734817915,233.743,0.07507600000000002,0.0,0.0,0.0,0.07507600000000002,0.0,0.0,0.0,0.142884,2
1704322778.2562165,219178,1704322778,199686514,ublox_gps,0,15,41.646832499999995,-27.316911434817918,233.75,0.07507600000000002,0.0,0.0,0.0,0.07507600000000002,0.0,0.0,0.0,0.142884,2
1704322778.4548533,219179,1704322778,399686499,ublox_gps,0,15,41.646833,-27.316914134817914,233.744,0.07507600000000002,0.0,0.0,0.0,0.07507600000000002,0.0,0.0,0.0,0.142884,2
1704322778.6562304,219180,1704322778,599686483,ublox_gps,0,15,41.6468334,-27.316916934817918,233.757,0.07507600000000002,0.0,0.0,0.0,0.07507600000000002,0.0,0.0,0.0,0.142884,2
1704322778.8586857,219181,1704322778,799686467,ublox_gps,0,15,41.646833699999995,-27.316919834817917,233.77,0.07507600000000002,0.0,0.0,0.0,0.07507600000000002,0.0,0.0,0.0,0.142129,2
1704322779.060827,219182,1704322778,999686452,ublox_gps,0,15,41.646834,-27.316922634817914,233.76500000000001,0.07507600000000002,0.0,0.0,0.0,0.07507600000000002,0.0,0.0,0.0,0.142129,2
1704322779.256193,219183,1704322779,199686435,ublox_gps,0,15,41.646834299999995,-27.316925334817917,233.754,0.07507600000000002,0.0,0.0,0.0,0.07507600000000002,0.0,0.0,0.0,0.142129,2
1704322779.4571762,219184,1704322779,399686420,ublox_gps,0,15,41.6468347,-27.316928134817914,233.75300000000001,0.07507600000000002,0.0,0.0,0.0,0.07507600000000002,0.0,0.0,0.0,0.142129,2
1704322779.6550784,219185,1704322779,599686404,ublox_gps,0,15,41.6468351,-27.316930834817917,233.758,0.07452900000000001,0.0,0.0,0.0,0.07452900000000001,0.0,0.0,0.0,0.141376,2
1704322779.851366,219186,1704322779,799686388,ublox_gps,0,15,41.646835499999995,-27.316933634817914,233.776,0.07452900000000001,0.0,0.0,0.0,0.07452900000000001,0.0,0.0,0.0,0.141376,2
1704322780.0618823,219187,1704322779,999686373,ublox_gps,0,15,41.646836,-27.316936334817917,233.78,0.07452900000000001,0.0,0.0,0.0,0.07452900000000001,0.0,0.0,0.0,0.141376,2
1704322780.2572377,219188,1704322780,199686357,ublox_gps,0,15,41.6468366,-27.316939034817917,233.78,0.07452900000000001,0.0,0.0,0.0,0.07452900000000001,0.0,0.0,0.0,0.141376,2
1704322780.4563046,219189,1704322780,399686341,ublox_gps,0,15,41.6468372,-27.316941634817915,233.781,0.07398400000000001,0.0,0.0,0.0,0.07398400000000001,0.0,0.0,0.0,0.140625,2
1704322780.6567516,219190,1704322780,599686325,ublox_gps,0,15,41.6468378,-27.31694433481792,233.779,0.07398400000000001,0.0,0.0,0.0,0.07398400000000001,0.0,0.0,0.0,0.140625,2
1704322780.8548806,219191,1704322780,799686309,ublox_gps,0,15,41.6468385,-27.316947034817915,233.79500000000002,0.07398400000000001,0.0,0.0,0.0,0.07398400000000001,0.0,0.0,0.0,0.140625,2
1704322781.0611286,219192,1704322780,999686294,ublox_gps,0,15,41.6468391,-27.316949534817915,233.80100000000002,0.07398400000000001,0.0,0.0,0.0,0.07398400000000001,0.0,0.0,0.0,0.140625,2
1704322781.2561424,219193,1704322781,199686278,ublox_gps,0,15,41.6468396,-27.31695223481792,233.812,0.073441,0.0,0.0,0.0,0.073441,0.0,0.0,0.0,0.140625,2
1704322781.4551618,219194,1704322781,399686262,ublox_gps,0,15,41.6468402,-27.316954934817915,233.817,0.073441,0.0,0.0,0.0,0.073441,0.0,0.0,0.0,0.139876,2
1704322781.6517475,219195,1704322781,599686246,ublox_gps,0,15,41.6468408,-27.316957434817915,233.79500000000002,0.073441,0.0,0.0,0.0,0.073441,0.0,0.0,0.0,0.139876,2
1704322781.8541195,219196,1704322781,799686230,ublox_gps,0,15,41.6468413,-27.31696013481792,233.792,0.073441,0.0,0.0,0.0,0.073441,0.0,0.0,0.0,0.139876,2
1704322782.0601254,219197,1704322781,999686216,ublox_gps,0,15,41.6468418,-27.316962834817915,233.776,0.073441,0.0,0.0,0.0,0.073441,0.0,0.0,0.0,0.139876,2
1704322782.2558072,219198,1704322782,199686199,ublox_gps,0,15,41.646842299999996,-27.31696563481792,233.773,0.0729,0.0,0.0,0.0,0.0729,0.0,0.0,0.0,0.139876,2
1704322782.4558737,219199,1704322782,399686183,ublox_gps,0,15,41.6468427,-27.316968434817916,233.775,0.0729,0.0,0.0,0.0,0.0729,0.0,0.0,0.0,0.139129,2
1704322782.6541436,219200,1704322782,599686167,ublox_gps,0,15,41.6468431,-27.316971334817914,233.793,0.07236100000000001,0.0,0.0,0.0,0.07236100000000001,0.0,0.0,0.0,0.139129,2
1704322782.8549051,219201,1704322782,799686152,ublox_gps,0,15,41.6468434,-27.316974034817918,233.779,0.07236100000000001,0.0,0.0,0.0,0.07236100000000001,0.0,0.0,0.0,0.139129,2
1704322783.0622585,219202,1704322782,999686137,ublox_gps,0,15,41.6468436,-27.316976934817916,233.796,0.07236100000000001,0.0,0.0,0.0,0.07236100000000001,0.0,0.0,0.0,0.139129,2
1704322783.2550635,219203,1704322783,199686120,ublox_gps,0,15,41.6468439,-27.316979834817914,233.798,0.07236100000000001,0.0,0.0,0.0,0.07236100000000001,0.0,0.0,0.0,0.139129,2
1704322783.452131,219204,1704322783,399686104,ublox_gps,0,15,41.6468442,-27.316982534817917,233.786,0.07182400000000001,0.0,0.0,0.0,0.07182400000000001,0.0,0.0,0.0,0.138384,2
1704322783.6559985,219205,1704322783,599686089,ublox_gps,0,15,41.6468445,-27.316985434817916,233.794,0.07182400000000001,0.0,0.0,0.0,0.07182400000000001,0.0,0.0,0.0,0.138384,2
1704322783.853677,219206,1704322783,799686073,ublox_gps,0,15,41.646845,-27.31698813481792,233.78,0.07182400000000001,0.0,0.0,0.0,0.07182400000000001,0.0,0.0,0.0,0.138384,2
1704322784.060378,219207,1704322783,999686058,ublox_gps,0,15,41.6468454,-27.316990734817914,233.763,0.07182400000000001,0.0,0.0,0.0,0.07182400000000001,0.0,0.0,0.0,0.138384,2
1704322784.2560437,219208,1704322784,199686041,ublox_gps,0,15,41.6468458,-27.316993334817916,233.74800000000002,0.07182400000000001,0.0,0.0,0.0,0.07182400000000001,0.0,0.0,0.0,0.138384,2
1704322784.4578564,219209,1704322784,399686026,ublox_gps,0,15,41.6468462,-27.316995934817918,233.75900000000001,0.07182400000000001,0.0,0.0,0.0,0.07182400000000001,0.0,0.0,0.0,0.138384,2
1704322784.655779,219210,1704322784,599686010,ublox_gps,0,15,41.6468468,-27.316998634817917,233.743,0.07182400000000001,0.0,0.0,0.0,0.07182400000000001,0.0,0.0,0.0,0.138384,2
1704322784.8549964,219211,1704322784,799685994,ublox_gps,0,15,41.6468474,-27.317001334817917,233.75,0.071289,0.0,0.0,0.0,0.071289,0.0,0.0,0.0,0.139129,2
1704322785.059588,219212,1704322784,999685979,ublox_gps,0,15,41.646848,-27.31700393481792,233.721,0.071289,0.0,0.0,0.0,0.071289,0.0,0.0,0.0,0.139129,2
1704322785.2518282,219213,1704322785,199685963,ublox_gps,0,15,41.6468485,-27.317006534817917,233.71200000000002,0.071289,0.0,0.0,0.0,0.071289,0.0,0.0,0.0,0.139129,2
1704322785.4559124,219214,1704322785,399685947,ublox_gps,0,15,41.646848999999996,-27.317009234817917,233.71800000000002,0.071289,0.0,0.0,0.0,0.071289,0.0,0.0,0.0,0.139129,2
1704322785.6545744,219215,1704322785,599685931,ublox_gps,0,15,41.6468494,-27.317012034817914,233.722,0.071289,0.0,0.0,0.0,0.071289,0.0,0.0,0.0,0.139129,2
1704322785.8547933,219216,1704322785,799685915,ublox_gps,0,15,41.6468497,-27.31701483481792,233.717,0.071289,0.0,0.0,0.0,0.071289,0.0,0.0,0.0,0.139129,2
1704322786.0653234,219217,1704322785,999685901,ublox_gps,0,15,41.6468499,-27.317017634817915,233.707,0.071289,0.0,0.0,0.0,0.071289,0.0,0.0,0.0,0.138384,2
1704322786.254223,219218,1704322786,199685884,ublox_gps,0,15,41.64685,-27.317020634817915,233.719,0.071289,0.0,0.0,0.0,0.071289,0.0,0.0,0.0,0.139129,2
