Time,header.seq,header.stamp.secs,header.stamp.nsecs,header.frame_id,orientation.x,orientation.y,orientation.z,orientation.w,orientation_covariance_0,orientation_covariance_1,orientation_covariance_2,orientation_covariance_3,orientation_covariance_4,orientation_covariance_5,orientation_covariance_6,orientation_covariance_7,orientation_covariance_8,angular_velocity.x,angular_velocity.y,angular_velocity.z,angular_velocity_covariance_0,angular_velocity_covariance_1,angular_velocity_covariance_2,angular_velocity_covariance_3,angular_velocity_covariance_4,angular_velocity_covariance_5,angular_velocity_covariance_6,angular_velocity_covariance_7,angular_velocity_covariance_8,linear_acceleration.x,linear_acceleration.y,linear_acceleration.z,linear_acceleration_covariance_0,linear_acceleration_covariance_1,linear_acceleration_covariance_2,linear_acceleration_covariance_3,linear_acceleration_covariance_4,linear_acceleration_covariance_5,linear_acceleration_covariance_6,linear_acceleration_covariance_7,linear_acceleration_covariance_8
1704351528.6924734,1444318,1704351528,692224947,base_link,0.05206130948988531,-0.006950652233267677,-0.9327127836808892,-0.35677467909869565,0.25,0.0,0.0,0.0,0.25,0.0,0.0,0.0,0.25,-0.012310440971185764,-0.0009894268048424842,0.15718745741412424,0.00010000000000000002,0.0,0.0,0.0,0.00010000000000000002,0.0,0.0,0.0,0.0001,-1.261289752004883,0.09466929317512991,9.86989349192716,0.0036000000000000003,5.293955920339377e-23,0.0,-5.293955920339377e-23,0.0036000000000000003,0.0,0.0,0.0,0.0036
1704351528.7411196,1444319,1704351528,740560748,base_link,0.056025143023417975,-0.006888875465475485,-0.9330201168013447,-0.3553690875526907,0.25,0.0,0.0,0.0,0.25,0.0,0.0,0.0,0.25,-0.012837343231531335,0.030501350465685858,0.1821753652901197,0.00010000000000000002,0.0,0.0,0.0,0.00010000000000000002,0.0,0.0,0.0,0.0001,-1.295760878255742,-0.003867590804501974,9.9069653876142,0.0036000000000000003,5.293955920339377e-23,0.0,-5.293955920339377e-23,0.0036000000000000003,0.0,0.0,0.0,0.0036
1704351528.8045764,1444320,1704351528,804236348,base_link,0.060678668968183185,-0.006662132229445436,-0.9337103122649623,-0.3527871424761306,0.25,0.0,0.0,0.0,0.25,0.0,0.0,0.0,0.25,-0.005891263238108552,0.017944258886678867,0.20946409454513235,0.00010000000000000002,0.0,0.0,0.0,0.00010000000000000002,0.0,0.0,0.0,0.0001,-1.2148996408516821,-0.04904192690367686,9.95475771294626,0.0036000000000000003,5.293955920339377e-23,0.0,-5.293955920339377e-23,0.0036000000000000003,0.0,0.0,0.0,0.0036
1704351528.8525326,1444321,1704351528,852242724,base_link,0.06370737972254666,-0.00638894355877171,-0.9346743875918806,-0.3496917790695586,0.25,0.0,0.0,0.0,0.25,0.0,0.0,0.0,0.25,-0.002334107189024821,-0.012402878605232117,0.25424097044085464,0.00010000000000000002,0.0,0.0,0.0,0.00010000000000000002,0.0,0.0,0.0,0.0001,-1.3554493086081714,-0.10307962893802813,9.72911449562712,0.0036000000000000003,5.293955920339377e-23,0.0,-5.293955920339377e-23,0.0036000000000000003,0.0,0.0,0.0,0.0036
1704351528.9165745,1444322,1704351528,916231910,base_link,0.06553341113095626,-0.004793514598449293,-0.9360687273847056,-0.34562657863033813,0.25,0.0,0.0,0.0,0.25,0.0,0.0,0.0,0.25,-0.021183282112205763,-0.06647305962113659,0.2655807436519257,0.00010000000000000002,0.0,0.0,0.0,0.00010000000000000002,0.0,0.0,0.0,0.0001,-1.0715599079551241,0.03682108347250388,9.789615430857241,0.0036000000000000003,5.293955920339377e-23,0.0,-5.293955920339377e-23,0.0036000000000000003,0.0,0.0,0.0,0.0036
1704351528.9645367,1444323,1704351528,964240032,base_link,0.0649069145491099,-0.003649815961842483,-0.9367462468147714,-0.34391894447034915,0.25,0.0,0.0,0.0,0.25,0.0,0.0,0.0,0.25,-0.01252153093855615,-0.07969259620475565,0.2288872773891368,0.00010000000000000002,0.0,0.0,0.0,0.00010000000000000002,0.0,0.0,0.0,0.0001,-0.6075690143843292,0.20157242805388473,10.100754182476503,0.0036000000000000003,5.293955920339377e-23,0.0,-5.293955920339377e-23,0.0036000000000000003,0.0,0.0,0.0,0.0036
1704351529.0285084,1444324,1704351529,28234197,base_link,0.06765422640863815,-0.003016371352377724,-0.937505009064071,-0.34131827541561466,0.25,0.0,0.0,0.0,0.25,0.0,0.0,0.0,0.25,-0.003122025171684981,0.0349033810962803,0.23807693084937553,0.00010000000000000002,0.0,0.0,0.0,0.00010000000000000002,0.0,0.0,0.0,0.0001,-0.6129569788494058,0.004928459105475571,9.884344445389395,0.0036000000000000003,5.293955920339377e-23,0.0,-5.293955920339377e-23,0.0036000000000000003,0.0,0.0,0.0,0.0036
1704351529.0765078,1444325,1704351529,76207138,base_link,0.06994453305811797,-0.0015180880637726598,-0.9390212508389959,-0.3366668207244073,0.25,0.0,0.0,0.0,0.25,0.0,0.0,0.0,0.25,0.00039959008346091755,0.06554898360722711,0.34131555228403093,0.00010000000000000002,0.0,0.0,0.0,0.00010000000000000002,0.0,0.0,0.0,0.0001,-0.4723566758088352,-0.38410507207757594,9.70729166963953,0.0036000000000000003,5.293955920339377e-23,0.0,-5.293955920339377e-23,0.0036000000000000003,0.0,0.0,0.0,0.0036
1704351529.1244648,1444326,1704351529,124212313,base_link,0.0684616798945907,0.000792939693465228,-0.9411597618807316,-0.33095418451691694,0.25,0.0,0.0,0.0,0.25,0.0,0.0,0.0,0.25,0.00034984373716591096,-0.039670884445711076,0.38595216281409017,0.00010000000000000002,0.0,0.0,0.0,0.00010000000000000002,0.0,0.0,0.0,0.0001,-0.12614266751909856,-0.34909918547142943,10.057859722900517,0.0036000000000000003,5.293955920339377e-23,0.0,-5.293955920339377e-23,0.0036000000000000003,0.0,0.0,0.0,0.0036
1704351529.1885617,1444327,1704351529,188246953,base_link,0.06544572146553689,0.0032142317272069406,-0.943282607642832,-0.32546036375386556,0.25,0.0,0.0,0.0,0.25,0.0,0.0,0.0,0.25,0.015573446941761214,-0.07223626964410293,0.3258516743878905,0.00010000000000000002,0.0,0.0,0.0,0.00010000000000000002,0.0,0.0,0.0,0.0001,-0.13665732250168017,-0.19299392725978567,10.014925559326972,0.0036000000000000003,5.293955920339377e-23,0.0,-5.293955920339377e-23,0.0036000000000000003,0.0,0.0,0.0,0.0036
1704351529.2364964,1444328,1704351529,236201219,base_link,0.06660713129561747,0.0036106444142643365,-0.9443541820715697,-0.3220956878187266,0.25,0.0,0.0,0.0,0.25,0.0,0.0,0.0,0.25,0.03220425509646347,0.01498137485883783,0.2983582645583484,0.00010000000000000002,0.0,0.0,0.0,0.00010000000000000002,0.0,0.0,0.0,0.0001,-0.4063660565539843,-0.19650358713834537,9.81692788126754,0.0036000000000000003,5.293955920339377e-23,0.0,-5.293955920339377e-23,0.0036000000000000003,0.0,0.0,0.0,0.0036
1704351529.3004997,1444329,1704351529,300189008,base_link,0.07008320679655262,0.004030124318622242,-0.9455655272272252,-0.31777025654171537,0.25,0.0,0.0,0.0,0.25,0.0,0.0,0.0,0.25,0.007978936406645515,0.07526764680227126,0.29223961866437775,0.00010000000000000002,0.0,0.0,0.0,0.00010000000000000002,0.0,0.0,0.0,0.0001,-0.34084180114953566,-0.11486081077887647,9.639332980903262,0.0036000000000000003,5.293955920339377e-23,0.0,-5.293955920339377e-23,0.0036000000000000003,0.0,0.0,0.0,0.0036
1704351529.3484533,1444330,1704351529,348201304,base_link,0.06978398487160817,0.004385853444880892,-0.9469097077364395,-0.3138040234596909,0.25,0.0,0.0,0.0,0.25,0.0,0.0,0.0,0.25,0.001242600683035244,0.015035983145756196,0.32932410355421754,0.00010000000000000002,0.0,0.0,0.0,0.00010000000000000002,0.0,0.0,0.0,0.0001,-0.18798306230449338,0.029264914942085135,10.15933390583108,0.0036000000000000003,5.293955920339377e-23,0.0,-5.293955920339377e-23,0.0036000000000000003,0.0,0.0,0.0,0.0036
1704351529.3964746,1444331,1704351529,396222199,base_link,0.06958802617873955,0.00577181671493997,-0.9484633804741254,-0.30909773315886785,0.25,0.0,0.0,0.0,0.25,0.0,0.0,0.0,0.25,-0.01759473404294962,-0.0374382465049393,0.36113313264071933,0.00010000000000000002,0.0,0.0,0.0,0.00010000000000000002,0.0,0.0,0.0,0.0001,-0.39660990389687506,-0.10522551190690302,9.957843802070776,0.0036000000000000003,5.293955920339377e-23,0.0,-5.293955920339377e-23,0.0036000000000000003,0.0,0.0,0.0,0.0036
1704351529.460431,1444332,1704351529,460175506,base_link,0.07185951944066928,0.007075613122947992,-0.9501988735028467,-0.30316372797320507,0.25,0.0,0.0,0.0,0.25,0.0,0.0,0.0,0.25,-0.02738743206837783,-0.01126893942370472,0.34517483888820566,0.00010000000000000002,0.0,0.0,0.0,0.00010000000000000002,0.0,0.0,0.0,0.0001,-0.6695519435299078,-0.12783959732041955,9.840610433892582,0.0036000000000000003,5.293955920339377e-23,0.0,-5.293955920339377e-23,0.0036000000000000003,0.0,0.0,0.0,0.0036
1704351529.5084558,1444333,1704351529,508208027,base_link,0.07286948831693583,0.006527331350979556,-0.9511288084179687,-0.3000023690161091,0.25,0.0,0.0,0.0,0.25,0.0,0.0,0.0,0.25,-0.000638591935163259,0.02577378052103707,0.30646778981472145,0.00010000000000000002,0.0,0.0,0.0,0.00010000000000000002,0.0,0.0,0.0,0.0001,-0.6103832321475267,-0.08354591822668703,9.82239746531545,0.0036000000000000003,5.293955920339377e-23,0.0,-5.293955920339377e-23,0.0036000000000000003,0.0,0.0,0.0,0.0036
1704351529.57243,1444334,1704351529,572206741,base_link,0.07130602265715154,0.005816396072549563,-0.9527164733355558,-0.29531837413985323,0.25,0.0,0.0,0.0,0.25,0.0,0.0,0.0,0.25,0.00329021379074354,0.015084206453186432,0.3129591118137351,0.00010000000000000002,0.0,0.0,0.0,0.00010000000000000002,0.0,0.0,0.0,0.0001,-0.44618850918955255,-0.07114515649260743,9.986732253069711,0.0036000000000000003,5.293955920339377e-23,0.0,-5.293955920339377e-23,0.0036000000000000003,0.0,0.0,0.0,0.0036
1704351529.6204698,1444335,1704351529,620216959,base_link,0.07101773694386686,0.006940122647422443,-0.9539154216278563,-0.2914681528358794,0.25,0.0,0.0,0.0,0.25,0.0,0.0,0.0,0.25,-0.01908801844365909,0.009356904772382888,0.3283562442350555,0.00010000000000000002,0.0,0.0,0.0,0.00010000000000000002,0.0,0.0,0.0,0.0001,-0.436988348085143,-0.20453176686848676,9.906235348416956,0.0036000000000000003,5.293955920339377e-23,0.0,-5.293955920339377e-23,0.0036000000000000003,0.0,0.0,0.0,0.0036
1704351529.6844273,1444336,1704351529,684207825,base_link,0.07116865182785674,0.006049186868853594,-0.9553737296306263,-0.2866347276009977,0.25,0.0,0.0,0.0,0.25,0.0,0.0,0.0,0.25,0.012137976841880258,0.01606142640042467,0.329105191712613,0.00010000000000000002,0.0,0.0,0.0,0.00010000000000000002,0.0,0.0,0.0,0.0001,-0.5484821741153146,-0.10001268243108047,9.966349619268076,0.0036000000000000003,5.293955920339377e-23,0.0,-5.293955920339377e-23,0.0036000000000000003,0.0,0.0,0.0,0.0036
1704351529.7327695,1444337,1704351529,732194262,base_link,0.07273732736935146,0.00655498306032353,-0.956150241106277,-0.28362480469213364,0.25,0.0,0.0,0.0,0.25,0.0,0.0,0.0,0.25,0.004505885132726277,0.04543200743613772,0.29745844900503793,0.00010000000000000002,0.0,0.0,0.0,0.00010000000000000002,0.0,0.0,0.0,0.0001,-0.618745515438481,-0.2804899543340775,9.699196257112437,0.0036000000000000003,5.293955920339377e-23,0.0,-5.293955920339377e-23,0.0036000000000000003,0.0,0.0,0.0,0.0036
1704351529.7804427,1444338,1704351529,780185818,base_link,0.07151629723404866,0.006087170073147901,-0.9572454892187201,-0.2802310456763218,0.25,0.0,0.0,0.0,0.25,0.0,0.0,0.0,0.25,0.006164351977490863,0.021479378625963344,0.3070736589627145,0.00010000000000000002,0.0,0.0,0.0,0.00010000000000000002,0.0,0.0,0.0,0.0001,-0.44934617183418274,-0.10355461813792287,10.134094210900981,0.0036000000000000003,5.293955920339377e-23,0.0,-5.293955920339377e-23,0.0036000000000000003,0.0,0.0,0.0,0.0036
1704351529.844492,1444339,1704351529,844177737,base_link,0.06936732202817698,0.0058846052309170895,-0.958924222346746,-0.27498705760926956,0.25,0.0,0.0,0.0,0.25,0.0,0.0,0.0,0.25,7.273173011194393e-05,-0.018884138067685775,0.3357003104151125,0.00010000000000000002,0.0,0.0,0.0,0.00010000000000000002,0.0,0.0,0.0,0.0001,-0.4335660725277166,-0.06407618863819106,9.911451488520324,0.0036000000000000003,5.293955920339377e-23,0.0,-5.293955920339377e-23,0.0036000000000000003,0.0,0.0,0.0,0.0036
1704351529.8924844,1444340,1704351529,892194190,base_link,0.06973154407499875,0.005508059525134644,-0.959880593082046,-0.27154450844317124,0.25,0.0,0.0,0.0,0.25,0.0,0.0,0.0,0.25,-0.019085441676429525,-2.0433650243478378e-05,0.3217037344110648,0.00010000000000000002,0.0,0.0,0.0,0.00010000000000000002,0.0,0.0,0.0,0.0001,-0.6199001826327324,-0.044652928436816355,9.85011438386801,0.0036000000000000003,5.293955920339377e-23,0.0,-5.293955920339377e-23,0.0036000000000000003,0.0,0.0,0.0,0.0036
1704351529.9564233,1444341,1704351529,956185917,base_link,0.07229505600823977,0.004143114331619814,-0.9607378318313465,-0.26784151651378485,0.25,0.0,0.0,0.0,0.25,0.0,0.0,0.0,0.25,-0.010824699054927863,0.043876973151869454,0.29097504991026724,0.00010000000000000002,0.0,0.0,0.0,0.00010000000000000002,0.0,0.0,0.0,0.0001,-0.6802679315821082,-0.011563203112117481,9.758634200767604,0.0036000000000000003,5.293955920339377e-23,0.0,-5.293955920339377e-23,0.0036000000000000003,0.0,0.0,0.0,0.0036
1704351530.004463,1444342,1704351530,4182283,base_link,0.07174927485379211,0.0032558795357196402,-0.9616669676066525,-0.2646470937316897,0.25,0.0,0.0,0.0,0.25,0.0,0.0,0.0,0.25,-0.023475849572291596,0.08081354990216207,0.2833869383058181,0.00010000000000000002,0.0,0.0,0.0,0.00010000000000000002,0.0,0.0,0.0,0.0001,-0.558029390317084,-0.06092240477971115,9.812773182049664,0.0036000000000000003,5.293955920339377e-23,0.0,-5.293955920339377e-23,0.0036000000000000003,0.0,0.0,0.0,0.0036
1704351530.0685294,1444343,1704351530,68195797,base_link,0.06943286919660224,0.0034878424069185437,-0.9632993843919846,-0.25927052987274835,0.25,0.0,0.0,0.0,0.25,0.0,0.0,0.0,0.25,-0.005440615337902878,0.04234836468742206,0.3129355428380879,0.00010000000000000002,0.0,0.0,0.0,0.00010000000000000002,0.0,0.0,0.0,0.0001,-0.42813384128517035,-0.13794030747781086,10.092704337971314,0.0036000000000000003,5.293955920339377e-23,0.0,-5.293955920339377e-23,0.0036000000000000003,0.0,0.0,0.0,0.0036
1704351530.1164207,1444344,1704351530,116185816,base_link,0.06945686499908656,0.005247642041890104,-0.964500984101699,-0.25472741867406595,0.25,0.0,0.0,0.0,0.25,0.0,0.0,0.0,0.25,0.0032315579027958597,-0.0008313848032319504,0.34918918804685023,0.00010000000000000002,0.0,0.0,0.0,0.00010000000000000002,0.0,0.0,0.0,0.0001,-0.46453732807697723,-0.3149277570104346,9.866177115551913,0.0036000000000000003,5.293955920339377e-23,0.0,-5.293955920339377e-23,0.0036000000000000003,0.0,0.0,0.0,0.0036
1704351530.1644466,1444345,1704351530,164189368,base_link,0.071149218114119,0.005841805906006912,-0.9654590444378199,-0.2505843083249979,0.25,0.0,0.0,0.0,0.25,0.0,0.0,0.0,0.25,0.020680762136505645,0.006761532873448836,0.33435597998635413,0.00010000000000000002,0.0,0.0,0.0,0.00010000000000000002,0.0,0.0,0.0,0.0001,-0.6229887681245087,-0.26822164544046817,9.944541571386566,0.0036000000000000003,5.293955920339377e-23,0.0,-5.293955920339377e-23,0.0036000000000000003,0.0,0.0,0.0,0.0036
1704351530.2284353,1444346,1704351530,228149374,base_link,0.07347542949262315,0.004646728686118123,-0.9664264186089844,-0.2461701577933526,0.25,0.0,0.0,0.0,0.25,0.0,0.0,0.0,0.25,0.04078881695545308,0.023759003976815886,0.3121967153726727,0.00010000000000000002,0.0,0.0,0.0,0.00010000000000000002,0.0,0.0,0.0,0.0001,-0.6658313640074643,-0.12325486529781804,10.120117838644951,0.0036000000000000003,5.293955920339377e-23,0.0,-5.293955920339377e-23,0.0036000000000000003,0.0,0.0,0.0,0.0036
1704351530.2764065,1444347,1704351530,276157041,base_link,0.07524481673827588,0.0059083378252946135,-0.967047919605313,-0.2431493991051622,0.25,0.0,0.0,0.0,0.25,0.0,0.0,0.0,0.25,-0.014082125014532541,0.016260035006550762,0.2894337787188975,0.00010000000000000002,0.0,0.0,0.0,0.00010000000000000002,0.0,0.0,0.0,0.0001,-0.6223844296296667,-0.20480194071756577,9.669351775425733,0.0036000000000000003,5.293955920339377e-23,0.0,-5.293955920339377e-23,0.0036000000000000003,0.0,0.0,0.0,0.0036
1704351530.3244133,1444348,1704351530,324162834,base_link,0.07407277325404724,0.002989015902488776,-0.9682034981026154,-0.23892734525007425,0.25,0.0,0.0,0.0,0.25,0.0,0.0,0.0,0.25,-0.0006127041750549399,0.011733374604030528,0.32288051871774354,0.00010000000000000002,0.0,0.0,0.0,0.00010000000000000002,0.0,0.0,0.0,0.0001,-0.5929594968892683,0.2311594813353035,10.004098024315814,0.0036000000000000003,5.293955920339377e-23,0.0,-5.293955920339377e-23,0.0036000000000000003,0.0,0.0,0.0,0.0036
1704351530.388449,1444349,1704351530,388158696,base_link,0.07151990299214157,0.00046151237054434366,-0.9698500695938711,-0.2329710990468346,0.25,0.0,0.0,0.0,0.25,0.0,0.0,0.0,0.25,-0.020055252419194092,0.008137591910052677,0.3314106902682946,0.00010000000000000002,0.0,0.0,0.0,0.00010000000000000002,0.0,0.0,0.0,0.0001,-0.604819977557789,0.12337980867906276,9.812144577421614,0.0036000000000000003,5.293955920339377e-23,0.0,-5.293955920339377e-23,0.0036000000000000003,0.0,0.0,0.0,0.0036
1704351530.4364665,1444350,1704351530,436180029,base_link,0.0728479177265851,0.00031346888354629853,-0.9705973244687246,-0.2294208280743343,0.25,0.0,0.0,0.0,0.25,0.0,0.0,0.0,0.25,-0.03823087199068461,0.03508859299050548,0.32699340483672107,0.00010000000000000002,0.0,0.0,0.0,0.00010000000000000002,0.0,0.0,0.0,0.0001,-0.6756547817355625,0.06239767292914959,9.892531568219203,0.0036000000000000003,5.293955920339377e-23,0.0,-5.293955920339377e-23,0.0036000000000000003,0.0,0.0,0.0,0.0036
1704351530.500425,1444351,1704351530,500162707,base_link,0.07597872111721864,0.00274152069162987,-0.9715710767066745,-0.22420829803716533,0.25,0.0,0.0,0.0,0.25,0.0,0.0,0.0,0.25,-0.02269858072378694,0.03903106378815419,0.3204557105452264,0.00010000000000000002,0.0,0.0,0.0,0.00010000000000000002,0.0,0.0,0.0,0.0001,-0.6687927950680621,-0.18750546991792566,9.836187760990175,0.0036000000000000003,5.293955920339377e-23,0.0,-5.293955920339377e-23,0.0036000000000000003,0.0,0.0,0.0,0.0036
1704351530.5485106,1444352,1704351530,548174009,base_link,0.07709046882620069,0.00511094486764602,-0.9723454852471012,-0.2203978111921613,0.25,0.0,0.0,0.0,0.25,0.0,0.0,0.0,0.25,-0.012310401624890121,0.012576293600439969,0.31103750792918844,0.00010000000000000002,0.0,0.0,0.0,0.00010000000000000002,0.0,0.0,0.0,0.0001,-0.7238236958694498,-0.357085473389233,9.888341256196016,0.0036000000000000003,5.293955920339377e-23,0.0,-5.293955920339377e-23,0.0036000000000000003,0.0,0.0,0.0,0.0036
1704351530.6124752,1444353,1704351530,612193400,base_link,0.0773561047924047,0.0063990687569643835,-0.9733574968187314,-0.21575511200702413,0.25,0.0,0.0,0.0,0.25,0.0,0.0,0.0,0.25,0.015217967779258152,-0.0013657460938862219,0.3175826257822217,0.00010000000000000002,0.0,0.0,0.0,0.00010000000000000002,0.0,0.0,0.0,0.0001,-0.7507071708995984,-0.2824037381030301,9.97197250599782,0.0036000000000000003,5.293955920339377e-23,0.0,-5.293955920339377e-23,0.0036000000000000003,0.0,0.0,0.0,0.0036
1704351530.6604214,1444354,1704351530,660185033,base_link,0.0744857791667492,0.006084733050381676,-0.9743918802982101,-0.2120738275566938,0.25,0.0,0.0,0.0,0.25,0.0,0.0,0.0,0.25,0.012577009453632533,-0.028467435366020786,0.31948988188639554,0.00010000000000000002,0.0,0.0,0.0,0.00010000000000000002,0.0,0.0,0.0,0.0001,-0.7265198766111387,-0.20724086160460486,9.854033739218494,0.0036000000000000003,5.293955920339377e-23,0.0,-5.293955920339377e-23,0.0036000000000000003,0.0,0.0,0.0,0.0036
1704351530.7083926,1444355,1704351530,708139168,base_link,0.0728985939375924,0.004755635945342635,-0.9752154796039738,-0.20884910167263948,0.25,0.0,0.0,0.0,0.25,0.0,0.0,0.0,0.25,-0.007294520083656443,-0.00732661775262123,0.30728697816602984,0.00010000000000000002,0.0,0.0,0.0,0.00010000000000000002,0.0,0.0,0.0,0.0001,-0.7755954501189796,-0.10762317480212016,9.997892482801436,0.0036000000000000003,5.293955920339377e-23,0.0,-5.293955920339377e-23,0.0036000000000000003,0.0,0.0,0.0,0.0036
1704351530.7723818,1444356,1704351530,772122617,base_link,0.07116185387972582,0.0012217968608903961,-0.9765267999278348,-0.2032975818536307,0.25,0.0,0.0,0.0,0.25,0.0,0.0,0.0,0.25,-0.02098333651229243,0.010736432194678715,0.313189475248027,0.00010000000000000002,0.0,0.0,0.0,0.00010000000000000002,0.0,0.0,0.0,0.0001,-0.6312482889134088,0.15740375582621896,9.764747041337978,0.0036000000000000003,5.293955920339377e-23,0.0,-5.293955920339377e-23,0.0036000000000000003,0.0,0.0,0.0,0.0036
1704351530.8203988,1444357,1704351530,820140490,base_link,0.0696386663565477,-0.0007031004001577406,-0.9775725184093549,-0.19875093219580184,0.25,0.0,0.0,0.0,0.25,0.0,0.0,0.0,0.25,-0.020441668626733713,0.030341467358199366,0.3338763446740308,0.00010000000000000002,0.0,0.0,0.0,0.00010000000000000002,0.0,0.0,0.0,0.0001,-0.5497317805485007,0.16353824547104126,9.87465170248719,0.0036000000000000003,5.293955920339377e-23,0.0,-5.293955920339377e-23,0.0036000000000000003,0.0,0.0,0.0,0.0036
1704351530.8844297,1444358,1704351530,884144920,base_link,0.06663398683483189,0.001452838398333195,-0.9790494399330019,-0.19240580871158516,0.25,0.0,0.0,0.0,0.25,0.0,0.0,0.0,0.25,-0.04214458038828673,0.01795017234713151,0.3376560027616122,0.00010000000000000002,0.0,0.0,0.0,0.00010000000000000002,0.0,0.0,0.0,0.0001,-0.5264231962769145,-0.09386659284516544,9.947972137129167,0.0036000000000000003,5.293955920339377e-23,0.0,-5.293955920339377e-23,0.0036000000000000003,0.0,0.0,0.0,0.0036
1704351530.932483,1444359,1704351530,932157092,base_link,0.06539336394263506,0.0035628507366385837,-0.9799596416174822,-0.18812260589262092,0.25,0.0,0.0,0.0,0.25,0.0,0.0,0.0,0.25,-0.0035244905218055097,0.013672701360935716,0.32536444906646045,0.00010000000000000002,0.0,0.0,0.0,0.00010000000000000002,0.0,0.0,0.0,0.0001,-0.5220932201448004,-0.23305961926609664,9.968572044070187,0.0036000000000000003,5.293955920339377e-23,0.0,-5.293955920339377e-23,0.0036000000000000003,0.0,0.0,0.0,0.0036
1704351530.9965527,1444360,1704351530,996160348,base_link,0.06659998554871725,0.006653885057831411,-0.9810002430891142,-0.18209527944910248,0.25,0.0,0.0,0.0,0.25,0.0,0.0,0.0,0.25,0.03281469504639084,-0.004681544565937634,0.3137118210063324,0.00010000000000000002,0.0,0.0,0.0,0.00010000000000000002,0.0,0.0,0.0,0.0001,-0.6005611709583333,-0.4634576499771306,10.033444527906518,0.0036000000000000003,5.293955920339377e-23,0.0,-5.293955920339377e-23,0.0036000000000000003,0.0,0.0,0.0,0.0036
1704351531.0444412,1444361,1704351531,44157964,base_link,0.06915702356406188,0.007884178143834835,-0.9815581657207155,-0.1780413242304721,0.25,0.0,0.0,0.0,0.25,0.0,0.0,0.0,0.25,0.03997108331807844,0.015179804194765955,0.3032481612148702,0.00010000000000000002,0.0,0.0,0.0,0.00010000000000000002,0.0,0.0,0.0,0.0001,-0.763173529336811,-0.413640676469962,9.790858483110856,0.0036000000000000003,5.293955920339377e-23,0.0,-5.293955920339377e-23,0.0036000000000000003,0.0,0.0,0.0,0.0036
1704351531.0924735,1444362,1704351531,92153782,base_link,0.06543134247243917,0.004887210883692691,-0.982578210028691,-0.17388190178637492,0.25,0.0,0.0,0.0,0.25,0.0,0.0,0.0,0.25,0.047272431368711204,0.005722385869031631,0.2819542575078964,0.00010000000000000002,0.0,0.0,0.0,0.00010000000000000002,0.0,0.0,0.0,0.0001,-0.5785665170679548,-0.07704325852224612,10.069729136908245,0.0036000000000000003,5.293955920339377e-23,0.0,-5.293955920339377e-23,0.0036000000000000003,0.0,0.0,0.0,0.0036
1704351531.1564443,1444363,1704351531,156151648,base_link,0.06361993031514845,0.0016976634265002727,-0.9834696835370105,-0.16951992204221494,0.25,0.0,0.0,0.0,0.25,0.0,0.0,0.0,0.25,-0.0020054617226443867,0.0049622918341237,0.29711280398505924,0.00010000000000000002,0.0,0.0,0.0,0.00010000000000000002,0.0,0.0,0.0,0.0001,-0.589148583132574,0.02969536001659743,9.722351002184022,0.0036000000000000003,5.293955920339377e-23,0.0,-5.293955920339377e-23,0.0036000000000000003,0.0,0.0,0.0,0.0036
1704351531.2044094,1444364,1704351531,204110493,base_link,0.06437492620673504,-0.001513362655373988,-0.9841891269739179,-0.1650010331957582,0.25,0.0,0.0,0.0,0.25,0.0,0.0,0.0,0.25,-0.01867567751908824,0.01630889253453947,0.3301998840786901,0.00010000000000000002,0.0,0.0,0.0,0.00010000000000000002,0.0,0.0,0.0,0.0001,-0.5952711529932609,0.2891695209380733,10.038120400623681,0.0036000000000000003,5.293955920339377e-23,0.0,-5.293955920339377e-23,0.0036000000000000003,0.0,0.0,0.0,0.0036
1704351531.2684712,1444365,1704351531,268109729,base_link,0.0637005072969874,-0.004464601511775793,-0.9851965441397075,-0.159091426917433,0.25,0.0,0.0,0.0,0.25,0.0,0.0,0.0,0.25,-0.03537868561581257,0.05078525346982389,0.3302914635306752,0.00010000000000000002,0.0,0.0,0.0,0.00010000000000000002,0.0,0.0,0.0,0.0001,-0.5885168441024742,0.1836825328739124,9.805335387430395,0.0036000000000000003,5.293955920339377e-23,0.0,-5.293955920339377e-23,0.0036000000000000003,0.0,0.0,0.0,0.0036
1704351531.31639,1444366,1704351531,316122471,base_link,0.06290244545174857,-0.0026893117665242297,-0.9858524777540997,-0.15534137267487524,0.25,0.0,0.0,0.0,0.25,0.0,0.0,0.0,0.25,-0.048181746303685255,0.04911070065942152,0.31596322410237176,0.00010000000000000002,0.0,0.0,0.0,0.00010000000000000002,0.0,0.0,0.0,0.0001,-0.5801829907020217,0.019336922890188506,9.725376758284833,0.0036000000000000003,5.293955920339377e-23,0.0,-5.293955920339377e-23,0.0036000000000000003,0.0,0.0,0.0,0.0036
1704351531.3803759,1444367,1704351531,380098313,base_link,0.06511549550463348,0.0003672091906495121,-0.9864890973048098,-0.15032996474867422,0.25,0.0,0.0,0.0,0.25,0.0,0.0,0.0,0.25,-0.011816061376319804,0.00890513301990552,0.31097961746499286,0.00010000000000000002,0.0,0.0,0.0,0.00010000000000000002,0.0,0.0,0.0,0.0001,-0.684702069483197,-0.08894907929441986,10.105468735187769,0.0036000000000000003,5.293955920339377e-23,0.0,-5.293955920339377e-23,0.0036000000000000003,0.0,0.0,0.0,0.0036
1704351531.4284365,1444368,1704351531,428174108,base_link,0.06715055029702353,0.00304086459458195,-0.9871164654751772,-0.1451986237025608,0.25,0.0,0.0,0.0,0.25,0.0,0.0,0.0,0.25,0.005026540317927901,-0.03434693784156651,0.3097567271819421,0.00010000000000000002,0.0,0.0,0.0,0.00010000000000000002,0.0,0.0,0.0,0.0001,-0.9113127721123032,-0.38614677185914065,9.922404005424307,0.0036000000000000003,5.293955920339377e-23,0.0,-5.293955920339377e-23,0.0036000000000000003,0.0,0.0,0.0,0.0036
1704351531.4764357,1444369,1704351531,476149029,base_link,0.07008625113284343,0.004462315750498731,-0.987543996693353,-0.140800780307516,0.25,0.0,0.0,0.0,0.25,0.0,0.0,0.0,0.25,0.017550695919696945,-0.026200863862902747,0.2826109597431963,0.00010000000000000002,0.0,0.0,0.0,0.00010000000000000002,0.0,0.0,0.0,0.0001,-1.0223300619051479,-0.33143440718551825,9.713861963344664,0.0036000000000000003,5.293955920339377e-23,0.0,-5.293955920339377e-23,0.0036000000000000003,0.0,0.0,0.0,0.0036
1704351531.5404801,1444370,1704351531,540130470,base_link,0.06685859947099264,-0.00192199611818941,-0.9885302486591243,-0.13540377060344005,0.25,0.0,0.0,0.0,0.25,0.0,0.0,0.0,0.25,0.039894060725547055,-0.018085855403336046,0.2837604133591881,0.00010000000000000002,0.0,0.0,0.0,0.00010000000000000002,0.0,0.0,0.0,0.0001,-0.8108736990111618,0.07138972306935673,10.116351991041865,0.0036000000000000003,5.293955920339377e-23,0.0,-5.293955920339377e-23,0.0036000000000000003,0.0,0.0,0.0,0.0036
1704351531.5887885,1444371,1704351531,588121407,base_link,0.06479697847060659,-0.001251997408075919,-0.9890435237189651,-0.13263744672279687,0.25,0.0,0.0,0.0,0.25,0.0,0.0,0.0,0.25,0.0016084997214004092,-0.035857067145638216,0.2944971137414107,0.00010000000000000002,0.0,0.0,0.0,0.00010000000000000002,0.0,0.0,0.0,0.0001,-0.5806459952287137,0.01761672712306306,9.74621207341855,0.0036000000000000003,5.293955920339377e-23,0.0,-5.293955920339377e-23,0.0036000000000000003,0.0,0.0,0.0,0.0036
1704351531.6523952,1444372,1704351531,652145583,base_link,0.06377084189356055,-0.0026744132503741403,-0.9898388322014463,-0.12706381665930624,0.25,0.0,0.0,0.0,0.25,0.0,0.0,0.0,0.25,-0.020960233209187763,-0.033361122261137244,0.356531223566576,0.00010000000000000002,0.0,0.0,0.0,0.00010000000000000002,0.0,0.0,0.0,0.0001,-0.5973617909651802,0.14295278541499554,9.956612246893414,0.0036000000000000003,5.293955920339377e-23,0.0,-5.293955920339377e-23,0.0036000000000000003,0.0,0.0,0.0,0.0036
1704351531.700469,1444373,1704351531,700154520,base_link,0.06582330672600487,-0.0018607378206739029,-0.9902365598710683,-0.12286327946595353,0.25,0.0,0.0,0.0,0.25,0.0,0.0,0.0,0.25,-0.031439917109012956,-0.003649542955796904,0.34443035220547397,0.00010000000000000002,0.0,0.0,0.0,0.00010000000000000002,0.0,0.0,0.0,0.0001,-0.6463237198454613,0.0982972495856286,9.898380495850338,0.0036000000000000003,5.293955920339377e-23,0.0,-5.293955920339377e-23,0.0036000000000000003,0.0,0.0,0.0,0.0036
1704351531.7484207,1444374,1704351531,748145449,base_link,0.06913642558712646,-0.0004754293135400199,-0.9905295457506077,-0.1186218682161857,0.25,0.0,0.0,0.0,0.25,0.0,0.0,0.0,0.25,-0.02758272873925544,0.013027603091134191,0.3170070500916283,0.00010000000000000002,0.0,0.0,0.0,0.00010000000000000002,0.0,0.0,0.0,0.0001,-0.6174136470002594,0.09497494868977051,9.87297339711936,0.0036000000000000003,5.293955920339377e-23,0.0,-5.293955920339377e-23,0.0036000000000000003,0.0,0.0,0.0,0.0036
1704351531.8123896,1444375,1704351531,812096122,base_link,0.07084080865500665,0.003723914755671512,-0.9910068757140961,-0.11345961649584234,0.25,0.0,0.0,0.0,0.25,0.0,0.0,0.0,0.25,-0.013082461495761673,0.011492600649407138,0.2922885875389216,0.00010000000000000002,0.0,0.0,0.0,0.00010000000000000002,0.0,0.0,0.0,0.0001,-0.5916012894418903,-0.1497773996590521,9.839782778363276,0.0036000000000000003,5.293955920339377e-23,0.0,-5.293955920339377e-23,0.0036000000000000003,0.0,0.0,0.0,0.0036
1704351531.8604326,1444376,1704351531,860117519,base_link,0.07049054377484124,0.006847353870835572,-0.9915112176527214,-0.10903991128074302,0.25,0.0,0.0,0.0,0.25,0.0,0.0,0.0,0.25,0.0023702817641917326,0.017343663632627872,0.3010604076688837,0.00010000000000000002,0.0,0.0,0.0,0.00010000000000000002,0.0,0.0,0.0,0.0001,-0.5839388772503037,-0.2611858975965806,9.807592251369515,0.0036000000000000003,5.293955920339377e-23,0.0,-5.293955920339377e-23,0.0036000000000000003,0.0,0.0,0.0,0.0036
1704351531.924377,1444377,1704351531,924090094,base_link,0.0689470057658684,0.008468469829112578,-0.9921338796282262,-0.1041391391769645,0.25,0.0,0.0,0.0,0.25,0.0,0.0,0.0,0.25,0.03854895392958413,0.025181972523797825,0.2969343389025103,0.00010000000000000002,0.0,0.0,0.0,0.00010000000000000002,0.0,0.0,0.0,0.0001,-0.5526250454726016,-0.22367346945539648,10.084092616507029,0.0036000000000000003,5.293955920339377e-23,0.0,-5.293955920339377e-23,0.0036000000000000003,0.0,0.0,0.0,0.0036
1704351531.9723368,1444378,1704351531,972073298,base_link,0.06607214830040414,0.0076432094524947645,-0.9927600210042415,-0.10001796470580886,0.25,0.0,0.0,0.0,0.25,0.0,0.0,0.0,0.25,0.01942339028458517,0.008223105749865565,0.31460168299506874,0.00010000000000000002,0.0,0.0,0.0,0.00010000000000000002,0.0,0.0,0.0,0.0001,-0.5179419448071886,-0.10845247291930724,9.809524096888998,0.0036000000000000003,5.293955920339377e-23,0.0,-5.293955920339377e-23,0.0036000000000000003,0.0,0.0,0.0,0.0036
1704351532.0363698,1444379,1704351532,36090118,base_link,0.06447597742758009,0.003345070184190505,-0.993511710661217,-0.09362766481784798,0.25,0.0,0.0,0.0,0.25,0.0,0.0,0.0,0.25,-0.011780233631106383,0.0067139918978745905,0.3346590144288915,0.00010000000000000002,0.0,0.0,0.0,0.00010000000000000002,0.0,0.0,0.0,0.0001,-0.5652994624520115,0.07012316776948334,9.841817811053865,0.0036000000000000003,5.293955920339377e-23,0.0,-5.293955920339377e-23,0.0036000000000000003,0.0,0.0,0.0,0.0036
1704351532.0844276,1444380,1704351532,84097325,base_link,0.06757397722811229,0.001709342544766431,-0.9937458693573635,-0.08888184789267774,0.25,0.0,0.0,0.0,0.25,0.0,0.0,0.0,0.25,-0.028522609140996396,0.022909304664008062,0.3424869769790159,0.00010000000000000002,0.0,0.0,0.0,0.00010000000000000002,0.0,0.0,0.0,0.0001,-0.5926930839070238,0.1889065058774023,9.924328485739634,0.0036000000000000003,5.293955920339377e-23,0.0,-5.293955920339377e-23,0.0036000000000000003,0.0,0.0,0.0,0.0036
1704351532.132399,1444381,1704351532,132088824,base_link,0.07112567053741417,0.0024308000147594453,-0.993932134512934,-0.08386979303929493,0.25,0.0,0.0,0.0,0.25,0.0,0.0,0.0,0.25,-0.03248386043821413,0.02053123779938035,0.34981646235210473,0.00010000000000000002,0.0,0.0,0.0,0.00010000000000000002,0.0,0.0,0.0,0.0001,-0.6034980412247327,0.16481895940269914,9.887107486195045,0.0036000000000000003,5.293955920339377e-23,0.0,-5.293955920339377e-23,0.0036000000000000003,0.0,0.0,0.0,0.0036
1704351532.1964045,1444382,1704351532,196098890,base_link,0.07321273559667335,0.005744861204050497,-0.9942474323541488,-0.07796752640285474,0.25,0.0,0.0,0.0,0.25,0.0,0.0,0.0,0.25,-0.016254008520095068,0.01231173905406975,0.33111854149671294,0.00010000000000000002,0.0,0.0,0.0,0.00010000000000000002,0.0,0.0,0.0,0.0001,-0.6979627151210124,-0.019102966438509346,9.97206263787111,0.0036000000000000003,5.293955920339377e-23,0.0,-5.293955920339377e-23,0.0036000000000000003,0.0,0.0,0.0,0.0036
1704351532.2444155,1444383,1704351532,244064415,base_link,0.07248905131067519,0.009598812057518733,-0.9946364252906501,-0.07315450589129788,0.25,0.0,0.0,0.0,0.25,0.0,0.0,0.0,0.25,-0.010582828274420395,-0.009116187877278456,0.2990469580162429,0.00010000000000000002,0.0,0.0,0.0,0.00010000000000000002,0.0,0.0,0.0,0.0001,-0.7331182505340839,-0.2858129357970876,9.784337479578078,0.0036000000000000003,5.293955920339377e-23,0.0,-5.293955920339377e-23,0.0036000000000000003,0.0,0.0,0.0,0.0036
1704351532.3082883,1444384,1704351532,308058014,base_link,0.06720355401683832,0.01244436175935829,-0.9954736032149587,-0.06603881805525515,0.25,0.0,0.0,0.0,0.25,0.0,0.0,0.0,0.25,0.004392242335339091,-0.023889084541775265,0.3001431151209195,0.00010000000000000002,0.0,0.0,0.0,0.00010000000000000002,0.0,0.0,0.0,0.0001,-0.7554025102613482,-0.32796633404558545,9.919803858697628,0.0036000000000000003,5.293955920339377e-23,0.0,-5.293955920339377e-23,0.0036000000000000003,0.0,0.0,0.0,0.0036
1704351532.3564084,1444385,1704351532,356078524,base_link,0.06340313262437096,0.008443049356136482,-0.9961948691086555,-0.05919915922185763,0.25,0.0,0.0,0.0,0.25,0.0,0.0,0.0,0.25,0.02224156048377488,-0.00981780282854295,0.31569104903896567,0.00010000000000000002,0.0,0.0,0.0,0.00010000000000000002,0.0,0.0,0.0,0.0001,-0.7439708604398987,-0.043532673824043806,10.060872348871678,0.0036000000000000003,5.293955920339377e-23,0.0,-5.293955920339377e-23,0.0036000000000000003,0.0,0.0,0.0,0.0036
1704351532.40439,1444386,1704351532,404070507,base_link,0.059706652137936155,0.004249799430768436,-0.9968182972304835,-0.05263399283540409,0.25,0.0,0.0,0.0,0.25,0.0,0.0,0.0,0.25,0.029503773885497953,-0.0049611009984675105,0.299965682013293,0.00010000000000000002,0.0,0.0,0.0,0.00010000000000000002,0.0,0.0,0.0,0.0001,-0.5556353573538189,0.1276159607811468,9.861523944891939,0.0036000000000000003,5.293955920339377e-23,0.0,-5.293955920339377e-23,0.0036000000000000003,0.0,0.0,0.0,0.0036
1704351532.468527,1444387,1704351532,468124101,base_link,0.054578886581525585,0.0009933078459559092,-0.9974877901925908,-0.04514716929937191,0.25,0.0,0.0,0.0,0.25,0.0,0.0,0.0,0.25,-0.006559450949890298,0.004318792865901816,0.28554040365276984,0.00010000000000000002,0.0,0.0,0.0,0.00010000000000000002,0.0,0.0,0.0,0.0001,-0.4992209703283554,0.10620717567316097,9.797436466670485,0.0036000000000000003,5.293955920339377e-23,0.0,-5.293955920339377e-23,0.0036000000000000003,0.0,0.0,0.0,0.0036
1704351532.5163307,1444388,1704351532,516084022,base_link,0.05133896668416642,0.0002231889715464896,-0.9979123738754125,-0.03918105094077385,0.25,0.0,0.0,0.0,0.25,0.0,0.0,0.0,0.25,0.000816511345852491,0.05104742110617007,0.3079968104650768,0.00010000000000000002,0.0,0.0,0.0,0.00010000000000000002,0.0,0.0,0.0,0.0001,-0.36159937048182483,0.11300154885081685,9.962527087722396,0.0036000000000000003,5.293955920339377e-23,0.0,-5.293955920339377e-23,0.0036000000000000003,0.0,0.0,0.0,0.0036
1704351532.5803752,1444389,1704351532,580069719,base_link,0.048778077517342935,0.003220884567222805,-0.9983362317375777,-0.030579297839063723,0.25,0.0,0.0,0.0,0.25,0.0,0.0,0.0,0.25,0.021901970101264632,0.05832537092525631,0.32138708455745435,0.00010000000000000002,0.0,0.0,0.0,0.00010000000000000002,0.0,0.0,0.0,0.0001,-0.35838253006019977,-0.06613857487984372,9.918495701415225,0.0036000000000000003,5.293955920339377e-23,0.0,-5.293955920339377e-23,0.0036000000000000003,0.0,0.0,0.0,0.0036
1704351532.6283965,1444390,1704351532,628063638,base_link,0.05070164036842653,0.006462707018100452,-0.9984199254146708,-0.02335015239590257,0.25,0.0,0.0,0.0,0.25,0.0,0.0,0.0,0.25,0.03486165687219615,0.018376783404437158,0.34198134255655077,0.00010000000000000002,0.0,0.0,0.0,0.00010000000000000002,0.0,0.0,0.0,0.0001,-0.5047095133961741,-0.23294469830238854,9.944831960840645,0.0036000000000000003,5.293955920339377e-23,0.0,-5.293955920339377e-23,0.0036000000000000003,0.0,0.0,0.0,0.0036
1704351532.6764572,1444391,1704351532,676088296,base_link,0.05353446119539924,0.009201264722544568,-0.9983921355890254,-0.01620314123894747,0.25,0.0,0.0,0.0,0.25,0.0,0.0,0.0,0.25,0.0186826144545037,-0.012907790874090398,0.3349062556465917,0.00010000000000000002,0.0,0.0,0.0,0.00010000000000000002,0.0,0.0,0.0,0.0001,-0.7273363359117309,-0.23879627034365225,9.695701113790266,0.0036000000000000003,5.293955920339377e-23,0.0,-5.293955920339377e-23,0.0036000000000000003,0.0,0.0,0.0,0.0036
1704351532.7405815,1444392,1704351532,740150995,base_link,0.059552025903230534,0.006584317187080683,-0.9981782740656865,-0.007094798182319593,0.25,0.0,0.0,0.0,0.25,0.0,0.0,0.0,0.25,0.02080799023924274,-0.007791268413695795,0.30903967105843827,0.00010000000000000002,0.0,0.0,0.0,0.00010000000000000002,0.0,0.0,0.0,0.0001,-0.9141482205505584,-0.027203203620720855,9.863295713791224,0.0036000000000000003,5.293955920339377e-23,0.0,-5.293955920339377e-23,0.0036000000000000003,0.0,0.0,0.0,0.0036
1704351532.7885506,1444393,1704351532,788042408,base_link,0.05851986090318194,0.0013070675959269927,-0.9982851804126636,-0.0006449981610457717,0.25,0.0,0.0,0.0,0.25,0.0,0.0,0.0,0.25,0.008223043516820206,-0.009490617053195823,0.2748084303814821,0.00010000000000000002,0.0,0.0,0.0,0.00010000000000000002,0.0,0.0,0.0,0.0001,-0.84723987857335,0.20380849356731262,10.013126945243433,0.0036000000000000003,5.293955920339377e-23,0.0,-5.293955920339377e-23,0.0036000000000000003,0.0,0.0,0.0,0.0036
1704351532.8523421,1444394,1704351532,852044112,base_link,0.05738149056179536,-0.005212412069544632,-0.9982995472483195,0.00884360023543535,0.25,0.0,0.0,0.0,0.25,0.0,0.0,0.0,0.25,-0.011723533161156199,-0.012126319720080317,0.29993798513795616,0.00010000000000000002,0.0,0.0,0.0,0.00010000000000000002,0.0,0.0,0.0,0.0001,-0.7703239039555445,0.3804572974828957,9.744194907072508,0.0036000000000000003,5.293955920339377e-23,0.0,-5.293955920339377e-23,0.0036000000000000003,0.0,0.0,0.0,0.0036
1704351532.9003458,1444395,1704351532,900049012,base_link,0.05957893680628513,-0.0003833548131563925,-0.9981006078028002,0.015664610809104865,0.25,0.0,0.0,0.0,0.25,0.0,0.0,0.0,0.25,-0.04959751704464039,-0.0020519816302133277,0.32126204914427514,0.00010000000000000002,0.0,0.0,0.0,0.00010000000000000002,0.0,0.0,0.0,0.0001,-0.7014851288561705,0.3237192876985753,9.819502768332907,0.0036000000000000003,5.293955920339377e-23,0.0,-5.293955920339377e-23,0.0036000000000000003,0.0,0.0,0.0,0.0036
1704351532.9643216,1444396,1704351532,964053580,base_link,0.05473391510131977,0.0031438678233557137,-0.9981653248697387,0.0256962810632157,0.25,0.0,0.0,0.0,0.25,0.0,0.0,0.0,0.25,-0.0447497944217772,0.02588464367165814,0.3323286818960449,0.00010000000000000002,0.0,0.0,0.0,0.00010000000000000002,0.0,0.0,0.0,0.0001,-0.6153524716325671,0.22156397694466753,9.860894411926754,0.0036000000000000003,5.293955920339377e-23,0.0,-5.293955920339377e-23,0.0036000000000000003,0.0,0.0,0.0,0.0036
1704351533.0122848,1444397,1704351533,12060229,base_link,0.05387490030479649,0.007945814024344435,-0.9979557388107286,0.033447010798747824,0.25,0.0,0.0,0.0,0.25,0.0,0.0,0.0,0.25,-0.03471796163169856,0.044516791743807335,0.33822169146665865,0.00010000000000000002,0.0,0.0,0.0,0.00010000000000000002,0.0,0.0,0.0,0.0001,-0.5096710032112476,-0.08707260430482025,9.844464294589205,0.0036000000000000003,5.293955920339377e-23,0.0,-5.293955920339377e-23,0.0036000000000000003,0.0,0.0,0.0,0.0036
1704351533.07632,1444398,1704351533,76055170,base_link,0.051932816288010206,0.013060780464171898,-0.9976192470507914,0.04345384355698211,0.25,0.0,0.0,0.0,0.25,0.0,0.0,0.0,0.25,2.2279256601323755e-05,0.03073859887820549,0.32919257668588126,0.00010000000000000002,0.0,0.0,0.0,0.00010000000000000002,0.0,0.0,0.0,0.0001,-0.4689567407140461,-0.21602364231082682,10.064778253094374,0.0036000000000000003,5.293955920339377e-23,0.0,-5.293955920339377e-23,0.0036000000000000003,0.0,0.0,0.0,0.0036
1704351533.1243312,1444399,1704351533,124052246,base_link,0.05182275252407709,0.017092159260327058,-0.9972170730796326,0.050797338228872904,0.25,0.0,0.0,0.0,0.25,0.0,0.0,0.0,0.25,0.013864673838708602,0.01803852683485627,0.32634356024122807,0.00010000000000000002,0.0,0.0,0.0,0.00010000000000000002,0.0,0.0,0.0,0.0001,-0.5087440099160969,-0.23592325439600295,9.784443839050303,0.0036000000000000003,5.293955920339377e-23,0.0,-5.293955920339377e-23,0.0036000000000000003,0.0,0.0,0.0,0.0036
1704351533.1722808,1444400,1704351533,172060068,base_link,0.05060715179088579,0.021187723604987597,-0.9968222787414062,0.05775241259759886,0.25,0.0,0.0,0.0,0.25,0.0,0.0,0.0,0.25,0.002452555881191409,0.010060882863812423,0.3063304372815006,0.00010000000000000002,0.0,0.0,0.0,0.00010000000000000002,0.0,0.0,0.0,0.0001,-0.6197622728272164,-0.11145505195343366,10.041317169527726,0.0036000000000000003,5.293955920339377e-23,0.0,-5.293955920339377e-23,0.0036000000000000003,0.0,0.0,0.0,0.0036
1704351533.2365901,1444401,1704351533,236061817,base_link,0.047954662827777106,0.02607228660033491,-0.9962559583976741,0.06704216241766127,0.25,0.0,0.0,0.0,0.25,0.0,0.0,0.0,0.25,0.009704854851141559,-0.002563220069092034,0.30526414087054654,0.00010000000000000002,0.0,0.0,0.0,0.00010000000000000002,0.0,0.0,0.0,0.0001,-0.6986440262612194,0.1207428587517347,10.005626454191052,0.0036000000000000003,5.293955920339377e-23,0.0,-5.293955920339377e-23,0.0036000000000000003,0.0,0.0,0.0,0.0036
1704351533.2842698,1444402,1704351533,284015359,base_link,0.04887697832528553,0.030691209291549337,-0.9956094125575704,0.07369523925452362,0.25,0.0,0.0,0.0,0.25,0.0,0.0,0.0,0.25,-0.013152990187944628,0.01444194296349078,0.2965530408134382,0.00010000000000000002,0.0,0.0,0.0,0.00010000000000000002,0.0,0.0,0.0,0.0001,-0.7150109194765447,0.21527109354109478,9.71514909616925,0.0036000000000000003,5.293955920339377e-23,0.0,-5.293955920339377e-23,0.0036000000000000003,0.0,0.0,0.0,0.0036
1704351533.3483038,1444403,1704351533,348016754,base_link,0.048505197523223076,0.03601674177469133,-0.9947619397256684,0.08245437161481334,0.25,0.0,0.0,0.0,0.25,0.0,0.0,0.0,0.25,-0.007810680515741564,0.022738506986089365,0.2968815417338995,0.00010000000000000002,0.0,0.0,0.0,0.00010000000000000002,0.0,0.0,0.0,0.0001,-0.6545118478779764,0.28392402414769596,9.928306266005487,0.0036000000000000003,5.293955920339377e-23,0.0,-5.293955920339377e-23,0.0036000000000000003,0.0,0.0,0.0,0.0036
1704351533.3965228,1444404,1704351533,396041200,base_link,0.04911801475462225,0.04109885265364323,-0.9939271403308425,0.08948264999916185,0.25,0.0,0.0,0.0,0.25,0.0,0.0,0.0,0.25,-0.02818516767386316,0.04428351647200143,0.31292339216561443,0.00010000000000000002,0.0,0.0,0.0,0.00010000000000000002,0.0,0.0,0.0,0.0001,-0.6170044232028168,-0.024004091575579117,9.791076314947167,0.0036000000000000003,5.293955920339377e-23,0.0,-5.293955920339377e-23,0.0036000000000000003,0.0,0.0,0.0,0.0036
1704351533.4444199,1444405,1704351533,444026487,base_link,0.048003113698252754,0.0452681735596165,-0.9930577501930724,0.09737966070654808,0.25,0.0,0.0,0.0,0.25,0.0,0.0,0.0,0.25,-0.020188980401841274,0.04932162293708586,0.34574408957121006,0.00010000000000000002,0.0,0.0,0.0,0.00010000000000000002,0.0,0.0,0.0,0.0001,-0.5573899889695012,-0.1695875922700664,9.919678567358757,0.0036000000000000003,5.293955920339377e-23,0.0,-5.293955920339377e-23,0.0036000000000000003,0.0,0.0,0.0,0.0036
1704351533.5082698,1444406,1704351533,508022369,base_link,0.04627740932627525,0.049923248775697884,-0.9918019980443036,0.10814280971500217,0.25,0.0,0.0,0.0,0.25,0.0,0.0,0.0,0.25,0.0007361759097886313,0.046995777673680114,0.3523558530305225,0.00010000000000000002,0.0,0.0,0.0,0.00010000000000000002,0.0,0.0,0.0,0.0001,-0.6193425514504899,-0.08178344875752147,9.920035931317436,0.0036000000000000003,5.293955920339377e-23,0.0,-5.293955920339377e-23,0.0036000000000000003,0.0,0.0,0.0,0.0036
1704351533.556325,1444407,1704351533,556042428,base_link,0.04428006613839846,0.05342660456490728,-0.990853431621811,0.11573396524238465,0.25,0.0,0.0,0.0,0.25,0.0,0.0,0.0,0.25,0.00997039740467589,-0.006434640035786411,0.3303442939887996,0.00010000000000000002,0.0,0.0,0.0,0.00010000000000000002,0.0,0.0,0.0,0.0001,-0.6963559502001111,-0.10075865263201148,9.888630164072964,0.0036000000000000003,5.293955920339377e-23,0.0,-5.293955920339377e-23,0.0036000000000000003,0.0,0.0,0.0,0.0036
1704351533.6203196,1444408,1704351533,620034767,base_link,0.04442386912047005,0.05981159447801348,-0.9893582102930892,0.12497769698638295,0.25,0.0,0.0,0.0,0.25,0.0,0.0,0.0,0.25,-0.020973577064781004,-0.021617708393131076,0.2980620544661044,0.00010000000000000002,0.0,0.0,0.0,0.00010000000000000002,0.0,0.0,0.0,0.0001,-0.935117345031703,-0.006502147104906079,9.842941034154132,0.0036000000000000003,5.293955920339377e-23,0.0,-5.293955920339377e-23,0.0036000000000000003,0.0,0.0,0.0,0.0036
1704351533.6683383,1444409,1704351533,668055339,base_link,0.04542857746422569,0.06470084548115239,-0.9880780533413903,0.13210528168354785,0.25,0.0,0.0,0.0,0.25,0.0,0.0,0.0,0.25,-0.03213236441368968,0.009862605149321446,0.30466443028257434,0.00010000000000000002,0.0,0.0,0.0,0.00010000000000000002,0.0,0.0,0.0,0.0001,-0.9371192927006644,0.23765683992931247,9.934151222398054,0.0036000000000000003,5.293955920339377e-23,0.0,-5.293955920339377e-23,0.0036000000000000003,0.0,0.0,0.0,0.0036
1704351533.7162623,1444410,1704351533,716003018,base_link,0.04550686167494717,0.06865481886432123,-0.9869171737643959,0.13860062595854877,0.25,0.0,0.0,0.0,0.25,0.0,0.0,0.0,0.25,-0.007231212652647758,0.030735825761490938,0.2814601745466594,0.00010000000000000002,0.0,0.0,0.0,0.00010000000000000002,0.0,0.0,0.0,0.0001,-0.7072223825434338,0.3827455850123099,9.908343911767703,0.0036000000000000003,5.293955920339377e-23,0.0,-5.293955920339377e-23,0.0036000000000000003,0.0,0.0,0.0,0.0036
1704351533.7803063,1444411,1704351533,780000758,base_link,0.04457637389592757,0.07351349883670404,-0.9855391654268623,0.14601803240970004,0.25,0.0,0.0,0.0,0.25,0.0,0.0,0.0,0.25,0.015441100609188808,0.02208847159990768,0.24754075674383794,0.00010000000000000002,0.0,0.0,0.0,0.00010000000000000002,0.0,0.0,0.0,0.0001,-0.4712034797732084,-0.009282455017990257,9.950062754847627,0.0036000000000000003,5.293955920339377e-23,0.0,-5.293955920339377e-23,0.0036000000000000003,0.0,0.0,0.0,0.0036
1704351533.828298,1444412,1704351533,828007711,base_link,0.04178337772324077,0.0769279801258484,-0.9848075827676216,0.14996753029635373,0.25,0.0,0.0,0.0,0.25,0.0,0.0,0.0,0.25,0.0051815627167858475,-0.017092479695974282,0.17721834032937117,0.00010000000000000002,0.0,0.0,0.0,0.00010000000000000002,0.0,0.0,0.0,0.0001,-0.05429860954406459,-0.42690022846844206,9.834013830829058,0.0036000000000000003,5.293955920339377e-23,0.0,-5.293955920339377e-23,0.0036000000000000003,0.0,0.0,0.0,0.0036
1704351533.8923714,1444413,1704351533,891999630,base_link,0.036784515022805955,0.07909287962051896,-0.9840719179778167,0.15489892218905912,0.25,0.0,0.0,0.0,0.25,0.0,0.0,0.0,0.25,0.04437511524226418,-0.02524880587719127,0.16700719814351891,0.00010000000000000002,0.0,0.0,0.0,0.00010000000000000002,0.0,0.0,0.0,0.0001,0.13884629061248435,-0.30022861766179126,10.005600225214767,0.0036000000000000003,5.293955920339377e-23,0.0,-5.293955920339377e-23,0.0036000000000000003,0.0,0.0,0.0,0.0036
1704351533.9409406,1444414,1704351533,940015034,base_link,0.033822362918252795,0.0810316343190878,-0.9834950485694591,0.15820054186241247,0.25,0.0,0.0,0.0,0.25,0.0,0.0,0.0,0.25,0.044886213765069925,-0.00797496365442357,0.15512675329689138,0.00010000000000000002,0.0,0.0,0.0,0.00010000000000000002,0.0,0.0,0.0,0.0001,0.1270586255884739,-0.11820976483883129,9.797575288266481,0.0036000000000000003,5.293955920339377e-23,0.0,-5.293955920339377e-23,0.0036000000000000003,0.0,0.0,0.0,0.0036
1704351533.9883208,1444415,1704351533,988006566,base_link,0.03202047918798065,0.0834984880554831,-0.9828759264608596,0.16111363874212217,0.25,0.0,0.0,0.0,0.25,0.0,0.0,0.0,0.25,0.02573951939356849,0.021733407488865944,0.13958959685888167,0.00010000000000000002,0.0,0.0,0.0,0.00010000000000000002,0.0,0.0,0.0,0.0001,0.020022269784535588,0.12426323547353658,9.879205395423542,0.0036000000000000003,5.293955920339377e-23,0.0,-5.293955920339377e-23,0.0036000000000000003,0.0,0.0,0.0,0.0036
1704351534.0525541,1444416,1704351534,52006788,base_link,0.028922029661192672,0.08589827771376556,-0.9821983200474992,0.16453407605099982,0.25,0.0,0.0,0.0,0.25,0.0,0.0,0.0,0.25,-0.0006737536230538361,0.02433781112379028,0.11767500184797286,0.00010000000000000002,0.0,0.0,0.0,0.00010000000000000002,0.0,0.0,0.0,0.0001,-0.057311148557058364,0.35144010264902903,9.8545807978834,0.0036000000000000003,5.293955920339377e-23,0.0,-5.293955920339377e-23,0.0036000000000000003,0.0,0.0,0.0,0.0036
1704351534.1002743,1444417,1704351534,100022795,base_link,0.026393797125339107,0.08731519410472154,-0.9818088941908687,0.1665254324103836,0.25,0.0,0.0,0.0,0.25,0.0,0.0,0.0,0.25,-0.02034550117876771,0.02070385597932048,0.08514613696357945,0.00010000000000000002,0.0,0.0,0.0,0.00010000000000000002,0.0,0.0,0.0,0.0001,-0.18965167123485538,0.4104098093635313,9.852576302522456,0.0036000000000000003,5.293955920339377e-23,0.0,-5.293955920339377e-23,0.0036000000000000003,0.0,0.0,0.0,0.0036
1704351534.164321,1444418,1704351534,164039678,base_link,0.03124483269345099,0.0918307495149459,-0.9806438963814756,0.17008357464269988,0.25,0.0,0.0,0.0,0.25,0.0,0.0,0.0,0.25,-0.019185672738768783,0.04999123348038565,0.11049437053506266,0.00010000000000000002,0.0,0.0,0.0,0.00010000000000000002,0.0,0.0,0.0,0.0001,-0.6165078999548526,0.26696244472028174,9.90026148556763,0.0036000000000000003,5.293955920339377e-23,0.0,-5.293955920339377e-23,0.0036000000000000003,0.0,0.0,0.0,0.0036
1704351534.2122848,1444419,1704351534,212024811,base_link,0.03631701893556336,0.09518383172948404,-0.9796022204026318,0.1732068188471831,0.25,0.0,0.0,0.0,0.25,0.0,0.0,0.0,0.25,-0.01871131844210235,0.06445973656739125,0.1290735643401074,0.00010000000000000002,0.0,0.0,0.0,0.00010000000000000002,0.0,0.0,0.0,0.0001,-1.0634251573261786,0.10133212705802933,9.86997726816628,0.0036000000000000003,5.293955920339377e-23,0.0,-5.293955920339377e-23,0.0036000000000000003,0.0,0.0,0.0,0.0036
1704351534.2602987,1444420,1704351534,260019409,base_link,0.0411596474103505,0.09643197003478696,-0.978495687776219,0.17763149378308365,0.25,0.0,0.0,0.0,0.25,0.0,0.0,0.0,0.25,0.004146778100693951,0.016961421840718388,0.17176659990662677,0.00010000000000000002,0.0,0.0,0.0,0.00010000000000000002,0.0,0.0,0.0,0.0001,-1.3247891958083118,0.11771604088641849,9.877879492690454,0.0036000000000000003,5.293955920339377e-23,0.0,-5.293955920339377e-23,0.0036000000000000003,0.0,0.0,0.0,0.0036
1704351534.3242443,1444421,1704351534,323987029,base_link,0.0444363454500589,0.10034560109841824,-0.976609607128607,0.18490496696235112,0.25,0.0,0.0,0.0,0.25,0.0,0.0,0.0,0.25,-0.014866003233897264,-0.03134928318793639,0.2079157493321171,0.00010000000000000002,0.0,0.0,0.0,0.00010000000000000002,0.0,0.0,0.0,0.0001,-1.4694614530732173,0.09181061140217292,9.841310593497916,0.0036000000000000003,5.293955920339377e-23,0.0,-5.293955920339377e-23,0.0036000000000000003,0.0,0.0,0.0,0.0036
1704351534.3722322,1444422,1704351534,371979778,base_link,0.04741019621808822,0.10226166200970546,-0.9748461794025644,0.1922751993414608,0.25,0.0,0.0,0.0,0.25,0.0,0.0,0.0,0.25,-0.036566149517578375,-0.028330581637201112,0.2769790398279512,0.00010000000000000002,0.0,0.0,0.0,0.00010000000000000002,0.0,0.0,0.0,0.0001,-1.5809050049270064,0.20768334398257018,9.844301154632975,0.0036000000000000003,5.293955920339377e-23,0.0,-5.293955920339377e-23,0.0036000000000000003,0.0,0.0,0.0,0.0036
1704351534.4363356,1444423,1704351534,435971955,base_link,0.04988237051636998,0.10443492735268614,-0.9721926389908483,0.20358430134103428,0.25,0.0,0.0,0.0,0.25,0.0,0.0,0.0,0.25,-0.03883449879471753,-0.017024882051606488,0.3229772580443407,0.00010000000000000002,0.0,0.0,0.0,0.00010000000000000002,0.0,0.0,0.0,0.0001,-1.4498220471526841,0.3809734628801867,9.92950177493584,0.0036000000000000003,5.293955920339377e-23,0.0,-5.293955920339377e-23,0.0036000000000000003,0.0,0.0,0.0,0.0036
1704351534.4842744,1444424,1704351534,483985957,base_link,0.048078878821028306,0.10676468535660946,-0.9704645484383972,0.21092245872897167,0.25,0.0,0.0,0.0,0.25,0.0,0.0,0.0,0.25,-0.05282873438443132,0.0002660995646942861,0.28692924216124616,0.00010000000000000002,0.0,0.0,0.0,0.00010000000000000002,0.0,0.0,0.0,0.0001,-1.1951728030276907,0.3718741269534844,9.707471679338818,0.0036000000000000003,5.293955920339377e-23,0.0,-5.293955920339377e-23,0.0036000000000000003,0.0,0.0,0.0,0.0036
1704351534.5483398,1444425,1704351534,547980647,base_link,0.04628784839975465,0.111557430343043,-0.967863559487403,0.22057312855865452,0.25,0.0,0.0,0.0,0.25,0.0,0.0,0.0,0.25,-0.047112081826225644,0.020081769276195826,0.2939267645044566,0.00010000000000000002,0.0,0.0,0.0,0.00010000000000000002,0.0,0.0,0.0,0.0001,-1.0527751812470854,0.34670997202036313,9.898661891196385,0.0036000000000000003,5.293955920339377e-23,0.0,-5.293955920339377e-23,0.0036000000000000003,0.0,0.0,0.0,0.0036
1704351534.5962787,1444426,1704351534,595975126,base_link,0.04375520636060102,0.11511704367986436,-0.9659512960788781,0.22753382556069604,0.25,0.0,0.0,0.0,0.25,0.0,0.0,0.0,0.25,-0.04609515766276039,-0.0025199716159269242,0.29091962287008,0.00010000000000000002,0.0,0.0,0.0,0.00010000000000000002,0.0,0.0,0.0,0.0001,-0.7229016852620371,-0.06437330237234651,9.946897362850097,0.0036000000000000003,5.293955920339377e-23,0.0,-5.293955920339377e-23,0.0036000000000000003,0.0,0.0,0.0,0.0036
1704351534.6602998,1444427,1704351534,659987019,base_link,0.039777479112364636,0.11960154188983792,-0.9630869381312198,0.23785872473817518,0.25,0.0,0.0,0.0,0.25,0.0,0.0,0.0,0.25,-0.04208265094714182,-0.021840930025057194,0.3255720091839185,0.00010000000000000002,0.0,0.0,0.0,0.00010000000000000002,0.0,0.0,0.0,0.0001,-0.6677379732011948,-0.2521299592581449,9.809173365599653,0.0036000000000000003,5.293955920339377e-23,0.0,-5.293955920339377e-23,0.0036000000000000003,0.0,0.0,0.0,0.0036
1704351534.7082398,1444428,1704351534,707948972,base_link,0.03805566700572153,0.1228669735807518,-0.9607360767684365,0.2458488637505763,0.25,0.0,0.0,0.0,0.25,0.0,0.0,0.0,0.25,-0.022540034307197865,0.004228992517150954,0.3377683215805863,0.00010000000000000002,0.0,0.0,0.0,0.00010000000000000002,0.0,0.0,0.0,0.0001,-0.7121056862376011,-0.16662512815786948,10.010637263503527,0.0036000000000000003,5.293955920339377e-23,0.0,-5.293955920339377e-23,0.0036000000000000003,0.0,0.0,0.0,0.0036
1704351534.7562177,1444429,1704351534,755964038,base_link,0.03632816038603515,0.12494539726863542,-0.9585888087553087,0.2533306301919051,0.25,0.0,0.0,0.0,0.25,0.0,0.0,0.0,0.25,0.01245137214942245,0.0019210720026136433,0.31417630958995585,0.00010000000000000002,0.0,0.0,0.0,0.00010000000000000002,0.0,0.0,0.0,0.0001,-0.6635496443978985,-0.05080612374807811,9.93940360292181,0.0036000000000000003,5.293955920339377e-23,0.0,-5.293955920339377e-23,0.0036000000000000003,0.0,0.0,0.0,0.0036
1704351534.8202243,1444430,1704351534,819963453,base_link,0.033559778115367395,0.1277976453528014,-0.9559039439650029,0.2622768633472637,0.25,0.0,0.0,0.0,0.25,0.0,0.0,0.0,0.25,0.006560683531462387,-0.006359828190917311,0.2775198113320486,0.00010000000000000002,0.0,0.0,0.0,0.00010000000000000002,0.0,0.0,0.0,0.0001,-0.6454836043302187,-0.030920694286322544,9.874612043521033,0.0036000000000000003,5.293955920339377e-23,0.0,-5.293955920339377e-23,0.0036000000000000003,0.0,0.0,0.0,0.0036
1704351534.868369,1444431,1704351534,867990311,base_link,0.031967347768598234,0.12989485684384358,-0.9537076407061312,0.269345783150403,0.25,0.0,0.0,0.0,0.25,0.0,0.0,0.0,0.25,0.015289410549613396,-0.007440625844231323,0.290251801937229,0.00010000000000000002,0.0,0.0,0.0,0.00010000000000000002,0.0,0.0,0.0,0.0001,-0.6932050358445536,0.01898662632227453,9.902948076321008,0.0036000000000000003,5.293955920339377e-23,0.0,-5.293955920339377e-23,0.0036000000000000003,0.0,0.0,0.0,0.0036
1704351534.9323094,1444432,1704351534,931963666,base_link,0.02931255291900916,0.13236862228287755,-0.9505539037387927,0.2794040052741641,0.25,0.0,0.0,0.0,0.25,0.0,0.0,0.0,0.25,0.006079196782254373,-0.013398268826740434,0.30976152087190423,0.00010000000000000002,0.0,0.0,0.0,0.00010000000000000002,0.0,0.0,0.0,0.0001,-0.6375122318165343,0.005494294590288692,9.851557496073964,0.0036000000000000003,5.293955920339377e-23,0.0,-5.293955920339377e-23,0.0036000000000000003,0.0,0.0,0.0,0.0036
1704351534.9802718,1444433,1704351534,979964142,base_link,0.026947858597121427,0.13407864140509848,-0.9480244327809552,0.28730890290128597,0.25,0.0,0.0,0.0,0.25,0.0,0.0,0.0,0.25,-0.008829461320559692,-0.020041729625395806,0.3224373021333271,0.00010000000000000002,0.0,0.0,0.0,0.00010000000000000002,0.0,0.0,0.0,0.0001,-0.5666479127151219,0.07509064496306742,9.910826624473511,0.0036000000000000003,5.293955920339377e-23,0.0,-5.293955920339377e-23,0.0036000000000000003,0.0,0.0,0.0,0.0036
1704351535.028249,1444434,1704351535,27974637,base_link,0.024941907198790483,0.1366903885005138,-0.9452985234345295,0.2951344448710859,0.25,0.0,0.0,0.0,0.25,0.0,0.0,0.0,0.25,-0.033688740070113736,-0.012759491288486356,0.31504216983936784,0.00010000000000000002,0.0,0.0,0.0,0.00010000000000000002,0.0,0.0,0.0,0.0001,-0.6378751130816688,0.13549440506239688,9.863692636605805,0.0036000000000000003,5.293955920339377e-23,0.0,-5.293955920339377e-23,0.0036000000000000003,0.0,0.0,0.0,0.0036
1704351535.092361,1444435,1704351535,91974433,base_link,0.023185902500828064,0.14094539512069057,-0.9413827379345217,0.30560652846167824,0.25,0.0,0.0,0.0,0.25,0.0,0.0,0.0,0.25,-0.037078115409514195,-0.005703177255450071,0.31804801318271303,0.00010000000000000002,0.0,0.0,0.0,0.00010000000000000002,0.0,0.0,0.0,0.0001,-0.6800944944436941,0.0602290330481541,10.00209112749235,0.0036000000000000003,5.293955920339377e-23,0.0,-5.293955920339377e-23,0.0036000000000000003,0.0,0.0,0.0,0.0036
1704351535.140458,1444436,1704351535,139986453,base_link,0.022070060048859134,0.1434680890441931,-0.938627227369408,0.3129037358617903,0.25,0.0,0.0,0.0,0.25,0.0,0.0,0.0,0.25,-0.011566678785497423,-0.014046826578544315,0.2924964472620023,0.00010000000000000002,0.0,0.0,0.0,0.00010000000000000002,0.0,0.0,0.0,0.0001,-0.6701628802760008,0.02610713231314947,9.84161540389442,0.0036000000000000003,5.293955920339377e-23,0.0,-5.293955920339377e-23,0.0036000000000000003,0.0,0.0,0.0,0.0036
1704351535.2042835,1444437,1704351535,203961005,base_link,0.021900719075142065,0.14764142469226646,-0.9350636466608367,0.3215250299932611,0.25,0.0,0.0,0.0,0.25,0.0,0.0,0.0,0.25,0.006352143941076868,-0.014925150304582724,0.26244395600673265,0.00010000000000000002,0.0,0.0,0.0,0.00010000000000000002,0.0,0.0,0.0,0.0001,-0.7458657686520497,-0.14648522445110643,9.87642438486635,0.0036000000000000003,5.293955920339377e-23,0.0,-5.293955920339377e-23,0.0036000000000000003,0.0,0.0,0.0,0.0036
