Time,header.seq,header.stamp.secs,header.stamp.nsecs,header.frame_id,status.status,status.service,latitude,longitude,altitude,position_covariance_0,position_covariance_1,position_covariance_2,position_covariance_3,position_covariance_4,position_covariance_5,position_covariance_6,position_covariance_7,position_covariance_8,position_covariance_type
1704351528.863776,371851,1704351528,800061165,ublox_gps,2,15,44.855087,-41.92200875087372,88.494,0.00019600000000000002,0.0,0.0,0.0,0.00019600000000000002,0.0,0.0,0.0,0.0001,2
1704351529.078433,371852,1704351529,61142,ublox_gps,2,15,44.8550877,-41.92200865087372,88.504,0.00019600000000000002,0.0,0.0,0.0,0.00019600000000000002,0.0,0.0,0.0,0.0001,2
1704351529.2694743,371853,1704351529,200061119,ublox_gps,2,15,44.8550883,-41.92200875087372,88.517,0.00019600000000000002,0.0,0.0,0.0,0.00019600000000000002,0.0,0.0,0.0,0.0001,2
1704351529.4663897,371854,1704351529,400061096,ublox_gps,2,15,44.8550888,-41.92200885087372,88.549,0.00019600000000000002,0.0,0.0,0.0,0.00019600000000000002,0.0,0.0,0.0,0.000144,2
1704351529.6702373,371855,1704351529,600061073,ublox_gps,2,15,44.8550894,-41.92200885087372,88.563,0.00019600000000000002,0.0,0.0,0.0,0.00019600000000000002,0.0,0.0,0.0,0.000169,2
1704351529.8622584,371856,1704351529,800061050,ublox_gps,2,15,44.855089799999995,-41.922009050873726,88.552,0.00019600000000000002,0.0,0.0,0.0,0.00019600000000000002,0.0,0.0,0.0,0.000169,2
1704351530.0736728,371857,1704351530,61027,ublox_gps,0,15,44.8550902,-41.92200925087372,88.547,0.00032399999999999996,0.0,0.0,0.0,0.00032399999999999996,0.0,0.0,0.0,0.000576,2
1704351530.2674353,371858,1704351530,200061004,ublox_gps,0,15,44.855090399999995,-41.922009550873724,88.523,0.000256,0.0,0.0,0.0,0.000256,0.0,0.0,0.0,0.00048399999999999995,2
1704351530.4684882,371859,1704351530,400060980,ublox_gps,0,15,44.8550908,-41.92200975087373,88.548,0.000256,0.0,0.0,0.0,0.000256,0.0,0.0,0.0,0.00044100000000000004,2
1704351530.664163,371860,1704351530,600060957,ublox_gps,0,15,44.855091699999996,-41.92201005087372,88.574,0.000225,0.0,0.0,0.0,0.000225,0.0,0.0,0.0,0.00032399999999999996,2
1704351530.869803,371861,1704351530,800060934,ublox_gps,0,15,44.8550924,-41.922010250873726,88.608,0.000225,0.0,0.0,0.0,0.000225,0.0,0.0,0.0,0.00032399999999999996,2
1704351531.0734494,371862,1704351531,60911,ublox_gps,0,15,44.8550928,-41.922010750873724,88.632,0.000225,0.0,0.0,0.0,0.000225,0.0,0.0,0.0,0.000361,2
1704351531.2739556,371863,1704351531,200060888,ublox_gps,0,15,44.8550932,-41.92201125087372,88.651,0.000225,0.0,0.0,0.0,0.000225,0.0,0.0,0.0,0.0004,2
1704351531.4711833,371864,1704351531,400060864,ublox_gps,0,15,44.8550936,-41.92201155087373,88.658,0.00048399999999999995,0.0,0.0,0.0,0.00048399999999999995,0.0,0.0,0.0,0.0007840000000000001,2
1704351531.665281,371865,1704351531,600060841,ublox_gps,0,15,44.8550938,-41.92201215087373,88.632,0.00028900000000000003,0.0,0.0,0.0,0.00028900000000000003,0.0,0.0,0.0,0.0004,2
1704351531.8645916,371866,1704351531,800060818,ublox_gps,0,15,44.855094199999996,-41.92201295087372,88.649,0.000256,0.0,0.0,0.0,0.000256,0.0,0.0,0.0,0.00032399999999999996,2
1704351532.0725892,371867,1704351532,60795,ublox_gps,0,15,44.8550945,-41.922013350873726,88.651,0.00028900000000000003,0.0,0.0,0.0,0.00028900000000000003,0.0,0.0,0.0,0.00032399999999999996,2
1704351532.2652419,371868,1704351532,200060772,ublox_gps,0,15,44.8550951,-41.922013850873725,88.663,0.00028900000000000003,0.0,0.0,0.0,0.00028900000000000003,0.0,0.0,0.0,0.00044100000000000004,2
1704351532.468114,371869,1704351532,400060749,ublox_gps,0,15,44.8550955,-41.92201425087372,88.625,0.0004,0.0,0.0,0.0,0.0004,0.0,0.0,0.0,0.0006250000000000001,2
1704351532.6705248,371870,1704351532,600060726,ublox_gps,0,15,44.8550958,-41.92201485087372,88.639,0.000361,0.0,0.0,0.0,0.000361,0.0,0.0,0.0,0.0009,2
1704351532.8732245,371871,1704351532,800060702,ublox_gps,0,15,44.855095899999995,-41.922015550873724,88.652,0.0004,0.0,0.0,0.0,0.0004,0.0,0.0,0.0,0.001024,2
1704351533.0795994,371872,1704351533,60679,ublox_gps,0,15,44.8550961,-41.922016250873725,88.662,0.0004,0.0,0.0,0.0,0.0004,0.0,0.0,0.0,0.0012250000000000002,2
1704351533.2675629,371873,1704351533,200060656,ublox_gps,0,15,44.8550962,-41.92201675087372,88.657,0.0007840000000000001,0.0,0.0,0.0,0.0007840000000000001,0.0,0.0,0.0,0.0024010000000000004,2
1704351533.4695709,371874,1704351533,400060633,ublox_gps,0,15,44.8550963,-41.92201735087372,88.647,0.0018489999999999997,0.0,0.0,0.0,0.0018489999999999997,0.0,0.0,0.0,0.0043560000000000005,2
1704351533.6724691,371875,1704351533,600060610,ublox_gps,0,15,44.8550963,-41.92201775087372,88.627,0.003249,0.0,0.0,0.0,0.003249,0.0,0.0,0.0,0.006889000000000001,2
1704351533.874336,371876,1704351533,800060587,ublox_gps,0,15,44.8550964,-41.92201825087373,88.608,0.0047610000000000005,0.0,0.0,0.0,0.0047610000000000005,0.0,0.0,0.0,0.009801,2
1704351534.0742698,371877,1704351534,60564,ublox_gps,0,15,44.8550964,-41.92201855087372,88.60000000000001,0.006241,0.0,0.0,0.0,0.006241,0.0,0.0,0.0,0.012996,2
1704351534.2580163,371878,1704351534,200060540,ublox_gps,0,15,44.8550964,-41.922018750873725,88.59700000000001,0.007568999999999999,0.0,0.0,0.0,0.007568999999999999,0.0,0.0,0.0,0.016129,2
1704351534.4704523,371879,1704351534,400060517,ublox_gps,0,15,44.8550956,-41.922020450873724,88.737,0.0026009999999999996,0.0,0.0,0.0,0.0026009999999999996,0.0,0.0,0.0,0.005625,2
1704351534.6741245,371880,1704351534,600060494,ublox_gps,2,15,44.8550968,-41.922021150873725,88.774,0.00019600000000000002,0.0,0.0,0.0,0.00019600000000000002,0.0,0.0,0.0,0.00032399999999999996,2
1704351534.873664,371881,1704351534,800060471,ublox_gps,2,15,44.8550968,-41.922021750873725,88.743,0.00019600000000000002,0.0,0.0,0.0,0.00019600000000000002,0.0,0.0,0.0,0.000256,2
1704351535.1122475,371882,1704351535,60448,ublox_gps,2,15,44.8550968,-41.922022350873725,88.736,0.00019600000000000002,0.0,0.0,0.0,0.00019600000000000002,0.0,0.0,0.0,0.0004,2
1704351535.2704027,371883,1704351535,200060425,ublox_gps,2,15,44.8550969,-41.922022850873724,88.73400000000001,0.000361,0.0,0.0,0.0,0.000361,0.0,0.0,0.0,0.0008410000000000001,2
1704351535.4697294,371884,1704351535,400060402,ublox_gps,2,15,44.8550969,-41.922023550873725,88.658,0.00032399999999999996,0.0,0.0,0.0,0.00032399999999999996,0.0,0.0,0.0,0.0007289999999999999,2
1704351535.6712859,371885,1704351535,600060379,ublox_gps,2,15,44.8550968,-41.92202445087372,88.71000000000001,0.00019600000000000002,0.0,0.0,0.0,0.00019600000000000002,0.0,0.0,0.0,0.00028900000000000003,2
1704351535.8703434,371886,1704351535,800060355,ublox_gps,2,15,44.855096599999996,-41.92202495087373,88.71300000000001,0.00019600000000000002,0.0,0.0,0.0,0.00019600000000000002,0.0,0.0,0.0,0.00032399999999999996,2
1704351536.0697637,371887,1704351536,60332,ublox_gps,0,15,44.8550961,-41.92202555087373,88.759,0.000256,0.0,0.0,0.0,0.000256,0.0,0.0,0.0,0.0006250000000000001,2
1704351536.2641122,371888,1704351536,200060309,ublox_gps,0,15,44.855095899999995,-41.92202645087372,88.802,0.00028900000000000003,0.0,0.0,0.0,0.00028900000000000003,0.0,0.0,0.0,0.0008410000000000001,2
1704351536.4697342,371889,1704351536,400060286,ublox_gps,0,15,44.8550958,-41.922026650873725,88.82900000000001,0.00028900000000000003,0.0,0.0,0.0,0.00028900000000000003,0.0,0.0,0.0,0.0008410000000000001,2
1704351536.6646729,371890,1704351536,600060263,ublox_gps,2,15,44.8550961,-41.922026550873724,88.799,0.00019600000000000002,0.0,0.0,0.0,0.00019600000000000002,0.0,0.0,0.0,0.000256,2
1704351536.8682003,371891,1704351536,800060239,ublox_gps,0,15,44.8550962,-41.922025950873724,88.801,0.00019600000000000002,0.0,0.0,0.0,0.00019600000000000002,0.0,0.0,0.0,0.000225,2
1704351537.0743062,371892,1704351537,60216,ublox_gps,0,15,44.8550964,-41.92202525087372,88.794,0.000256,0.0,0.0,0.0,0.000256,0.0,0.0,0.0,0.00044100000000000004,2
1704351537.2701917,371893,1704351537,200060193,ublox_gps,0,15,44.855096599999996,-41.92202455087372,88.777,0.00028900000000000003,0.0,0.0,0.0,0.00028900000000000003,0.0,0.0,0.0,0.000529,2
1704351537.4696882,371894,1704351537,400060170,ublox_gps,0,15,44.8550967,-41.92202375087373,88.738,0.00028900000000000003,0.0,0.0,0.0,0.00028900000000000003,0.0,0.0,0.0,0.000576,2
1704351537.6716845,371895,1704351537,600060147,ublox_gps,0,15,44.8550969,-41.92202315087373,88.726,0.00019600000000000002,0.0,0.0,0.0,0.00019600000000000002,0.0,0.0,0.0,0.00044100000000000004,2
1704351537.8584929,371896,1704351537,800060124,ublox_gps,0,15,44.8550974,-41.922022250873724,88.752,0.00019600000000000002,0.0,0.0,0.0,0.00019600000000000002,0.0,0.0,0.0,0.00044100000000000004,2
1704351538.0744214,371897,1704351538,60101,ublox_gps,0,15,44.855097799999996,-41.922021650873724,88.759,0.00019600000000000002,0.0,0.0,0.0,0.00019600000000000002,0.0,0.0,0.0,0.00044100000000000004,2
1704351538.2704663,371898,1704351538,200060078,ublox_gps,0,15,44.855098,-41.922021250873726,88.771,0.00019600000000000002,0.0,0.0,0.0,0.00019600000000000002,0.0,0.0,0.0,0.00044100000000000004,2
1704351538.4650521,371899,1704351538,400060055,ublox_gps,0,15,44.855098,-41.922021150873725,88.785,0.00019600000000000002,0.0,0.0,0.0,0.00019600000000000002,0.0,0.0,0.0,0.00044100000000000004,2
1704351538.6651468,371900,1704351538,600060031,ublox_gps,0,15,44.8550976,-41.92202155087372,88.784,0.00019600000000000002,0.0,0.0,0.0,0.00019600000000000002,0.0,0.0,0.0,0.000256,2
1704351538.870376,371901,1704351538,800060008,ublox_gps,0,15,44.855097099999995,-41.92202195087373,88.779,0.00019600000000000002,0.0,0.0,0.0,0.00019600000000000002,0.0,0.0,0.0,0.000225,2
1704351539.0716689,371902,1704351539,59985,ublox_gps,0,15,44.855096599999996,-41.922022450873726,88.776,0.00019600000000000002,0.0,0.0,0.0,0.00019600000000000002,0.0,0.0,0.0,0.000225,2
1704351539.2661448,371903,1704351539,200059962,ublox_gps,0,15,44.855095999999996,-41.922022950873725,88.775,0.00019600000000000002,0.0,0.0,0.0,0.00019600000000000002,0.0,0.0,0.0,0.000225,2
1704351539.4675605,371904,1704351539,400059939,ublox_gps,0,15,44.8550957,-41.92202315087373,88.774,0.00019600000000000002,0.0,0.0,0.0,0.00019600000000000002,0.0,0.0,0.0,0.000225,2
1704351539.6642947,371905,1704351539,600059916,ublox_gps,0,15,44.8550949,-41.92202335087372,88.762,0.00019600000000000002,0.0,0.0,0.0,0.00019600000000000002,0.0,0.0,0.0,0.000144,2
1704351539.8642087,371906,1704351539,800059893,ublox_gps,0,15,44.8550937,-41.92202385087372,88.789,0.00019600000000000002,0.0,0.0,0.0,0.00019600000000000002,0.0,0.0,0.0,0.000144,2
1704351540.072883,371907,1704351540,59870,ublox_gps,2,15,44.8550924,-41.92202435087373,88.773,0.00019600000000000002,0.0,0.0,0.0,0.00019600000000000002,0.0,0.0,0.0,0.00019600000000000002,2
1704351540.2640862,371908,1704351540,200059847,ublox_gps,2,15,44.8550909,-41.92202465087372,88.745,0.00019600000000000002,0.0,0.0,0.0,0.00019600000000000002,0.0,0.0,0.0,0.000225,2
1704351540.4663303,371909,1704351540,400059823,ublox_gps,0,15,44.855089799999995,-41.92202435087373,88.754,0.00019600000000000002,0.0,0.0,0.0,0.00019600000000000002,0.0,0.0,0.0,0.000256,2
1704351540.6676192,371910,1704351540,600059800,ublox_gps,2,15,44.855088099999996,-41.92202435087373,88.729,0.000225,0.0,0.0,0.0,0.000225,0.0,0.0,0.0,0.000361,2
1704351540.8635864,371911,1704351540,800059777,ublox_gps,2,15,44.855086899999996,-41.92202405087372,88.712,0.000256,0.0,0.0,0.0,0.000256,0.0,0.0,0.0,0.00048399999999999995,2
1704351541.073139,371912,1704351541,59754,ublox_gps,2,15,44.8550858,-41.92202345087372,88.69500000000001,0.00032399999999999996,0.0,0.0,0.0,0.00032399999999999996,0.0,0.0,0.0,0.0006250000000000001,2
1704351541.2653167,371913,1704351541,200059731,ublox_gps,2,15,44.8550846,-41.92202275087372,88.71000000000001,0.000676,0.0,0.0,0.0,0.000676,0.0,0.0,0.0,0.0007840000000000001,2
1704351541.4673016,371914,1704351541,400059708,ublox_gps,2,15,44.855083099999995,-41.92202205087372,88.743,0.001024,0.0,0.0,0.0,0.001024,0.0,0.0,0.0,0.0008410000000000001,2
1704351541.6698523,371915,1704351541,600059684,ublox_gps,2,15,44.8550816,-41.92202135087373,88.736,0.00028900000000000003,0.0,0.0,0.0,0.00028900000000000003,0.0,0.0,0.0,0.00028900000000000003,2
1704351541.8700194,371916,1704351541,800059661,ublox_gps,2,15,44.8550799,-41.92202075087373,88.741,0.000225,0.0,0.0,0.0,0.000225,0.0,0.0,0.0,0.000225,2
1704351542.0726075,371917,1704351542,59638,ublox_gps,2,15,44.855078299999995,-41.92202015087372,88.739,0.00019600000000000002,0.0,0.0,0.0,0.00019600000000000002,0.0,0.0,0.0,0.000169,2
1704351542.278316,371918,1704351542,200059615,ublox_gps,2,15,44.8550766,-41.92201945087373,88.759,0.00019600000000000002,0.0,0.0,0.0,0.00019600000000000002,0.0,0.0,0.0,0.000169,2
1704351542.4694097,371919,1704351542,400059592,ublox_gps,2,15,44.855075,-41.92201905087372,88.73400000000001,0.0004,0.0,0.0,0.0,0.0004,0.0,0.0,0.0,0.000256,2
1704351542.667712,371920,1704351542,600059569,ublox_gps,2,15,44.855072899999996,-41.92201895087372,88.71600000000001,0.000225,0.0,0.0,0.0,0.000225,0.0,0.0,0.0,0.000144,2
1704351542.8692632,371921,1704351542,800059546,ublox_gps,2,15,44.855071099999996,-41.922018750873725,88.712,0.000225,0.0,0.0,0.0,0.000225,0.0,0.0,0.0,0.000144,2
1704351543.0796654,371922,1704351543,59523,ublox_gps,2,15,44.8550691,-41.92201885087373,88.71000000000001,0.000225,0.0,0.0,0.0,0.000225,0.0,0.0,0.0,0.000169,2
1704351543.2642944,371923,1704351543,200059500,ublox_gps,2,15,44.8550672,-41.92201895087372,88.684,0.00032399999999999996,0.0,0.0,0.0,0.00032399999999999996,0.0,0.0,0.0,0.000256,2
1704351543.4717362,371924,1704351543,400059477,ublox_gps,2,15,44.855065599999996,-41.92201965087372,88.69,0.0004,0.0,0.0,0.0,0.0004,0.0,0.0,0.0,0.00028900000000000003,2
1704351543.672573,371925,1704351543,600059454,ublox_gps,2,15,44.855064299999995,-41.92201975087372,88.699,0.000225,0.0,0.0,0.0,0.000225,0.0,0.0,0.0,0.000169,2
1704351543.8695688,371926,1704351543,800059431,ublox_gps,2,15,44.8550627,-41.92202025087372,88.696,0.00019600000000000002,0.0,0.0,0.0,0.00019600000000000002,0.0,0.0,0.0,0.000144,2
1704351544.073829,371927,1704351544,59408,ublox_gps,2,15,44.8550608,-41.922020550873725,88.686,0.00032399999999999996,0.0,0.0,0.0,0.00032399999999999996,0.0,0.0,0.0,0.000225,2
1704351544.26956,371928,1704351544,200059385,ublox_gps,2,15,44.8550586,-41.922021050873724,88.669,0.000361,0.0,0.0,0.0,0.000361,0.0,0.0,0.0,0.00032399999999999996,2
1704351544.4683917,371929,1704351544,400059362,ublox_gps,2,15,44.8550561,-41.92202145087372,88.673,0.000361,0.0,0.0,0.0,0.000361,0.0,0.0,0.0,0.000256,2
1704351544.6737657,371930,1704351544,600059339,ublox_gps,2,15,44.8550536,-41.922021650873724,88.647,0.00019600000000000002,0.0,0.0,0.0,0.00019600000000000002,0.0,0.0,0.0,0.0001,2
1704351544.8682122,371931,1704351544,800059316,ublox_gps,2,15,44.8550511,-41.92202215087372,88.649,0.00019600000000000002,0.0,0.0,0.0,0.00019600000000000002,0.0,0.0,0.0,0.0001,2
1704351545.063813,371932,1704351545,59293,ublox_gps,2,15,44.8550489,-41.92202205087372,88.672,0.00028900000000000003,0.0,0.0,0.0,0.00028900000000000003,0.0,0.0,0.0,0.00019600000000000002,2
1704351545.2703807,371933,1704351545,200059270,ublox_gps,2,15,44.8550474,-41.922022350873725,88.673,0.00032399999999999996,0.0,0.0,0.0,0.00032399999999999996,0.0,0.0,0.0,0.000225,2
1704351545.4674447,371934,1704351545,400059246,ublox_gps,2,15,44.855046699999995,-41.922022250873724,88.683,0.000361,0.0,0.0,0.0,0.000361,0.0,0.0,0.0,0.000225,2
1704351545.6674118,371935,1704351545,600059223,ublox_gps,2,15,44.8550456,-41.92202265087372,88.705,0.00019600000000000002,0.0,0.0,0.0,0.00019600000000000002,0.0,0.0,0.0,0.0001,2
1704351545.8666937,371936,1704351545,800059200,ublox_gps,2,15,44.855045399999995,-41.922022350873725,88.699,0.00019600000000000002,0.0,0.0,0.0,0.00019600000000000002,0.0,0.0,0.0,0.0001,2
1704351546.0777526,371937,1704351546,59177,ublox_gps,2,15,44.855044899999996,-41.92202255087373,88.702,0.00019600000000000002,0.0,0.0,0.0,0.00019600000000000002,0.0,0.0,0.0,0.0001,2
1704351546.2681444,371938,1704351546,200059154,ublox_gps,2,15,44.8550441,-41.922022450873726,88.708,0.00028900000000000003,0.0,0.0,0.0,0.00028900000000000003,0.0,0.0,0.0,0.000144,2
1704351546.468671,371939,1704351546,400059131,ublox_gps,2,15,44.855043099999996,-41.922022450873726,88.694,0.000256,0.0,0.0,0.0,0.000256,0.0,0.0,0.0,0.0001,2
1704351546.669709,371940,1704351546,600059108,ublox_gps,2,15,44.8550411,-41.92202255087373,88.7,0.00019600000000000002,0.0,0.0,0.0,0.00019600000000000002,0.0,0.0,0.0,0.0001,2
1704351546.8625474,371941,1704351546,800059085,ublox_gps,2,15,44.855038799999996,-41.92202255087373,88.69500000000001,0.00019600000000000002,0.0,0.0,0.0,0.00019600000000000002,0.0,0.0,0.0,0.0001,2
1704351547.0806384,371942,1704351547,59062,ublox_gps,2,15,44.855036299999995,-41.92202265087372,88.699,0.00019600000000000002,0.0,0.0,0.0,0.00019600000000000002,0.0,0.0,0.0,0.0001,2
1704351547.2652779,371943,1704351547,200059038,ublox_gps,2,15,44.8550338,-41.92202275087372,88.69800000000001,0.00019600000000000002,0.0,0.0,0.0,0.00019600000000000002,0.0,0.0,0.0,0.0001,2
1704351547.4681268,371944,1704351547,400059015,ublox_gps,2,15,44.8550314,-41.922022950873725,88.696,0.000225,0.0,0.0,0.0,0.000225,0.0,0.0,0.0,0.00012099999999999999,2
1704351547.6695607,371945,1704351547,600058992,ublox_gps,2,15,44.8550294,-41.922023050873726,88.709,0.00019600000000000002,0.0,0.0,0.0,0.00019600000000000002,0.0,0.0,0.0,0.0001,2
1704351547.8656642,371946,1704351547,800058969,ublox_gps,2,15,44.8550271,-41.92202345087372,88.72500000000001,0.00019600000000000002,0.0,0.0,0.0,0.00019600000000000002,0.0,0.0,0.0,0.0001,2
1704351548.0766435,371947,1704351548,58946,ublox_gps,2,15,44.8550247,-41.92202385087372,88.724,0.00019600000000000002,0.0,0.0,0.0,0.00019600000000000002,0.0,0.0,0.0,0.0001,2
1704351548.26516,371948,1704351548,200058922,ublox_gps,2,15,44.855022399999996,-41.92202455087372,88.726,0.000225,0.0,0.0,0.0,0.000225,0.0,0.0,0.0,0.000169,2
1704351548.4663584,371949,1704351548,400058899,ublox_gps,2,15,44.8550204,-41.922025350873724,88.729,0.000256,0.0,0.0,0.0,0.000256,0.0,0.0,0.0,0.000169,2
1704351548.6601322,371950,1704351548,600058876,ublox_gps,2,15,44.855018099999995,-41.92202625087372,88.729,0.00019600000000000002,0.0,0.0,0.0,0.00019600000000000002,0.0,0.0,0.0,0.0001,2
1704351548.86396,371951,1704351548,800058853,ublox_gps,2,15,44.855016,-41.92202735087373,88.718,0.00019600000000000002,0.0,0.0,0.0,0.00019600000000000002,0.0,0.0,0.0,0.0001,2
1704351549.070196,371952,1704351549,58830,ublox_gps,2,15,44.855013899999996,-41.922028550873726,88.709,0.00019600000000000002,0.0,0.0,0.0,0.00019600000000000002,0.0,0.0,0.0,0.0001,2
1704351549.2685177,371953,1704351549,200058807,ublox_gps,2,15,44.8550118,-41.92202985087373,88.702,0.00019600000000000002,0.0,0.0,0.0,0.00019600000000000002,0.0,0.0,0.0,0.0001,2
1704351549.4652078,371954,1704351549,400058784,ublox_gps,2,15,44.8550098,-41.922030850873725,88.71600000000001,0.00019600000000000002,0.0,0.0,0.0,0.00019600000000000002,0.0,0.0,0.0,0.00012099999999999999,2
1704351549.6676726,371955,1704351549,600058761,ublox_gps,2,15,44.855007799999996,-41.92203185087372,88.70700000000001,0.00019600000000000002,0.0,0.0,0.0,0.00019600000000000002,0.0,0.0,0.0,0.0001,2
1704351549.8648942,371956,1704351549,800058738,ublox_gps,2,15,44.8550056,-41.922032750873726,88.711,0.00019600000000000002,0.0,0.0,0.0,0.00019600000000000002,0.0,0.0,0.0,0.0001,2
1704351550.07371,371957,1704351550,58715,ublox_gps,2,15,44.855003499999995,-41.92203345087373,88.723,0.00019600000000000002,0.0,0.0,0.0,0.00019600000000000002,0.0,0.0,0.0,0.0001,2
1704351550.2657619,371958,1704351550,200058692,ublox_gps,2,15,44.8550013,-41.922033950873725,88.71600000000001,0.00019600000000000002,0.0,0.0,0.0,0.00019600000000000002,0.0,0.0,0.0,0.0001,2
1704351550.4603403,371959,1704351550,400058669,ublox_gps,2,15,44.854999299999996,-41.92203425087372,88.70400000000001,0.00019600000000000002,0.0,0.0,0.0,0.00019600000000000002,0.0,0.0,0.0,0.00012099999999999999,2
1704351550.6645703,371960,1704351550,600058645,ublox_gps,2,15,44.854997,-41.922034450873724,88.672,0.00019600000000000002,0.0,0.0,0.0,0.00019600000000000002,0.0,0.0,0.0,0.000144,2
1704351550.863551,371961,1704351550,800058622,ublox_gps,2,15,44.8549949,-41.92203435087372,88.672,0.00019600000000000002,0.0,0.0,0.0,0.00019600000000000002,0.0,0.0,0.0,0.000169,2
1704351551.0698764,371962,1704351551,58599,ublox_gps,2,15,44.8549929,-41.92203405087373,88.666,0.00019600000000000002,0.0,0.0,0.0,0.00019600000000000002,0.0,0.0,0.0,0.000169,2
1704351551.2805784,371963,1704351551,200058576,ublox_gps,2,15,44.854990799999996,-41.922033850873724,88.669,0.00019600000000000002,0.0,0.0,0.0,0.00019600000000000002,0.0,0.0,0.0,0.00019600000000000002,2
1704351551.465366,371964,1704351551,400058553,ublox_gps,2,15,44.8549888,-41.922033250873724,88.71000000000001,0.00032399999999999996,0.0,0.0,0.0,0.00032399999999999996,0.0,0.0,0.0,0.000361,2
1704351551.6645806,371965,1704351551,600058530,ublox_gps,2,15,44.8549869,-41.92203285087373,88.726,0.00019600000000000002,0.0,0.0,0.0,0.00019600000000000002,0.0,0.0,0.0,0.000144,2
1704351551.8652349,371966,1704351551,800058507,ublox_gps,2,15,44.8549848,-41.92203235087372,88.727,0.00019600000000000002,0.0,0.0,0.0,0.00019600000000000002,0.0,0.0,0.0,0.00012099999999999999,2
1704351552.0700898,371967,1704351552,58483,ublox_gps,2,15,44.8549826,-41.922032050873725,88.715,0.00019600000000000002,0.0,0.0,0.0,0.00019600000000000002,0.0,0.0,0.0,0.00012099999999999999,2
1704351552.2614186,371968,1704351552,200058460,ublox_gps,2,15,44.854980399999995,-41.92203175087372,88.70400000000001,0.00019600000000000002,0.0,0.0,0.0,0.00019600000000000002,0.0,0.0,0.0,0.0001,2
1704351552.4691484,371969,1704351552,400058437,ublox_gps,2,15,44.8549783,-41.92203165087373,88.7,0.00019600000000000002,0.0,0.0,0.0,0.00019600000000000002,0.0,0.0,0.0,0.00012099999999999999,2
1704351552.665076,371970,1704351552,600058414,ublox_gps,2,15,44.854976199999996,-41.922031550873726,88.702,0.000225,0.0,0.0,0.0,0.000225,0.0,0.0,0.0,0.00012099999999999999,2
1704351552.8649282,371971,1704351552,800058391,ublox_gps,2,15,44.8549741,-41.922031550873726,88.69500000000001,0.00019600000000000002,0.0,0.0,0.0,0.00019600000000000002,0.0,0.0,0.0,0.0001,2
1704351553.0694373,371972,1704351553,58368,ublox_gps,2,15,44.8549717,-41.92203165087373,88.709,0.00019600000000000002,0.0,0.0,0.0,0.00019600000000000002,0.0,0.0,0.0,0.00012099999999999999,2
1704351553.2651167,371973,1704351553,200058345,ublox_gps,2,15,44.8549698,-41.92203195087372,88.697,0.00019600000000000002,0.0,0.0,0.0,0.00019600000000000002,0.0,0.0,0.0,0.0001,2
1704351553.4663966,371974,1704351553,400058322,ublox_gps,2,15,44.8549681,-41.922032150873726,88.703,0.000225,0.0,0.0,0.0,0.000225,0.0,0.0,0.0,0.00012099999999999999,2
1704351553.6667428,371975,1704351553,600058299,ublox_gps,2,15,44.8549674,-41.92203225087373,88.709,0.00019600000000000002,0.0,0.0,0.0,0.00019600000000000002,0.0,0.0,0.0,0.0001,2
1704351553.864653,371976,1704351553,800058276,ublox_gps,2,15,44.854966499999996,-41.92203235087372,88.69,0.00019600000000000002,0.0,0.0,0.0,0.00019600000000000002,0.0,0.0,0.0,0.0001,2
1704351554.0727434,371977,1704351554,58253,ublox_gps,2,15,44.8549656,-41.92203245087372,88.69800000000001,0.00019600000000000002,0.0,0.0,0.0,0.00019600000000000002,0.0,0.0,0.0,0.0001,2
1704351554.2673326,371978,1704351554,200058230,ublox_gps,2,15,44.854964599999995,-41.92203255087372,88.705,0.00019600000000000002,0.0,0.0,0.0,0.00019600000000000002,0.0,0.0,0.0,0.0001,2
1704351554.4663546,371979,1704351554,400058207,ublox_gps,2,15,44.8549637,-41.922032650873724,88.69800000000001,0.00019600000000000002,0.0,0.0,0.0,0.00019600000000000002,0.0,0.0,0.0,0.0001,2
1704351554.6675937,371980,1704351554,600058184,ublox_gps,2,15,44.854962799999996,-41.922032650873724,88.708,0.00019600000000000002,0.0,0.0,0.0,0.00019600000000000002,0.0,0.0,0.0,0.0001,2
1704351554.866548,371981,1704351554,800058161,ublox_gps,2,15,44.8549619,-41.922032650873724,88.70700000000001,0.00019600000000000002,0.0,0.0,0.0,0.00019600000000000002,0.0,0.0,0.0,0.0001,2
1704351555.071536,371982,1704351555,58138,ublox_gps,2,15,44.854960999999996,-41.922032750873726,88.711,0.00019600000000000002,0.0,0.0,0.0,0.00019600000000000002,0.0,0.0,0.0,0.0001,2
1704351555.2682722,371983,1704351555,200058115,ublox_gps,2,15,44.85496,-41.922032750873726,88.703,0.00019600000000000002,0.0,0.0,0.0,0.00019600000000000002,0.0,0.0,0.0,0.0001,2
1704351555.469453,371984,1704351555,400058092,ublox_gps,2,15,44.854959199999996,-41.92203285087373,88.70700000000001,0.00019600000000000002,0.0,0.0,0.0,0.00019600000000000002,0.0,0.0,0.0,0.0001,2
1704351555.6666682,371985,1704351555,600058069,ublox_gps,2,15,44.854957899999995,-41.92203295087372,88.699,0.00019600000000000002,0.0,0.0,0.0,0.00019600000000000002,0.0,0.0,0.0,0.0001,2
1704351555.8603878,371986,1704351555,800058046,ublox_gps,2,15,44.8549569,-41.92203295087372,88.685,0.00019600000000000002,0.0,0.0,0.0,0.00019600000000000002,0.0,0.0,0.0,0.0001,2
1704351556.0795195,371987,1704351556,58023,ublox_gps,2,15,44.854956099999995,-41.92203295087372,88.69,0.00019600000000000002,0.0,0.0,0.0,0.00019600000000000002,0.0,0.0,0.0,0.00012099999999999999,2
1704351556.2655048,371988,1704351556,200058000,ublox_gps,2,15,44.8549554,-41.92203285087373,88.696,0.000256,0.0,0.0,0.0,0.000256,0.0,0.0,0.0,0.000256,2
1704351556.4685512,371989,1704351556,400057977,ublox_gps,2,15,44.8549545,-41.92203285087373,88.70400000000001,0.00019600000000000002,0.0,0.0,0.0,0.00019600000000000002,0.0,0.0,0.0,0.00019600000000000002,2
1704351556.6696622,371990,1704351556,600057954,ublox_gps,2,15,44.8549533,-41.92203285087373,88.682,0.00019600000000000002,0.0,0.0,0.0,0.00019600000000000002,0.0,0.0,0.0,0.0001,2
1704351556.8684177,371991,1704351556,800057930,ublox_gps,2,15,44.854952499999996,-41.92203285087373,88.665,0.00019600000000000002,0.0,0.0,0.0,0.00019600000000000002,0.0,0.0,0.0,0.0001,2
1704351557.0734265,371992,1704351557,57907,ublox_gps,2,15,44.8549515,-41.922032750873726,88.666,0.00019600000000000002,0.0,0.0,0.0,0.00019600000000000002,0.0,0.0,0.0,0.00012099999999999999,2
1704351557.2833352,371993,1704351557,200057884,ublox_gps,2,15,44.8549505,-41.922032750873726,88.676,0.00019600000000000002,0.0,0.0,0.0,0.00019600000000000002,0.0,0.0,0.0,0.00012099999999999999,2
1704351557.465482,371994,1704351557,400057861,ublox_gps,2,15,44.854950099999996,-41.922032650873724,88.694,0.00028900000000000003,0.0,0.0,0.0,0.00028900000000000003,0.0,0.0,0.0,0.000169,2
1704351557.6612356,371995,1704351557,600057838,ublox_gps,2,15,44.8549492,-41.922032650873724,88.714,0.00019600000000000002,0.0,0.0,0.0,0.00019600000000000002,0.0,0.0,0.0,0.0001,2
1704351557.8714426,371996,1704351557,800057814,ublox_gps,2,15,44.8549483,-41.92203245087372,88.71300000000001,0.00019600000000000002,0.0,0.0,0.0,0.00019600000000000002,0.0,0.0,0.0,0.0001,2
1704351558.0697217,371997,1704351558,57791,ublox_gps,2,15,44.8549473,-41.92203245087372,88.73400000000001,0.00019600000000000002,0.0,0.0,0.0,0.00019600000000000002,0.0,0.0,0.0,0.0001,2
1704351558.2655187,371998,1704351558,200057768,ublox_gps,2,15,44.8549466,-41.92203245087372,88.74,0.00019600000000000002,0.0,0.0,0.0,0.00019600000000000002,0.0,0.0,0.0,0.0001,2
1704351558.4662623,371999,1704351558,400057745,ublox_gps,2,15,44.8549456,-41.92203245087372,88.723,0.00019600000000000002,0.0,0.0,0.0,0.00019600000000000002,0.0,0.0,0.0,0.0001,2
1704351558.66663,372000,1704351558,600057722,ublox_gps,2,15,44.8549448,-41.92203245087372,88.721,0.00019600000000000002,0.0,0.0,0.0,0.00019600000000000002,0.0,0.0,0.0,0.0001,2
1704351558.868434,372001,1704351558,800057698,ublox_gps,2,15,44.8549438,-41.92203235087372,88.70400000000001,0.00019600000000000002,0.0,0.0,0.0,0.00019600000000000002,0.0,0.0,0.0,0.0001,2
1704351559.0738003,372002,1704351559,57675,ublox_gps,2,15,44.8549426,-41.92203225087373,88.70400000000001,0.00019600000000000002,0.0,0.0,0.0,0.00019600000000000002,0.0,0.0,0.0,0.0001,2
1704351559.2715232,372003,1704351559,200057652,ublox_gps,2,15,44.8549414,-41.922032150873726,88.70700000000001,0.00019600000000000002,0.0,0.0,0.0,0.00019600000000000002,0.0,0.0,0.0,0.0001,2
1704351559.462142,372004,1704351559,400057629,ublox_gps,2,15,44.8549405,-41.922032150873726,88.69800000000001,0.00019600000000000002,0.0,0.0,0.0,0.00019600000000000002,0.0,0.0,0.0,0.0001,2
1704351559.668631,372005,1704351559,600057606,ublox_gps,2,15,44.854939699999996,-41.92203225087373,88.708,0.00019600000000000002,0.0,0.0,0.0,0.00019600000000000002,0.0,0.0,0.0,0.0001,2
1704351559.866618,372006,1704351559,800057583,ublox_gps,2,15,44.854939099999996,-41.922032050873725,88.71900000000001,0.00019600000000000002,0.0,0.0,0.0,0.00019600000000000002,0.0,0.0,0.0,0.0001,2
1704351560.0726743,372007,1704351560,57559,ublox_gps,2,15,44.854938399999995,-41.92203225087373,88.718,0.00019600000000000002,0.0,0.0,0.0,0.00019600000000000002,0.0,0.0,0.0,0.0001,2
1704351560.2701619,372008,1704351560,200057536,ublox_gps,2,15,44.8549376,-41.92203225087373,88.714,0.00019600000000000002,0.0,0.0,0.0,0.00019600000000000002,0.0,0.0,0.0,0.0001,2
1704351560.4686446,372009,1704351560,400057513,ublox_gps,2,15,44.854937199999995,-41.92203235087372,88.71000000000001,0.00019600000000000002,0.0,0.0,0.0,0.00019600000000000002,0.0,0.0,0.0,0.0001,2
1704351560.667541,372010,1704351560,600057490,ublox_gps,2,15,44.8549369,-41.92203235087372,88.70400000000001,0.00019600000000000002,0.0,0.0,0.0,0.00019600000000000002,0.0,0.0,0.0,0.0001,2
1704351560.8672879,372011,1704351560,800057467,ublox_gps,2,15,44.854936099999996,-41.92203245087372,88.71000000000001,0.00019600000000000002,0.0,0.0,0.0,0.00019600000000000002,0.0,0.0,0.0,0.0001,2
1704351561.073467,372012,1704351561,57444,ublox_gps,2,15,44.8549351,-41.92203255087372,88.697,0.00019600000000000002,0.0,0.0,0.0,0.00019600000000000002,0.0,0.0,0.0,0.0001,2
1704351561.2665646,372013,1704351561,200057421,ublox_gps,2,15,44.8549341,-41.92203245087372,88.706,0.00019600000000000002,0.0,0.0,0.0,0.00019600000000000002,0.0,0.0,0.0,0.0001,2
1704351561.4695392,372014,1704351561,400057398,ublox_gps,2,15,44.8549331,-41.922032650873724,88.711,0.00019600000000000002,0.0,0.0,0.0,0.00019600000000000002,0.0,0.0,0.0,0.0001,2
1704351561.6674259,372015,1704351561,600057375,ublox_gps,2,15,44.8549322,-41.922032650873724,88.72200000000001,0.00019600000000000002,0.0,0.0,0.0,0.00019600000000000002,0.0,0.0,0.0,0.0001,2
1704351561.8714452,372016,1704351561,800057352,ublox_gps,2,15,44.8549313,-41.922032750873726,88.708,0.00019600000000000002,0.0,0.0,0.0,0.00019600000000000002,0.0,0.0,0.0,0.0001,2
1704351562.0755484,372017,1704351562,57328,ublox_gps,2,15,44.8549304,-41.922032750873726,88.714,0.00019600000000000002,0.0,0.0,0.0,0.00019600000000000002,0.0,0.0,0.0,0.0001,2
1704351562.2641609,372018,1704351562,200057305,ublox_gps,2,15,44.8549295,-41.92203285087373,88.69200000000001,0.00019600000000000002,0.0,0.0,0.0,0.00019600000000000002,0.0,0.0,0.0,0.0001,2
1704351562.467729,372019,1704351562,400057282,ublox_gps,2,15,44.8549286,-41.92203295087372,88.679,0.00019600000000000002,0.0,0.0,0.0,0.00019600000000000002,0.0,0.0,0.0,0.0001,2
1704351562.6692977,372020,1704351562,600057259,ublox_gps,2,15,44.854927499999995,-41.92203295087372,88.673,0.00019600000000000002,0.0,0.0,0.0,0.00019600000000000002,0.0,0.0,0.0,0.0001,2
1704351562.865393,372021,1704351562,800057236,ublox_gps,2,15,44.8549266,-41.92203295087372,88.671,0.00019600000000000002,0.0,0.0,0.0,0.00019600000000000002,0.0,0.0,0.0,0.0001,2
1704351563.065318,372022,1704351563,57212,ublox_gps,2,15,44.8549258,-41.92203295087372,88.682,0.00019600000000000002,0.0,0.0,0.0,0.00019600000000000002,0.0,0.0,0.0,0.00012099999999999999,2
1704351563.2675111,372023,1704351563,200057189,ublox_gps,2,15,44.8549248,-41.92203285087373,88.682,0.00019600000000000002,0.0,0.0,0.0,0.00019600000000000002,0.0,0.0,0.0,0.00012099999999999999,2
1704351563.4692948,372024,1704351563,400057166,ublox_gps,2,15,44.854924,-41.92203295087372,88.696,0.00019600000000000002,0.0,0.0,0.0,0.00019600000000000002,0.0,0.0,0.0,0.000144,2
1704351563.669687,372025,1704351563,600057143,ublox_gps,2,15,44.8549231,-41.922032750873726,88.679,0.00019600000000000002,0.0,0.0,0.0,0.00019600000000000002,0.0,0.0,0.0,0.000144,2
1704351563.868678,372026,1704351563,800057120,ublox_gps,2,15,44.854922099999996,-41.922032750873726,88.684,0.00019600000000000002,0.0,0.0,0.0,0.00019600000000000002,0.0,0.0,0.0,0.000144,2
1704351564.0786748,372027,1704351564,57097,ublox_gps,2,15,44.8549211,-41.922032650873724,88.678,0.00019600000000000002,0.0,0.0,0.0,0.00019600000000000002,0.0,0.0,0.0,0.000144,2
1704351564.2653859,372028,1704351564,200057074,ublox_gps,2,15,44.854920299999996,-41.922032650873724,88.693,0.00032399999999999996,0.0,0.0,0.0,0.00032399999999999996,0.0,0.0,0.0,0.00028900000000000003,2
1704351564.4642465,372029,1704351564,400057050,ublox_gps,2,15,44.854919599999995,-41.922032650873724,88.699,0.00028900000000000003,0.0,0.0,0.0,0.00028900000000000003,0.0,0.0,0.0,0.000225,2
1704351564.6643617,372030,1704351564,600057027,ublox_gps,2,15,44.8549186,-41.92203245087372,88.70700000000001,0.00019600000000000002,0.0,0.0,0.0,0.00019600000000000002,0.0,0.0,0.0,0.0001,2
1704351564.8617215,372031,1704351564,800057004,ublox_gps,2,15,44.8549177,-41.92203245087372,88.717,0.00019600000000000002,0.0,0.0,0.0,0.00019600000000000002,0.0,0.0,0.0,0.0001,2
1704351565.0734704,372032,1704351565,56981,ublox_gps,2,15,44.8549168,-41.92203245087372,88.70700000000001,0.00019600000000000002,0.0,0.0,0.0,0.00019600000000000002,0.0,0.0,0.0,0.0001,2
1704351565.2673514,372033,1704351565,200056958,ublox_gps,2,15,44.8549158,-41.92203255087372,88.714,0.00019600000000000002,0.0,0.0,0.0,0.00019600000000000002,0.0,0.0,0.0,0.0001,2
1704351565.464982,372034,1704351565,400056935,ublox_gps,2,15,44.8549149,-41.92203245087372,88.712,0.00019600000000000002,0.0,0.0,0.0,0.00019600000000000002,0.0,0.0,0.0,0.0001,2
1704351565.6653721,372035,1704351565,600056912,ublox_gps,2,15,44.854914199999996,-41.92203245087372,88.7,0.00019600000000000002,0.0,0.0,0.0,0.00019600000000000002,0.0,0.0,0.0,0.0001,2
1704351565.8644698,372036,1704351565,800056889,ublox_gps,2,15,44.8549132,-41.92203245087372,88.718,0.00019600000000000002,0.0,0.0,0.0,0.00019600000000000002,0.0,0.0,0.0,0.0001,2
1704351566.0745947,372037,1704351566,56866,ublox_gps,2,15,44.854912299999995,-41.922032650873724,88.7,0.00019600000000000002,0.0,0.0,0.0,0.00019600000000000002,0.0,0.0,0.0,0.0001,2
1704351566.265278,372038,1704351566,200056843,ublox_gps,2,15,44.8549115,-41.92203255087372,88.693,0.00019600000000000002,0.0,0.0,0.0,0.00019600000000000002,0.0,0.0,0.0,0.0001,2
1704351566.4639099,372039,1704351566,400056820,ublox_gps,2,15,44.8549106,-41.922032650873724,88.68900000000001,0.00019600000000000002,0.0,0.0,0.0,0.00019600000000000002,0.0,0.0,0.0,0.0001,2
1704351566.6612074,372040,1704351566,600056796,ublox_gps,2,15,44.8549096,-41.922032750873726,88.693,0.00019600000000000002,0.0,0.0,0.0,0.00019600000000000002,0.0,0.0,0.0,0.0001,2
1704351566.873965,372041,1704351566,800056773,ublox_gps,2,15,44.8549089,-41.922032650873724,88.706,0.00019600000000000002,0.0,0.0,0.0,0.00019600000000000002,0.0,0.0,0.0,0.0001,2
1704351567.0702205,372042,1704351567,56750,ublox_gps,2,15,44.8549083,-41.922032650873724,88.735,0.00019600000000000002,0.0,0.0,0.0,0.00019600000000000002,0.0,0.0,0.0,0.0001,2
1704351567.2692022,372043,1704351567,200056727,ublox_gps,2,15,44.8549073,-41.922032750873726,88.715,0.00019600000000000002,0.0,0.0,0.0,0.00019600000000000002,0.0,0.0,0.0,0.0001,2
1704351567.4662828,372044,1704351567,400056704,ublox_gps,2,15,44.854906299999996,-41.922032750873726,88.72,0.00019600000000000002,0.0,0.0,0.0,0.00019600000000000002,0.0,0.0,0.0,0.0001,2
1704351567.6657732,372045,1704351567,600056681,ublox_gps,2,15,44.8549054,-41.92203285087373,88.72,0.00019600000000000002,0.0,0.0,0.0,0.00019600000000000002,0.0,0.0,0.0,0.0001,2
1704351567.8655646,372046,1704351567,800056657,ublox_gps,2,15,44.8549046,-41.92203295087372,88.718,0.00019600000000000002,0.0,0.0,0.0,0.00019600000000000002,0.0,0.0,0.0,0.0001,2
1704351568.0750892,372047,1704351568,56634,ublox_gps,2,15,44.854903799999995,-41.92203295087372,88.726,0.00019600000000000002,0.0,0.0,0.0,0.00019600000000000002,0.0,0.0,0.0,0.0001,2
1704351568.268164,372048,1704351568,200056611,ublox_gps,2,15,44.8549027,-41.92203315087372,88.718,0.00019600000000000002,0.0,0.0,0.0,0.00019600000000000002,0.0,0.0,0.0,0.0001,2
1704351568.460689,372049,1704351568,400056588,ublox_gps,2,15,44.854901899999994,-41.92203305087372,88.73,0.00019600000000000002,0.0,0.0,0.0,0.00019600000000000002,0.0,0.0,0.0,0.0001,2
1704351568.6703506,372050,1704351568,600056565,ublox_gps,2,15,44.8549009,-41.922033250873724,88.696,0.00019600000000000002,0.0,0.0,0.0,0.00019600000000000002,0.0,0.0,0.0,0.0001,2
1704351568.86491,372051,1704351568,800056542,ublox_gps,2,15,44.8548999,-41.922033350873726,88.683,0.00019600000000000002,0.0,0.0,0.0,0.00019600000000000002,0.0,0.0,0.0,0.0001,2
1704351569.0703962,372052,1704351569,56518,ublox_gps,2,15,44.854898999999996,-41.922033350873726,88.688,0.00019600000000000002,0.0,0.0,0.0,0.00019600000000000002,0.0,0.0,0.0,0.0001,2
1704351569.265423,372053,1704351569,200056495,ublox_gps,2,15,44.854898,-41.92203355087372,88.681,0.00019600000000000002,0.0,0.0,0.0,0.00019600000000000002,0.0,0.0,0.0,0.0001,2
1704351569.463995,372054,1704351569,400056472,ublox_gps,2,15,44.854897199999996,-41.92203355087372,88.68,0.00019600000000000002,0.0,0.0,0.0,0.00019600000000000002,0.0,0.0,0.0,0.0001,2
1704351569.6653328,372055,1704351569,600056449,ublox_gps,2,15,44.8548962,-41.92203375087372,88.691,0.00019600000000000002,0.0,0.0,0.0,0.00019600000000000002,0.0,0.0,0.0,0.0001,2
1704351569.8675797,372056,1704351569,800056426,ublox_gps,2,15,44.8548956,-41.922033950873725,88.687,0.00019600000000000002,0.0,0.0,0.0,0.00019600000000000002,0.0,0.0,0.0,0.0001,2
1704351570.0743086,372057,1704351570,56403,ublox_gps,2,15,44.8548949,-41.92203405087373,88.688,0.00019600000000000002,0.0,0.0,0.0,0.00019600000000000002,0.0,0.0,0.0,0.0001,2
1704351570.2600749,372058,1704351570,200056380,ublox_gps,2,15,44.8548945,-41.92203415087372,88.708,0.00019600000000000002,0.0,0.0,0.0,0.00019600000000000002,0.0,0.0,0.0,0.0001,2
1704351570.465516,372059,1704351570,400056357,ublox_gps,2,15,44.854893999999994,-41.92203425087372,88.711,0.00019600000000000002,0.0,0.0,0.0,0.00019600000000000002,0.0,0.0,0.0,0.0001,2
1704351570.6654217,372060,1704351570,600056334,ublox_gps,2,15,44.8548933,-41.922034450873724,88.688,0.00019600000000000002,0.0,0.0,0.0,0.00019600000000000002,0.0,0.0,0.0,0.0001,2
1704351570.865302,372061,1704351570,800056311,ublox_gps,2,15,44.8548926,-41.92203465087373,88.68900000000001,0.00019600000000000002,0.0,0.0,0.0,0.00019600000000000002,0.0,0.0,0.0,0.0001,2
1704351571.0711784,372062,1704351571,56287,ublox_gps,2,15,44.854891699999996,-41.92203475087372,88.71000000000001,0.00019600000000000002,0.0,0.0,0.0,0.00019600000000000002,0.0,0.0,0.0,0.0001,2
1704351571.2654686,372063,1704351571,200056264,ublox_gps,2,15,44.8548903,-41.922035150873725,88.709,0.00019600000000000002,0.0,0.0,0.0,0.00019600000000000002,0.0,0.0,0.0,0.0001,2
1704351571.4666512,372064,1704351571,400056241,ublox_gps,2,15,44.8548884,-41.92203555087372,88.69200000000001,0.00019600000000000002,0.0,0.0,0.0,0.00019600000000000002,0.0,0.0,0.0,0.0001,2
1704351571.6733973,372065,1704351571,600056218,ublox_gps,2,15,44.854886099999995,-41.922036350873725,88.712,0.00019600000000000002,0.0,0.0,0.0,0.00019600000000000002,0.0,0.0,0.0,0.0001,2
1704351571.8666666,372066,1704351571,800056195,ublox_gps,2,15,44.854883699999995,-41.92203725087372,88.71000000000001,0.00019600000000000002,0.0,0.0,0.0,0.00019600000000000002,0.0,0.0,0.0,0.0001,2
1704351572.0691683,372067,1704351572,56172,ublox_gps,2,15,44.8548814,-41.92203835087373,88.70400000000001,0.00019600000000000002,0.0,0.0,0.0,0.00019600000000000002,0.0,0.0,0.0,0.0001,2
1704351572.2696157,372068,1704351572,200056149,ublox_gps,2,15,44.8548791,-41.92203965087372,88.69800000000001,0.00019600000000000002,0.0,0.0,0.0,0.00019600000000000002,0.0,0.0,0.0,0.0001,2
1704351572.469361,372069,1704351572,400056126,ublox_gps,2,15,44.8548769,-41.922041150873724,88.70400000000001,0.00019600000000000002,0.0,0.0,0.0,0.00019600000000000002,0.0,0.0,0.0,0.00012099999999999999,2
1704351572.6703072,372070,1704351572,600056103,ublox_gps,2,15,44.8548745,-41.922042550873726,88.71000000000001,0.00019600000000000002,0.0,0.0,0.0,0.00019600000000000002,0.0,0.0,0.0,0.0001,2
1704351572.8680482,372071,1704351572,800056080,ublox_gps,2,15,44.8548723,-41.922044250873725,88.712,0.00019600000000000002,0.0,0.0,0.0,0.00019600000000000002,0.0,0.0,0.0,0.0001,2
1704351573.0773792,372072,1704351573,56056,ublox_gps,2,15,44.8548701,-41.92204575087372,88.72500000000001,0.00019600000000000002,0.0,0.0,0.0,0.00019600000000000002,0.0,0.0,0.0,0.0001,2
1704351573.2722428,372073,1704351573,200056033,ublox_gps,0,15,44.8548678,-41.922047250873725,88.72500000000001,0.00019600000000000002,0.0,0.0,0.0,0.00019600000000000002,0.0,0.0,0.0,0.00012099999999999999,2
1704351573.4683146,372074,1704351573,400056010,ublox_gps,0,15,44.8548657,-41.92204865087373,88.718,0.000225,0.0,0.0,0.0,0.000225,0.0,0.0,0.0,0.000144,2
1704351573.6652894,372075,1704351573,600055987,ublox_gps,2,15,44.854862,-41.92204955087372,88.666,0.000256,0.0,0.0,0.0,0.000256,0.0,0.0,0.0,0.00032399999999999996,2
1704351573.8621686,372076,1704351573,800055964,ublox_gps,2,15,44.8548597,-41.922050350873725,88.66,0.000225,0.0,0.0,0.0,0.000225,0.0,0.0,0.0,0.000225,2
1704351574.0726197,372077,1704351574,55941,ublox_gps,2,15,44.8548573,-41.92205115087373,88.668,0.000225,0.0,0.0,0.0,0.000225,0.0,0.0,0.0,0.000225,2
1704351574.2681267,372078,1704351574,200055917,ublox_gps,2,15,44.854855099999995,-41.922051650873726,88.69200000000001,0.000225,0.0,0.0,0.0,0.000225,0.0,0.0,0.0,0.000225,2
1704351574.46553,372079,1704351574,400055894,ublox_gps,2,15,44.854852799999996,-41.922052150873725,88.682,0.000225,0.0,0.0,0.0,0.000225,0.0,0.0,0.0,0.000256,2
1704351574.6705837,372080,1704351574,600055871,ublox_gps,2,15,44.8548513,-41.922052650873724,88.727,0.00019600000000000002,0.0,0.0,0.0,0.00019600000000000002,0.0,0.0,0.0,0.000144,2
1704351574.8642106,372081,1704351574,800055848,ublox_gps,2,15,44.8548489,-41.92205315087372,88.756,0.00019600000000000002,0.0,0.0,0.0,0.00019600000000000002,0.0,0.0,0.0,0.000144,2
1704351575.0796893,372082,1704351575,55824,ublox_gps,2,15,44.8548464,-41.922053450873726,88.759,0.00019600000000000002,0.0,0.0,0.0,0.00019600000000000002,0.0,0.0,0.0,0.000169,2
1704351575.267836,372083,1704351575,200055801,ublox_gps,2,15,44.8548441,-41.92205365087372,88.72500000000001,0.000256,0.0,0.0,0.0,0.000256,0.0,0.0,0.0,0.00019600000000000002,2
1704351575.465562,372084,1704351575,400055778,ublox_gps,2,15,44.854841799999996,-41.922053950873725,88.74,0.00028900000000000003,0.0,0.0,0.0,0.00028900000000000003,0.0,0.0,0.0,0.00019600000000000002,2
1704351575.6624672,372085,1704351575,600055755,ublox_gps,0,15,44.854839399999996,-41.92205425087372,88.727,0.00019600000000000002,0.0,0.0,0.0,0.00019600000000000002,0.0,0.0,0.0,0.0001,2
1704351575.8700573,372086,1704351575,800055732,ublox_gps,0,15,44.854836899999995,-41.922054550873725,88.723,0.00019600000000000002,0.0,0.0,0.0,0.00019600000000000002,0.0,0.0,0.0,0.0001,2
1704351576.0764115,372087,1704351576,55708,ublox_gps,0,15,44.854834499999996,-41.92205485087372,88.761,0.00019600000000000002,0.0,0.0,0.0,0.00019600000000000002,0.0,0.0,0.0,0.00012099999999999999,2
1704351576.2646585,372088,1704351576,200055685,ublox_gps,0,15,44.854832099999996,-41.922054650873726,88.802,0.000361,0.0,0.0,0.0,0.000361,0.0,0.0,0.0,0.000169,2
1704351576.4685118,372089,1704351576,400055662,ublox_gps,0,15,44.8548299,-41.922055250873726,88.776,0.00048399999999999995,0.0,0.0,0.0,0.00048399999999999995,0.0,0.0,0.0,0.00019600000000000002,2
1704351576.6685421,372090,1704351576,600055639,ublox_gps,0,15,44.854827,-41.922055250873726,88.752,0.00032399999999999996,0.0,0.0,0.0,0.00032399999999999996,0.0,0.0,0.0,0.000144,2
1704351576.868285,372091,1704351576,800055616,ublox_gps,0,15,44.8548244,-41.92205545087372,88.77,0.00028900000000000003,0.0,0.0,0.0,0.00028900000000000003,0.0,0.0,0.0,0.000169,2
1704351577.0740714,372092,1704351577,55593,ublox_gps,0,15,44.8548222,-41.92205555087372,88.756,0.000676,0.0,0.0,0.0,0.000676,0.0,0.0,0.0,0.00032399999999999996,2
1704351577.2653394,372093,1704351577,200055569,ublox_gps,0,15,44.85482,-41.922055850873726,88.752,0.0012959999999999998,0.0,0.0,0.0,0.0012959999999999998,0.0,0.0,0.0,0.000361,2
1704351577.4555714,372094,1704351577,400055546,ublox_gps,0,15,44.8548177,-41.922056350873724,88.752,0.0025000000000000005,0.0,0.0,0.0,0.0025000000000000005,0.0,0.0,0.0,0.0010890000000000001,2
1704351577.6626613,372095,1704351577,600055523,ublox_gps,0,15,44.8548154,-41.922056950873724,88.749,0.003969,0.0,0.0,0.0,0.003969,0.0,0.0,0.0,0.0026009999999999996,2
1704351577.8622005,372096,1704351577,800055500,ublox_gps,0,15,44.8548134,-41.922057550873724,88.764,0.005625,0.0,0.0,0.0,0.005625,0.0,0.0,0.0,0.0046240000000000005,2
1704351578.0700574,372097,1704351578,55477,ublox_gps,0,15,44.8548112,-41.922058750873724,88.759,0.007225000000000001,0.0,0.0,0.0,0.007225000000000001,0.0,0.0,0.0,0.007056000000000001,2
1704351578.2711515,372098,1704351578,200055454,ublox_gps,0,15,44.854808999999996,-41.92206035087372,88.785,0.008836,0.0,0.0,0.0,0.008836,0.0,0.0,0.0,0.009801,2
1704351578.466566,372099,1704351578,400055430,ublox_gps,0,15,44.8548058,-41.92206265087373,88.82900000000001,0.0013689999999999998,0.0,0.0,0.0,0.0013689999999999998,0.0,0.0,0.0,0.001024,2
1704351578.6701224,372100,1704351578,600055407,ublox_gps,2,15,44.8548042,-41.92206415087372,88.904,0.00019600000000000002,0.0,0.0,0.0,0.00019600000000000002,0.0,0.0,0.0,0.0001,2
1704351578.863694,372101,1704351578,800055384,ublox_gps,2,15,44.8548025,-41.922066650873724,88.934,0.0004,0.0,0.0,0.0,0.0004,0.0,0.0,0.0,0.000256,2
1704351579.0685673,372102,1704351579,55361,ublox_gps,0,15,44.8548006,-41.92206895087372,88.941,0.000529,0.0,0.0,0.0,0.000529,0.0,0.0,0.0,0.000576,2
1704351579.261449,372103,1704351579,200055338,ublox_gps,0,15,44.8547985,-41.92207145087372,88.919,0.000576,0.0,0.0,0.0,0.000576,0.0,0.0,0.0,0.0007289999999999999,2
1704351579.470299,372104,1704351579,400055315,ublox_gps,2,15,44.854796799999995,-41.92207385087372,88.854,0.00019600000000000002,0.0,0.0,0.0,0.00019600000000000002,0.0,0.0,0.0,0.00028900000000000003,2
1704351579.6640203,372105,1704351579,600055292,ublox_gps,2,15,44.8547952,-41.92207625087372,88.857,0.00019600000000000002,0.0,0.0,0.0,0.00019600000000000002,0.0,0.0,0.0,0.000225,2
1704351579.8675554,372106,1704351579,800055269,ublox_gps,2,15,44.8547936,-41.92207875087372,88.848,0.00019600000000000002,0.0,0.0,0.0,0.00019600000000000002,0.0,0.0,0.0,0.00019600000000000002,2
1704351580.0690289,372107,1704351580,55246,ublox_gps,2,15,44.854791899999995,-41.92208115087372,88.84700000000001,0.00019600000000000002,0.0,0.0,0.0,0.00019600000000000002,0.0,0.0,0.0,0.000169,2
1704351580.2649267,372108,1704351580,200055222,ublox_gps,2,15,44.8547903,-41.92208395087373,88.868,0.00019600000000000002,0.0,0.0,0.0,0.00019600000000000002,0.0,0.0,0.0,0.00019600000000000002,2
1704351580.466582,372109,1704351580,400055199,ublox_gps,2,15,44.8547888,-41.922086750873724,88.9,0.00019600000000000002,0.0,0.0,0.0,0.00019600000000000002,0.0,0.0,0.0,0.000169,2
1704351580.6653717,372110,1704351580,600055176,ublox_gps,2,15,44.8547873,-41.922089350873726,88.884,0.00019600000000000002,0.0,0.0,0.0,0.00019600000000000002,0.0,0.0,0.0,0.0001,2
1704351580.8685765,372111,1704351580,800055153,ublox_gps,2,15,44.8547862,-41.92209275087372,88.886,0.00019600000000000002,0.0,0.0,0.0,0.00019600000000000002,0.0,0.0,0.0,0.0001,2
1704351581.068281,372112,1704351581,55130,ublox_gps,2,15,44.854785199999995,-41.92209555087372,88.894,0.00019600000000000002,0.0,0.0,0.0,0.00019600000000000002,0.0,0.0,0.0,0.00012099999999999999,2
1704351581.2695482,372113,1704351581,200055107,ublox_gps,2,15,44.8547844,-41.922099050873726,88.934,0.00019600000000000002,0.0,0.0,0.0,0.00019600000000000002,0.0,0.0,0.0,0.000144,2
1704351581.4646506,372114,1704351581,400055084,ublox_gps,2,15,44.8547837,-41.92210235087372,88.907,0.00019600000000000002,0.0,0.0,0.0,0.00019600000000000002,0.0,0.0,0.0,0.000144,2
1704351581.6693122,372115,1704351581,600055060,ublox_gps,2,15,44.854783499999996,-41.922105750873726,88.946,0.000256,0.0,0.0,0.0,0.000256,0.0,0.0,0.0,0.00019600000000000002,2
1704351581.87025,372116,1704351581,800055037,ublox_gps,2,15,44.854783499999996,-41.922109250873724,88.958,0.000225,0.0,0.0,0.0,0.000225,0.0,0.0,0.0,0.000144,2
1704351582.0705647,372117,1704351582,55014,ublox_gps,2,15,44.8547833,-41.92211265087372,88.949,0.00019600000000000002,0.0,0.0,0.0,0.00019600000000000002,0.0,0.0,0.0,0.000144,2
1704351582.2654724,372118,1704351582,200054990,ublox_gps,2,15,44.8547832,-41.92211615087373,88.94200000000001,0.00019600000000000002,0.0,0.0,0.0,0.00019600000000000002,0.0,0.0,0.0,0.000144,2
1704351582.4664898,372119,1704351582,400054967,ublox_gps,0,15,44.854783499999996,-41.922119750873726,88.974,0.000225,0.0,0.0,0.0,0.000225,0.0,0.0,0.0,0.000144,2
1704351582.66664,372120,1704351582,600054944,ublox_gps,0,15,44.8547836,-41.92212315087372,88.967,0.00019600000000000002,0.0,0.0,0.0,0.00019600000000000002,0.0,0.0,0.0,0.00019600000000000002,2
1704351582.8633707,372121,1704351582,800054921,ublox_gps,0,15,44.8547837,-41.922126250873724,88.96000000000001,0.000225,0.0,0.0,0.0,0.000225,0.0,0.0,0.0,0.000225,2
1704351583.0834055,372122,1704351583,54898,ublox_gps,0,15,44.8547836,-41.92212955087373,88.96300000000001,0.000225,0.0,0.0,0.0,0.000225,0.0,0.0,0.0,0.000256,2
1704351583.268158,372123,1704351583,200054875,ublox_gps,0,15,44.854783399999995,-41.922133050873725,88.987,0.00044100000000000004,0.0,0.0,0.0,0.00044100000000000004,0.0,0.0,0.0,0.00048399999999999995,2
1704351583.4682703,372124,1704351583,400054852,ublox_gps,0,15,44.8547832,-41.922136550873724,89.004,0.000576,0.0,0.0,0.0,0.000576,0.0,0.0,0.0,0.0006250000000000001,2
1704351583.665505,372125,1704351583,600054829,ublox_gps,2,15,44.8547827,-41.92213995087372,88.98400000000001,0.00019600000000000002,0.0,0.0,0.0,0.00019600000000000002,0.0,0.0,0.0,0.0001,2
1704351583.8683426,372126,1704351583,800054806,ublox_gps,2,15,44.8547824,-41.92214315087372,88.991,0.00019600000000000002,0.0,0.0,0.0,0.00019600000000000002,0.0,0.0,0.0,0.0001,2
1704351584.0765517,372127,1704351584,54783,ublox_gps,2,15,44.854782199999995,-41.922146350873724,88.976,0.00019600000000000002,0.0,0.0,0.0,0.00019600000000000002,0.0,0.0,0.0,0.0001,2
1704351584.2757668,372128,1704351584,200054760,ublox_gps,2,15,44.8547819,-41.92214985087372,88.974,0.00019600000000000002,0.0,0.0,0.0,0.00019600000000000002,0.0,0.0,0.0,0.000144,2
1704351584.477631,372129,1704351584,400054737,ublox_gps,0,15,44.8547817,-41.92215295087372,88.943,0.0004,0.0,0.0,0.0,0.0004,0.0,0.0,0.0,0.000529,2
1704351584.661285,372130,1704351584,600054714,ublox_gps,2,15,44.8547817,-41.92215635087372,88.907,0.0004,0.0,0.0,0.0,0.0004,0.0,0.0,0.0,0.0008410000000000001,2
1704351584.8741448,372131,1704351584,800054691,ublox_gps,2,15,44.854781599999995,-41.922159850873726,88.875,0.0006250000000000001,0.0,0.0,0.0,0.0006250000000000001,0.0,0.0,0.0,0.001521,2
1704351585.0734122,372132,1704351585,54668,ublox_gps,0,15,44.854781599999995,-41.92216355087373,88.863,0.001024,0.0,0.0,0.0,0.001024,0.0,0.0,0.0,0.0024010000000000004,2
1704351585.2674117,372133,1704351585,200054645,ublox_gps,0,15,44.8547821,-41.922167050873725,88.84400000000001,0.0012959999999999998,0.0,0.0,0.0,0.0012959999999999998,0.0,0.0,0.0,0.0031360000000000003,2
1704351585.4727972,372134,1704351585,400054622,ublox_gps,0,15,44.8547825,-41.92217025087373,88.843,0.001444,0.0,0.0,0.0,0.001444,0.0,0.0,0.0,0.003721,2
1704351585.666228,372135,1704351585,600054598,ublox_gps,0,15,44.8547833,-41.922173850873726,88.86,0.000676,0.0,0.0,0.0,0.000676,0.0,0.0,0.0,0.0016810000000000002,2
1704351585.864044,372136,1704351585,800054575,ublox_gps,2,15,44.8547839,-41.922177450873725,88.869,0.00048399999999999995,0.0,0.0,0.0,0.00048399999999999995,0.0,0.0,0.0,0.0012959999999999998,2
1704351586.0696397,372137,1704351586,54552,ublox_gps,2,15,44.8547842,-41.92218075087372,88.848,0.00044100000000000004,0.0,0.0,0.0,0.00044100000000000004,0.0,0.0,0.0,0.0011560000000000001,2
1704351586.2675471,372138,1704351586,200054529,ublox_gps,2,15,44.8547843,-41.92218435087372,88.84,0.00044100000000000004,0.0,0.0,0.0,0.00044100000000000004,0.0,0.0,0.0,0.0010890000000000001,2
1704351586.468489,372139,1704351586,400054506,ublox_gps,0,15,44.8547844,-41.922187750873725,88.85600000000001,0.00044100000000000004,0.0,0.0,0.0,0.00044100000000000004,0.0,0.0,0.0,0.001024,2
1704351586.6650686,372140,1704351586,600054483,ublox_gps,2,15,44.8547851,-41.922191950873724,89.127,0.0009,0.0,0.0,0.0,0.0009,0.0,0.0,0.0,0.0018489999999999997,2
1704351586.8721669,372141,1704351586,800054460,ublox_gps,2,15,44.8547845,-41.92219535087372,89.138,0.000529,0.0,0.0,0.0,0.000529,0.0,0.0,0.0,0.001024,2
1704351587.0693285,372142,1704351587,54436,ublox_gps,0,15,44.8547842,-41.92219885087373,89.132,0.0008410000000000001,0.0,0.0,0.0,0.0008410000000000001,0.0,0.0,0.0,0.0012959999999999998,2
1704351587.2714229,372143,1704351587,200054413,ublox_gps,0,15,44.854783999999995,-41.922202250873724,89.125,0.0012250000000000002,0.0,0.0,0.0,0.0012250000000000002,0.0,0.0,0.0,0.002116,2
1704351587.4703524,372144,1704351587,400054390,ublox_gps,0,15,44.8547838,-41.922205350873725,89.104,0.0016,0.0,0.0,0.0,0.0016,0.0,0.0,0.0,0.0031360000000000003,2
1704351587.666497,372145,1704351587,600054367,ublox_gps,0,15,44.8547839,-41.922209050873725,89.173,0.0008410000000000001,0.0,0.0,0.0,0.0008410000000000001,0.0,0.0,0.0,0.002209,2
1704351587.864483,372146,1704351587,800054344,ublox_gps,0,15,44.854783999999995,-41.922212550873724,89.202,0.000676,0.0,0.0,0.0,0.000676,0.0,0.0,0.0,0.0018489999999999997,2
1704351588.0743456,372147,1704351588,54321,ublox_gps,0,15,44.854784099999996,-41.92221615087372,89.22,0.0006250000000000001,0.0,0.0,0.0,0.0006250000000000001,0.0,0.0,0.0,0.0016810000000000002,2
1704351588.2604365,372148,1704351588,200054297,ublox_gps,0,15,44.8547844,-41.922219450873726,89.215,0.000576,0.0,0.0,0.0,0.000576,0.0,0.0,0.0,0.0016,2
1704351588.4663827,372149,1704351588,400054274,ublox_gps,0,15,44.854784599999995,-41.922222950873724,89.21900000000001,0.000576,0.0,0.0,0.0,0.000576,0.0,0.0,0.0,0.0016,2
1704351588.66465,372150,1704351588,600054251,ublox_gps,0,15,44.8547851,-41.92222645087372,89.226,0.000576,0.0,0.0,0.0,0.000576,0.0,0.0,0.0,0.001521,2
1704351588.872178,372151,1704351588,800054228,ublox_gps,0,15,44.8547856,-41.92222985087373,89.214,0.0008410000000000001,0.0,0.0,0.0,0.0008410000000000001,0.0,0.0,0.0,0.0019359999999999998,2
1704351589.0703206,372152,1704351589,54205,ublox_gps,0,15,44.8547862,-41.922233450873726,89.244,0.0010890000000000001,0.0,0.0,0.0,0.0010890000000000001,0.0,0.0,0.0,0.0024010000000000004,2
1704351589.269979,372153,1704351589,200054182,ublox_gps,0,15,44.8547867,-41.922236950873724,89.266,0.0012959999999999998,0.0,0.0,0.0,0.0012959999999999998,0.0,0.0,0.0,0.002704,2
1704351589.4622307,372154,1704351589,400054159,ublox_gps,0,15,44.8547868,-41.922240550873724,89.295,0.001444,0.0,0.0,0.0,0.001444,0.0,0.0,0.0,0.0029159999999999998,2
1704351589.665157,372155,1704351589,600054135,ublox_gps,0,15,44.8547873,-41.92224405087372,89.32000000000001,0.000676,0.0,0.0,0.0,0.000676,0.0,0.0,0.0,0.0017640000000000002,2
1704351589.861779,372156,1704351589,800054112,ublox_gps,0,15,44.854787599999995,-41.92224755087372,89.337,0.000576,0.0,0.0,0.0,0.000576,0.0,0.0,0.0,0.001444,2
1704351590.0624425,372157,1704351590,54089,ublox_gps,0,15,44.8547878,-41.922250950873725,89.351,0.000529,0.0,0.0,0.0,0.000529,0.0,0.0,0.0,0.0013689999999999998,2
1704351590.2685761,372158,1704351590,200054066,ublox_gps,0,15,44.8547879,-41.92225445087372,89.362,0.000576,0.0,0.0,0.0,0.000576,0.0,0.0,0.0,0.001444,2
1704351590.469687,372159,1704351590,400054043,ublox_gps,0,15,44.8547881,-41.92225795087372,89.369,0.000576,0.0,0.0,0.0,0.000576,0.0,0.0,0.0,0.001521,2
1704351590.6648972,372160,1704351590,600054020,ublox_gps,0,15,44.854788299999996,-41.92226155087372,89.378,0.000576,0.0,0.0,0.0,0.000576,0.0,0.0,0.0,0.001521,2
1704351590.8646247,372161,1704351590,800053997,ublox_gps,0,15,44.854788299999996,-41.922265050873726,89.379,0.000576,0.0,0.0,0.0,0.000576,0.0,0.0,0.0,0.001444,2
1704351591.0706077,372162,1704351591,53974,ublox_gps,0,15,44.8547886,-41.92226835087372,89.366,0.000576,0.0,0.0,0.0,0.000576,0.0,0.0,0.0,0.001521,2
1704351591.2654598,372163,1704351591,200053950,ublox_gps,0,15,44.854788899999996,-41.922271750873726,89.37,0.000576,0.0,0.0,0.0,0.000576,0.0,0.0,0.0,0.001521,2
1704351591.4636045,372164,1704351591,400053927,ublox_gps,0,15,44.8547892,-41.922275250873724,89.386,0.000576,0.0,0.0,0.0,0.000576,0.0,0.0,0.0,0.001521,2
1704351591.6640143,372165,1704351591,600053904,ublox_gps,2,15,44.8547888,-41.92227745087372,89.007,0.00019600000000000002,0.0,0.0,0.0,0.00019600000000000002,0.0,0.0,0.0,0.00012099999999999999,2
1704351591.8572204,372166,1704351591,800053881,ublox_gps,2,15,44.854789,-41.92228095087373,89.014,0.00019600000000000002,0.0,0.0,0.0,0.00019600000000000002,0.0,0.0,0.0,0.00012099999999999999,2
1704351592.0686207,372167,1704351592,53858,ublox_gps,2,15,44.854789499999995,-41.922284350873724,89.011,0.00019600000000000002,0.0,0.0,0.0,0.00019600000000000002,0.0,0.0,0.0,0.00012099999999999999,2
1704351592.2621546,372168,1704351592,200053835,ublox_gps,2,15,44.85479,-41.92228785087372,89.016,0.000256,0.0,0.0,0.0,0.000256,0.0,0.0,0.0,0.000144,2
1704351592.4694061,372169,1704351592,400053812,ublox_gps,2,15,44.8547905,-41.92229135087372,89.023,0.000256,0.0,0.0,0.0,0.000256,0.0,0.0,0.0,0.000144,2
1704351592.6654124,372170,1704351592,600053789,ublox_gps,2,15,44.8547909,-41.922294750873725,89.023,0.00019600000000000002,0.0,0.0,0.0,0.00019600000000000002,0.0,0.0,0.0,0.0001,2
1704351592.8613951,372171,1704351592,800053766,ublox_gps,2,15,44.8547915,-41.92229815087372,89.028,0.00019600000000000002,0.0,0.0,0.0,0.00019600000000000002,0.0,0.0,0.0,0.0001,2
1704351593.0703936,372172,1704351593,53743,ublox_gps,2,15,44.854791999999996,-41.922301550873726,89.041,0.00019600000000000002,0.0,0.0,0.0,0.00019600000000000002,0.0,0.0,0.0,0.0001,2
1704351593.2746747,372173,1704351593,200053719,ublox_gps,2,15,44.854792499999995,-41.922305050873724,89.058,0.00019600000000000002,0.0,0.0,0.0,0.00019600000000000002,0.0,0.0,0.0,0.0001,2
1704351593.4695876,372174,1704351593,400053696,ublox_gps,2,15,44.854793,-41.922308250873726,89.044,0.000256,0.0,0.0,0.0,0.000256,0.0,0.0,0.0,0.0001,2
1704351593.6622505,372175,1704351593,600053673,ublox_gps,2,15,44.8547934,-41.922311850873726,89.07600000000001,0.00019600000000000002,0.0,0.0,0.0,0.00019600000000000002,0.0,0.0,0.0,0.0001,2
1704351593.876437,372176,1704351593,800053650,ublox_gps,2,15,44.854793799999996,-41.92231525087372,89.08500000000001,0.00019600000000000002,0.0,0.0,0.0,0.00019600000000000002,0.0,0.0,0.0,0.0001,2
1704351594.0699368,372177,1704351594,53627,ublox_gps,2,15,44.8547942,-41.922318550873726,89.057,0.000225,0.0,0.0,0.0,0.000225,0.0,0.0,0.0,0.0001,2
1704351594.264465,372178,1704351594,200053604,ublox_gps,2,15,44.8547946,-41.92232195087372,89.055,0.000256,0.0,0.0,0.0,0.000256,0.0,0.0,0.0,0.0001,2
1704351594.4666393,372179,1704351594,400053581,ublox_gps,2,15,44.854794899999995,-41.92232535087373,89.053,0.000225,0.0,0.0,0.0,0.000225,0.0,0.0,0.0,0.0001,2
1704351594.6635246,372180,1704351594,600053558,ublox_gps,2,15,44.8547954,-41.922328850873726,89.075,0.00019600000000000002,0.0,0.0,0.0,0.00019600000000000002,0.0,0.0,0.0,0.0001,2
1704351594.8706443,372181,1704351594,800053534,ublox_gps,2,15,44.8547959,-41.922332450873725,89.092,0.00019600000000000002,0.0,0.0,0.0,0.00019600000000000002,0.0,0.0,0.0,0.0001,2
