Time,header.seq,header.stamp.secs,header.stamp.nsecs,header.frame_id,child_frame_id,pose.pose.position.x,pose.pose.position.y,pose.pose.position.z,pose.pose.orientation.x,pose.pose.orientation.y,pose.pose.orientation.z,pose.pose.orientation.w,pose.covariance,twist.twist.linear.x,twist.twist.linear.y,twist.twist.linear.z,twist.twist.angular.x,twist.twist.angular.y,twist.twist.angular.z,twist.covariance
1704351528.6909082,1486983,1704351528,684218884,map,base_link,2.615974507209564,9.21665690689639,-0.08192437505529937,0.007641408877746075,-0.0010335857270310981,0.6243052931282288,0.7811423951770793,"(0.010304570198059082, 0.0, 0.0, 0.0, 0.0, 0.0, 0.0, 0.010304570198059082, 0.0, 0.0, 0.0, 0.0, 0.0, 0.0, 0.010304570198059082, 0.0, 0.0, 0.0, 0.0, 0.0, 0.0, 0.010304570198059082, 0.0, 0.0, 0.0, 0.0, 0.0, 0.0, 0.010304570198059082, 0.0, 0.0, 0.0, 0.0, 0.0, 0.0, 0.010304570198059082)",0.0,0.0,0.0,0.0,0.0,0.0,"(0.0, 0.0, 0.0, 0.0, 0.0, 0.0, 0.0, 0.0, 0.0, 0.0, 0.0, 0.0, 0.0, 0.0, 0.0, 0.0, 0.0, 0.0, 0.0, 0.0, 0.0, 0.0, 0.0, 0.0, 0.0, 0.0, 0.0, 0.0, 0.0, 0.0, 0.0, 0.0, 0.0, 0.0, 0.0, 0.0)"
1704351528.7470434,1486984,1704351528,733557701,map,base_link,2.6039154935588904,9.219555883446882,-0.0778429552318275,0.007765929045232958,-0.0006200505168878558,0.6275556546631277,0.7785327264693206,"(0.010263307951390743, 0.0, 0.0, 0.0, 0.0, 0.0, 0.0, 0.010263307951390743, 0.0, 0.0, 0.0, 0.0, 0.0, 0.0, 0.010263307951390743, 0.0, 0.0, 0.0, 0.0, 0.0, 0.0, 0.010263307951390743, 0.0, 0.0, 0.0, 0.0, 0.0, 0.0, 0.010263307951390743, 0.0, 0.0, 0.0, 0.0, 0.0, 0.0, 0.010263307951390743)",0.0,0.0,0.0,0.0,0.0,0.0,"(0.0, 0.0, 0.0, 0.0, 0.0, 0.0, 0.0, 0.0, 0.0, 0.0, 0.0, 0.0, 0.0, 0.0, 0.0, 0.0, 0.0, 0.0, 0.0, 0.0, 0.0, 0.0, 0.0, 0.0, 0.0, 0.0, 0.0, 0.0, 0.0, 0.0, 0.0, 0.0, 0.0, 0.0, 0.0, 0.0)"
1704351528.795082,1486985,1704351528,783701897,map,base_link,2.599906397711453,9.22306421620643,-0.08745135638670531,0.008832812350764569,-0.0010845459815778823,0.6313762098412586,0.7754256165696856,"(0.010234945453703403, 0.0, 0.0, 0.0, 0.0, 0.0, 0.0, 0.010234945453703403, 0.0, 0.0, 0.0, 0.0, 0.0, 0.0, 0.010234945453703403, 0.0, 0.0, 0.0, 0.0, 0.0, 0.0, 0.010234945453703403, 0.0, 0.0, 0.0, 0.0, 0.0, 0.0, 0.010234945453703403, 0.0, 0.0, 0.0, 0.0, 0.0, 0.0, 0.010234945453703403)",0.0,0.0,0.0,0.0,0.0,0.0,"(0.0, 0.0, 0.0, 0.0, 0.0, 0.0, 0.0, 0.0, 0.0, 0.0, 0.0, 0.0, 0.0, 0.0, 0.0, 0.0, 0.0, 0.0, 0.0, 0.0, 0.0, 0.0, 0.0, 0.0, 0.0, 0.0, 0.0, 0.0, 0.0, 0.0, 0.0, 0.0, 0.0, 0.0, 0.0, 0.0)"
1704351528.848924,1486986,1704351528,834107637,map,base_link,2.596060761752783,9.23868018099887,-0.07971368797040368,0.008728541498556865,-0.0009921548263190385,0.6355134295873983,0.7720398364114196,"(0.010231593623757362, 0.0, 0.0, 0.0, 0.0, 0.0, 0.0, 0.010231593623757362, 0.0, 0.0, 0.0, 0.0, 0.0, 0.0, 0.010231593623757362, 0.0, 0.0, 0.0, 0.0, 0.0, 0.0, 0.010231593623757362, 0.0, 0.0, 0.0, 0.0, 0.0, 0.0, 0.010231593623757362, 0.0, 0.0, 0.0, 0.0, 0.0, 0.0, 0.010231593623757362)",0.0,0.0,0.0,0.0,0.0,0.0,"(0.0, 0.0, 0.0, 0.0, 0.0, 0.0, 0.0, 0.0, 0.0, 0.0, 0.0, 0.0, 0.0, 0.0, 0.0, 0.0, 0.0, 0.0, 0.0, 0.0, 0.0, 0.0, 0.0, 0.0, 0.0, 0.0, 0.0, 0.0, 0.0, 0.0, 0.0, 0.0, 0.0, 0.0, 0.0, 0.0)"
1704351528.9014852,1486987,1704351528,884274006,map,base_link,2.5988475009818295,9.24633274003718,-0.0774470637626059,0.008998500375438073,-0.0007044638773961206,0.64026595529634,0.7681002780953174,"(0.010325485840439796, 0.0, 0.0, 0.0, 0.0, 0.0, 0.0, 0.010325485840439796, 0.0, 0.0, 0.0, 0.0, 0.0, 0.0, 0.010325485840439796, 0.0, 0.0, 0.0, 0.0, 0.0, 0.0, 0.010325485840439796, 0.0, 0.0, 0.0, 0.0, 0.0, 0.0, 0.010325485840439796, 0.0, 0.0, 0.0, 0.0, 0.0, 0.0, 0.010325485840439796)",0.0,0.0,0.0,0.0,0.0,0.0,"(0.0, 0.0, 0.0, 0.0, 0.0, 0.0, 0.0, 0.0, 0.0, 0.0, 0.0, 0.0, 0.0, 0.0, 0.0, 0.0, 0.0, 0.0, 0.0, 0.0, 0.0, 0.0, 0.0, 0.0, 0.0, 0.0, 0.0, 0.0, 0.0, 0.0, 0.0, 0.0, 0.0, 0.0, 0.0, 0.0)"
1704351528.9393673,1486988,1704351528,933655500,map,base_link,2.59686661803592,9.271617338227264,-0.07351403986516591,0.008082903896020543,0.0005065451243691873,0.6453409174520272,0.7638517594002258,"(0.010272864252328873, 0.0, 0.0, 0.0, 0.0, 0.0, 0.0, 0.010272864252328873, 0.0, 0.0, 0.0, 0.0, 0.0, 0.0, 0.010272864252328873, 0.0, 0.0, 0.0, 0.0, 0.0, 0.0, 0.010272864252328873, 0.0, 0.0, 0.0, 0.0, 0.0, 0.0, 0.010272864252328873, 0.0, 0.0, 0.0, 0.0, 0.0, 0.0, 0.010272864252328873)",0.0,0.0,0.0,0.0,0.0,0.0,"(0.0, 0.0, 0.0, 0.0, 0.0, 0.0, 0.0, 0.0, 0.0, 0.0, 0.0, 0.0, 0.0, 0.0, 0.0, 0.0, 0.0, 0.0, 0.0, 0.0, 0.0, 0.0, 0.0, 0.0, 0.0, 0.0, 0.0, 0.0, 0.0, 0.0, 0.0, 0.0, 0.0, 0.0, 0.0, 0.0)"
1704351528.989384,1486989,1704351528,983784914,map,base_link,2.615411041710171,9.27065592168925,-0.0742627691651907,0.007072395441147674,0.0015331400349098286,0.6494275144233116,0.7603890676583382,"(0.010171670466661453, 0.0, 0.0, 0.0, 0.0, 0.0, 0.0, 0.010171670466661453, 0.0, 0.0, 0.0, 0.0, 0.0, 0.0, 0.010171670466661453, 0.0, 0.0, 0.0, 0.0, 0.0, 0.0, 0.010171670466661453, 0.0, 0.0, 0.0, 0.0, 0.0, 0.0, 0.010171670466661453, 0.0, 0.0, 0.0, 0.0, 0.0, 0.0, 0.010171670466661453)",0.0,0.0,0.0,0.0,0.0,0.0,"(0.0, 0.0, 0.0, 0.0, 0.0, 0.0, 0.0, 0.0, 0.0, 0.0, 0.0, 0.0, 0.0, 0.0, 0.0, 0.0, 0.0, 0.0, 0.0, 0.0, 0.0, 0.0, 0.0, 0.0, 0.0, 0.0, 0.0, 0.0, 0.0, 0.0, 0.0, 0.0, 0.0, 0.0, 0.0, 0.0)"
1704351529.044056,1486990,1704351529,34132481,map,base_link,2.6214943586750192,9.278248111189288,-0.07762952566292192,0.007458166292664843,0.003014045098645261,0.6542677943698021,0.7562201693542487,"(0.010246491059660912, 0.0, 0.0, 0.0, 0.0, 0.0, 0.0, 0.010246491059660912, 0.0, 0.0, 0.0, 0.0, 0.0, 0.0, 0.010246491059660912, 0.0, 0.0, 0.0, 0.0, 0.0, 0.0, 0.010246491059660912, 0.0, 0.0, 0.0, 0.0, 0.0, 0.0, 0.010246491059660912, 0.0, 0.0, 0.0, 0.0, 0.0, 0.0, 0.010246491059660912)",0.0,0.0,0.0,0.0,0.0,0.0,"(0.0, 0.0, 0.0, 0.0, 0.0, 0.0, 0.0, 0.0, 0.0, 0.0, 0.0, 0.0, 0.0, 0.0, 0.0, 0.0, 0.0, 0.0, 0.0, 0.0, 0.0, 0.0, 0.0, 0.0, 0.0, 0.0, 0.0, 0.0, 0.0, 0.0, 0.0, 0.0, 0.0, 0.0, 0.0, 0.0)"
1704351529.0996883,1486991,1704351529,84635019,map,base_link,2.6221624571653313,9.289672724767126,-0.07301339297195075,0.007909800711421725,0.002102371732113636,0.6597452638063127,0.7514447431254972,"(0.010241598822176456, 0.0, 0.0, 0.0, 0.0, 0.0, 0.0, 0.010241598822176456, 0.0, 0.0, 0.0, 0.0, 0.0, 0.0, 0.010241598822176456, 0.0, 0.0, 0.0, 0.0, 0.0, 0.0, 0.010241598822176456, 0.0, 0.0, 0.0, 0.0, 0.0, 0.0, 0.010241598822176456, 0.0, 0.0, 0.0, 0.0, 0.0, 0.0, 0.010241598822176456)",0.0,0.0,0.0,0.0,0.0,0.0,"(0.0, 0.0, 0.0, 0.0, 0.0, 0.0, 0.0, 0.0, 0.0, 0.0, 0.0, 0.0, 0.0, 0.0, 0.0, 0.0, 0.0, 0.0, 0.0, 0.0, 0.0, 0.0, 0.0, 0.0, 0.0, 0.0, 0.0, 0.0, 0.0, 0.0, 0.0, 0.0, 0.0, 0.0, 0.0, 0.0)"
1704351529.1412475,1486992,1704351529,133857489,map,base_link,2.6381592094567727,9.304710514157938,-0.0942208489173374,0.008520983802138752,0.0012428332863210414,0.6672379148416496,0.7447948799489921,"(0.010211652144789696, 0.0, 0.0, 0.0, 0.0, 0.0, 0.0, 0.010211652144789696, 0.0, 0.0, 0.0, 0.0, 0.0, 0.0, 0.010211652144789696, 0.0, 0.0, 0.0, 0.0, 0.0, 0.0, 0.010211652144789696, 0.0, 0.0, 0.0, 0.0, 0.0, 0.0, 0.010211652144789696, 0.0, 0.0, 0.0, 0.0, 0.0, 0.0, 0.010211652144789696)",0.0,0.0,0.0,0.0,0.0,0.0,"(0.0, 0.0, 0.0, 0.0, 0.0, 0.0, 0.0, 0.0, 0.0, 0.0, 0.0, 0.0, 0.0, 0.0, 0.0, 0.0, 0.0, 0.0, 0.0, 0.0, 0.0, 0.0, 0.0, 0.0, 0.0, 0.0, 0.0, 0.0, 0.0, 0.0, 0.0, 0.0, 0.0, 0.0, 0.0, 0.0)"
1704351529.189455,1486993,1704351529,183981895,map,base_link,2.634788705207503,9.323834203129778,-0.08188275791056576,0.0077165411031043345,0.0033215025904798938,0.672770870241136,0.7398032027295706,"(0.01023389957845211, 0.0, 0.0, 0.0, 0.0, 0.0, 0.0, 0.01023389957845211, 0.0, 0.0, 0.0, 0.0, 0.0, 0.0, 0.01023389957845211, 0.0, 0.0, 0.0, 0.0, 0.0, 0.0, 0.01023389957845211, 0.0, 0.0, 0.0, 0.0, 0.0, 0.0, 0.01023389957845211, 0.0, 0.0, 0.0, 0.0, 0.0, 0.0, 0.01023389957845211)",0.0,0.0,0.0,0.0,0.0,0.0,"(0.0, 0.0, 0.0, 0.0, 0.0, 0.0, 0.0, 0.0, 0.0, 0.0, 0.0, 0.0, 0.0, 0.0, 0.0, 0.0, 0.0, 0.0, 0.0, 0.0, 0.0, 0.0, 0.0, 0.0, 0.0, 0.0, 0.0, 0.0, 0.0, 0.0, 0.0, 0.0, 0.0, 0.0, 0.0, 0.0)"
1704351529.2393508,1486994,1704351529,234221697,map,base_link,2.6196090838780335,9.332759654137707,-0.08727916008468439,0.006588540673103997,0.004056280760922797,0.6791520407398501,0.7339568402004877,"(0.010273600928485394, 0.0, 0.0, 0.0, 0.0, 0.0, 0.0, 0.010273600928485394, 0.0, 0.0, 0.0, 0.0, 0.0, 0.0, 0.010273600928485394, 0.0, 0.0, 0.0, 0.0, 0.0, 0.0, 0.010273600928485394, 0.0, 0.0, 0.0, 0.0, 0.0, 0.0, 0.010273600928485394, 0.0, 0.0, 0.0, 0.0, 0.0, 0.0, 0.010273600928485394)",0.0,0.0,0.0,0.0,0.0,0.0,"(0.0, 0.0, 0.0, 0.0, 0.0, 0.0, 0.0, 0.0, 0.0, 0.0, 0.0, 0.0, 0.0, 0.0, 0.0, 0.0, 0.0, 0.0, 0.0, 0.0, 0.0, 0.0, 0.0, 0.0, 0.0, 0.0, 0.0, 0.0, 0.0, 0.0, 0.0, 0.0, 0.0, 0.0, 0.0, 0.0)"
1704351529.290318,1486995,1704351529,284379005,map,base_link,2.61111505593665,9.345081218885598,-0.07798979521627736,0.005573712258305084,0.0031339051027478434,0.6851294002539511,0.7283933122140331,"(0.010214250534772873, 0.0, 0.0, 0.0, 0.0, 0.0, 0.0, 0.010214250534772873, 0.0, 0.0, 0.0, 0.0, 0.0, 0.0, 0.010214250534772873, 0.0, 0.0, 0.0, 0.0, 0.0, 0.0, 0.010214250534772873, 0.0, 0.0, 0.0, 0.0, 0.0, 0.0, 0.010214250534772873, 0.0, 0.0, 0.0, 0.0, 0.0, 0.0, 0.010214250534772873)",0.0,0.0,0.0,0.0,0.0,0.0,"(0.0, 0.0, 0.0, 0.0, 0.0, 0.0, 0.0, 0.0, 0.0, 0.0, 0.0, 0.0, 0.0, 0.0, 0.0, 0.0, 0.0, 0.0, 0.0, 0.0, 0.0, 0.0, 0.0, 0.0, 0.0, 0.0, 0.0, 0.0, 0.0, 0.0, 0.0, 0.0, 0.0, 0.0, 0.0, 0.0)"
1704351529.3392854,1486996,1704351529,333705664,map,base_link,2.619638637359392,9.368701293591668,-0.08872807057859189,0.005881699578070645,0.001370058475193651,0.6906835254376498,0.723131935568377,"(0.01019249763339758, 0.0, 0.0, 0.0, 0.0, 0.0, 0.0, 0.01019249763339758, 0.0, 0.0, 0.0, 0.0, 0.0, 0.0, 0.01019249763339758, 0.0, 0.0, 0.0, 0.0, 0.0, 0.0, 0.01019249763339758, 0.0, 0.0, 0.0, 0.0, 0.0, 0.0, 0.01019249763339758, 0.0, 0.0, 0.0, 0.0, 0.0, 0.0, 0.01019249763339758)",0.0,0.0,0.0,0.0,0.0,0.0,"(0.0, 0.0, 0.0, 0.0, 0.0, 0.0, 0.0, 0.0, 0.0, 0.0, 0.0, 0.0, 0.0, 0.0, 0.0, 0.0, 0.0, 0.0, 0.0, 0.0, 0.0, 0.0, 0.0, 0.0, 0.0, 0.0, 0.0, 0.0, 0.0, 0.0, 0.0, 0.0, 0.0, 0.0, 0.0, 0.0)"
1704351529.3962066,1486997,1704351529,383846045,map,base_link,2.625053836936188,9.370859909715847,-0.08329940159568394,0.006138848848042184,0.0016310603228047787,0.6963697417660661,0.7176550960800785,"(0.010172371752560139, 0.0, 0.0, 0.0, 0.0, 0.0, 0.0, 0.010172371752560139, 0.0, 0.0, 0.0, 0.0, 0.0, 0.0, 0.010172371752560139, 0.0, 0.0, 0.0, 0.0, 0.0, 0.0, 0.010172371752560139, 0.0, 0.0, 0.0, 0.0, 0.0, 0.0, 0.010172371752560139, 0.0, 0.0, 0.0, 0.0, 0.0, 0.0, 0.010172371752560139)",0.0,0.0,0.0,0.0,0.0,0.0,"(0.0, 0.0, 0.0, 0.0, 0.0, 0.0, 0.0, 0.0, 0.0, 0.0, 0.0, 0.0, 0.0, 0.0, 0.0, 0.0, 0.0, 0.0, 0.0, 0.0, 0.0, 0.0, 0.0, 0.0, 0.0, 0.0, 0.0, 0.0, 0.0, 0.0, 0.0, 0.0, 0.0, 0.0, 0.0, 0.0)"
1704351529.440902,1486998,1704351529,434153557,map,base_link,2.6338703639913947,9.384302287912487,-0.0693053518212281,0.005270089955503584,0.002149894834121919,0.7025828959378471,0.7115791441854177,"(0.010153770446777344, 0.0, 0.0, 0.0, 0.0, 0.0, 0.0, 0.010153770446777344, 0.0, 0.0, 0.0, 0.0, 0.0, 0.0, 0.010153770446777344, 0.0, 0.0, 0.0, 0.0, 0.0, 0.0, 0.010153770446777344, 0.0, 0.0, 0.0, 0.0, 0.0, 0.0, 0.010153770446777344, 0.0, 0.0, 0.0, 0.0, 0.0, 0.0, 0.010153770446777344)",0.0,0.0,0.0,0.0,0.0,0.0,"(0.0, 0.0, 0.0, 0.0, 0.0, 0.0, 0.0, 0.0, 0.0, 0.0, 0.0, 0.0, 0.0, 0.0, 0.0, 0.0, 0.0, 0.0, 0.0, 0.0, 0.0, 0.0, 0.0, 0.0, 0.0, 0.0, 0.0, 0.0, 0.0, 0.0, 0.0, 0.0, 0.0, 0.0, 0.0, 0.0)"
1704351529.4899764,1486999,1704351529,484243870,map,base_link,2.6336589074172183,9.394609510725159,-0.0793728162461037,0.005805265447906666,0.0025759496875707795,0.7083163046464399,0.7058666134251557,"(0.010162986814975739, 0.0, 0.0, 0.0, 0.0, 0.0, 0.0, 0.010162986814975739, 0.0, 0.0, 0.0, 0.0, 0.0, 0.0, 0.010162986814975739, 0.0, 0.0, 0.0, 0.0, 0.0, 0.0, 0.010162986814975739, 0.0, 0.0, 0.0, 0.0, 0.0, 0.0, 0.010162986814975739, 0.0, 0.0, 0.0, 0.0, 0.0, 0.0, 0.010162986814975739)",0.0,0.0,0.0,0.0,0.0,0.0,"(0.0, 0.0, 0.0, 0.0, 0.0, 0.0, 0.0, 0.0, 0.0, 0.0, 0.0, 0.0, 0.0, 0.0, 0.0, 0.0, 0.0, 0.0, 0.0, 0.0, 0.0, 0.0, 0.0, 0.0, 0.0, 0.0, 0.0, 0.0, 0.0, 0.0, 0.0, 0.0, 0.0, 0.0, 0.0, 0.0)"
1704351529.5450892,1487000,1704351529,533533573,map,base_link,2.655187901905999,9.40353761786339,-0.06839039278822401,0.005559369722758766,0.0027735765496616914,0.713661585543914,0.7004630911049887,"(0.010168598964810371, 0.0, 0.0, 0.0, 0.0, 0.0, 0.0, 0.010168598964810371, 0.0, 0.0, 0.0, 0.0, 0.0, 0.0, 0.010168598964810371, 0.0, 0.0, 0.0, 0.0, 0.0, 0.0, 0.010168598964810371, 0.0, 0.0, 0.0, 0.0, 0.0, 0.0, 0.010168598964810371, 0.0, 0.0, 0.0, 0.0, 0.0, 0.0, 0.010168598964810371)",0.0,0.0,0.0,0.0,0.0,0.0,"(0.0, 0.0, 0.0, 0.0, 0.0, 0.0, 0.0, 0.0, 0.0, 0.0, 0.0, 0.0, 0.0, 0.0, 0.0, 0.0, 0.0, 0.0, 0.0, 0.0, 0.0, 0.0, 0.0, 0.0, 0.0, 0.0, 0.0, 0.0, 0.0, 0.0, 0.0, 0.0, 0.0, 0.0, 0.0, 0.0)"
1704351529.5960996,1487001,1704351529,583626032,map,base_link,2.641016474248749,9.421008037985874,-0.07308256509982569,0.005810723650818655,0.0022348822136015207,0.7194326533330299,0.6945343030479787,"(0.010156041942536831, 0.0, 0.0, 0.0, 0.0, 0.0, 0.0, 0.010156041942536831, 0.0, 0.0, 0.0, 0.0, 0.0, 0.0, 0.010156041942536831, 0.0, 0.0, 0.0, 0.0, 0.0, 0.0, 0.010156041942536831, 0.0, 0.0, 0.0, 0.0, 0.0, 0.0, 0.010156041942536831, 0.0, 0.0, 0.0, 0.0, 0.0, 0.0, 0.010156041942536831)",0.0,0.0,0.0,0.0,0.0,0.0,"(0.0, 0.0, 0.0, 0.0, 0.0, 0.0, 0.0, 0.0, 0.0, 0.0, 0.0, 0.0, 0.0, 0.0, 0.0, 0.0, 0.0, 0.0, 0.0, 0.0, 0.0, 0.0, 0.0, 0.0, 0.0, 0.0, 0.0, 0.0, 0.0, 0.0, 0.0, 0.0, 0.0, 0.0, 0.0, 0.0)"
1704351529.6402159,1487002,1704351529,634057522,map,base_link,2.650071008851116,9.431002937201361,-0.07803732999810176,0.006265459872817538,0.001960057477651918,0.7248840129502836,0.6888396547501889,"(0.0101334722712636, 0.0, 0.0, 0.0, 0.0, 0.0, 0.0, 0.0101334722712636, 0.0, 0.0, 0.0, 0.0, 0.0, 0.0, 0.0101334722712636, 0.0, 0.0, 0.0, 0.0, 0.0, 0.0, 0.0101334722712636, 0.0, 0.0, 0.0, 0.0, 0.0, 0.0, 0.0101334722712636, 0.0, 0.0, 0.0, 0.0, 0.0, 0.0, 0.0101334722712636)",0.0,0.0,0.0,0.0,0.0,0.0,"(0.0, 0.0, 0.0, 0.0, 0.0, 0.0, 0.0, 0.0, 0.0, 0.0, 0.0, 0.0, 0.0, 0.0, 0.0, 0.0, 0.0, 0.0, 0.0, 0.0, 0.0, 0.0, 0.0, 0.0, 0.0, 0.0, 0.0, 0.0, 0.0, 0.0, 0.0, 0.0, 0.0, 0.0, 0.0, 0.0)"
1704351529.6955338,1487003,1704351529,684377909,map,base_link,2.643385318295726,9.446173190517397,-0.08427475544696117,0.00543224919747037,0.0009122652371018352,0.7307615482753842,0.6826105903097,"(0.010130463168025017, 0.0, 0.0, 0.0, 0.0, 0.0, 0.0, 0.010130463168025017, 0.0, 0.0, 0.0, 0.0, 0.0, 0.0, 0.010130463168025017, 0.0, 0.0, 0.0, 0.0, 0.0, 0.0, 0.010130463168025017, 0.0, 0.0, 0.0, 0.0, 0.0, 0.0, 0.010130463168025017, 0.0, 0.0, 0.0, 0.0, 0.0, 0.0, 0.010130463168025017)",0.0,0.0,0.0,0.0,0.0,0.0,"(0.0, 0.0, 0.0, 0.0, 0.0, 0.0, 0.0, 0.0, 0.0, 0.0, 0.0, 0.0, 0.0, 0.0, 0.0, 0.0, 0.0, 0.0, 0.0, 0.0, 0.0, 0.0, 0.0, 0.0, 0.0, 0.0, 0.0, 0.0, 0.0, 0.0, 0.0, 0.0, 0.0, 0.0, 0.0, 0.0)"
1704351529.741135,1487004,1704351529,733751535,map,base_link,2.650835685275546,9.472517401380976,-0.07919085159049166,0.004956089749695351,0.00033933691640881995,0.7360650686431547,0.676892559235362,"(0.010135477408766747, 0.0, 0.0, 0.0, 0.0, 0.0, 0.0, 0.010135477408766747, 0.0, 0.0, 0.0, 0.0, 0.0, 0.0, 0.010135477408766747, 0.0, 0.0, 0.0, 0.0, 0.0, 0.0, 0.010135477408766747, 0.0, 0.0, 0.0, 0.0, 0.0, 0.0, 0.010135477408766747, 0.0, 0.0, 0.0, 0.0, 0.0, 0.0, 0.010135477408766747)",0.0,0.0,0.0,0.0,0.0,0.0,"(0.0, 0.0, 0.0, 0.0, 0.0, 0.0, 0.0, 0.0, 0.0, 0.0, 0.0, 0.0, 0.0, 0.0, 0.0, 0.0, 0.0, 0.0, 0.0, 0.0, 0.0, 0.0, 0.0, 0.0, 0.0, 0.0, 0.0, 0.0, 0.0, 0.0, 0.0, 0.0, 0.0, 0.0, 0.0, 0.0)"
1704351529.789622,1487005,1704351529,783896923,map,base_link,2.6641358535535726,9.493276294498664,-0.07969526164994623,0.006028193725571907,-0.0003269448214273484,0.7412057801609597,0.6712507321735103,"(0.010139158926904202, 0.0, 0.0, 0.0, 0.0, 0.0, 0.0, 0.010139158926904202, 0.0, 0.0, 0.0, 0.0, 0.0, 0.0, 0.010139158926904202, 0.0, 0.0, 0.0, 0.0, 0.0, 0.0, 0.010139158926904202, 0.0, 0.0, 0.0, 0.0, 0.0, 0.0, 0.010139158926904202, 0.0, 0.0, 0.0, 0.0, 0.0, 0.0, 0.010139158926904202)",0.0,0.0,0.0,0.0,0.0,0.0,"(0.0, 0.0, 0.0, 0.0, 0.0, 0.0, 0.0, 0.0, 0.0, 0.0, 0.0, 0.0, 0.0, 0.0, 0.0, 0.0, 0.0, 0.0, 0.0, 0.0, 0.0, 0.0, 0.0, 0.0, 0.0, 0.0, 0.0, 0.0, 0.0, 0.0, 0.0, 0.0, 0.0, 0.0, 0.0, 0.0)"
1704351529.8511727,1487006,1704351529,834330559,map,base_link,2.670780363001927,9.505402902223839,-0.07458155304430847,0.006167840526995146,-0.0005227840610172296,0.7463388856020096,0.6655373410098111,"(0.010125943459570408, 0.0, 0.0, 0.0, 0.0, 0.0, 0.0, 0.010125943459570408, 0.0, 0.0, 0.0, 0.0, 0.0, 0.0, 0.010125943459570408, 0.0, 0.0, 0.0, 0.0, 0.0, 0.0, 0.010125943459570408, 0.0, 0.0, 0.0, 0.0, 0.0, 0.0, 0.010125943459570408, 0.0, 0.0, 0.0, 0.0, 0.0, 0.0, 0.010125943459570408)",0.0,0.0,0.0,0.0,0.0,0.0,"(0.0, 0.0, 0.0, 0.0, 0.0, 0.0, 0.0, 0.0, 0.0, 0.0, 0.0, 0.0, 0.0, 0.0, 0.0, 0.0, 0.0, 0.0, 0.0, 0.0, 0.0, 0.0, 0.0, 0.0, 0.0, 0.0, 0.0, 0.0, 0.0, 0.0, 0.0, 0.0, 0.0, 0.0, 0.0, 0.0)"
1704351529.905191,1487007,1704351529,884497881,map,base_link,2.6618379285915372,9.522657480726028,-0.07513671372424824,0.005561944384168377,-0.0008647786175406962,0.752253806253761,0.6588493969863969,"(0.010148316621780396, 0.0, 0.0, 0.0, 0.0, 0.0, 0.0, 0.010148316621780396, 0.0, 0.0, 0.0, 0.0, 0.0, 0.0, 0.010148316621780396, 0.0, 0.0, 0.0, 0.0, 0.0, 0.0, 0.010148316621780396, 0.0, 0.0, 0.0, 0.0, 0.0, 0.0, 0.010148316621780396, 0.0, 0.0, 0.0, 0.0, 0.0, 0.0, 0.010148316621780396)",0.0,0.0,0.0,0.0,0.0,0.0,"(0.0, 0.0, 0.0, 0.0, 0.0, 0.0, 0.0, 0.0, 0.0, 0.0, 0.0, 0.0, 0.0, 0.0, 0.0, 0.0, 0.0, 0.0, 0.0, 0.0, 0.0, 0.0, 0.0, 0.0, 0.0, 0.0, 0.0, 0.0, 0.0, 0.0, 0.0, 0.0, 0.0, 0.0, 0.0, 0.0)"
1704351529.9522064,1487008,1704351529,933867693,map,base_link,2.6678786622041866,9.52844880374657,-0.07018447193703525,0.005468540087365655,-0.0011656475837938907,0.7573716263869865,0.6529601487678663,"(0.01014738343656063, 0.0, 0.0, 0.0, 0.0, 0.0, 0.0, 0.01014738343656063, 0.0, 0.0, 0.0, 0.0, 0.0, 0.0, 0.01014738343656063, 0.0, 0.0, 0.0, 0.0, 0.0, 0.0, 0.01014738343656063, 0.0, 0.0, 0.0, 0.0, 0.0, 0.0, 0.01014738343656063, 0.0, 0.0, 0.0, 0.0, 0.0, 0.0, 0.01014738343656063)",0.0,0.0,0.0,0.0,0.0,0.0,"(0.0, 0.0, 0.0, 0.0, 0.0, 0.0, 0.0, 0.0, 0.0, 0.0, 0.0, 0.0, 0.0, 0.0, 0.0, 0.0, 0.0, 0.0, 0.0, 0.0, 0.0, 0.0, 0.0, 0.0, 0.0, 0.0, 0.0, 0.0, 0.0, 0.0, 0.0, 0.0, 0.0, 0.0, 0.0, 0.0)"
1704351530.0002096,1487009,1704351529,983989000,map,base_link,2.6730027308548494,9.540910417268494,-0.07974809087268675,0.005872499169798313,-0.0018469531699738541,0.7619228326808413,0.6476385562619719,"(0.010098435916006565, 0.0, 0.0, 0.0, 0.0, 0.0, 0.0, 0.010098435916006565, 0.0, 0.0, 0.0, 0.0, 0.0, 0.0, 0.010098435916006565, 0.0, 0.0, 0.0, 0.0, 0.0, 0.0, 0.010098435916006565, 0.0, 0.0, 0.0, 0.0, 0.0, 0.0, 0.010098435916006565, 0.0, 0.0, 0.0, 0.0, 0.0, 0.0, 0.010098435916006565)",0.0,0.0,0.0,0.0,0.0,0.0,"(0.0, 0.0, 0.0, 0.0, 0.0, 0.0, 0.0, 0.0, 0.0, 0.0, 0.0, 0.0, 0.0, 0.0, 0.0, 0.0, 0.0, 0.0, 0.0, 0.0, 0.0, 0.0, 0.0, 0.0, 0.0, 0.0, 0.0, 0.0, 0.0, 0.0, 0.0, 0.0, 0.0, 0.0, 0.0, 0.0)"
1704351530.0481894,1487010,1704351530,34321547,map,base_link,2.679271671902536,9.553341264601148,-0.07611004904635454,0.005976491513738605,-0.002939913375635851,0.7662163256312078,0.6425481933635336,"(0.010100881569087505, 0.0, 0.0, 0.0, 0.0, 0.0, 0.0, 0.010100881569087505, 0.0, 0.0, 0.0, 0.0, 0.0, 0.0, 0.010100881569087505, 0.0, 0.0, 0.0, 0.0, 0.0, 0.0, 0.010100881569087505, 0.0, 0.0, 0.0, 0.0, 0.0, 0.0, 0.010100881569087505, 0.0, 0.0, 0.0, 0.0, 0.0, 0.0, 0.010100881569087505)",0.0,0.0,0.0,0.0,0.0,0.0,"(0.0, 0.0, 0.0, 0.0, 0.0, 0.0, 0.0, 0.0, 0.0, 0.0, 0.0, 0.0, 0.0, 0.0, 0.0, 0.0, 0.0, 0.0, 0.0, 0.0, 0.0, 0.0, 0.0, 0.0, 0.0, 0.0, 0.0, 0.0, 0.0, 0.0, 0.0, 0.0, 0.0, 0.0, 0.0, 0.0)"
1704351530.1019409,1487011,1704351530,84393024,map,base_link,2.6787435742739247,9.558424851326434,-0.07772961800335176,0.006339171342748358,-0.0031195035678278187,0.7715157157323229,0.6361710335925546,"(0.010115892626345158, 0.0, 0.0, 0.0, 0.0, 0.0, 0.0, 0.010115892626345158, 0.0, 0.0, 0.0, 0.0, 0.0, 0.0, 0.010115892626345158, 0.0, 0.0, 0.0, 0.0, 0.0, 0.0, 0.010115892626345158, 0.0, 0.0, 0.0, 0.0, 0.0, 0.0, 0.010115892626345158, 0.0, 0.0, 0.0, 0.0, 0.0, 0.0, 0.010115892626345158)",0.0,0.0,0.0,0.0,0.0,0.0,"(0.0, 0.0, 0.0, 0.0, 0.0, 0.0, 0.0, 0.0, 0.0, 0.0, 0.0, 0.0, 0.0, 0.0, 0.0, 0.0, 0.0, 0.0, 0.0, 0.0, 0.0, 0.0, 0.0, 0.0, 0.0, 0.0, 0.0, 0.0, 0.0, 0.0, 0.0, 0.0, 0.0, 0.0, 0.0, 0.0)"
1704351530.147507,1487012,1704351530,133791685,map,base_link,2.6714638425841373,9.565680679125343,-0.08169015004344804,0.006307298055386822,-0.003694783509802349,0.7766140376584574,0.6299342847296727,"(0.01009295042604208, 0.0, 0.0, 0.0, 0.0, 0.0, 0.0, 0.01009295042604208, 0.0, 0.0, 0.0, 0.0, 0.0, 0.0, 0.01009295042604208, 0.0, 0.0, 0.0, 0.0, 0.0, 0.0, 0.01009295042604208, 0.0, 0.0, 0.0, 0.0, 0.0, 0.0, 0.01009295042604208, 0.0, 0.0, 0.0, 0.0, 0.0, 0.0, 0.01009295042604208)",0.0,0.0,0.0,0.0,0.0,0.0,"(0.0, 0.0, 0.0, 0.0, 0.0, 0.0, 0.0, 0.0, 0.0, 0.0, 0.0, 0.0, 0.0, 0.0, 0.0, 0.0, 0.0, 0.0, 0.0, 0.0, 0.0, 0.0, 0.0, 0.0, 0.0, 0.0, 0.0, 0.0, 0.0, 0.0, 0.0, 0.0, 0.0, 0.0, 0.0, 0.0)"
1704351530.1906621,1487013,1704351530,183753014,map,base_link,2.681717321563498,9.5902921863277,-0.07688314698407583,0.005886047190986145,-0.0034155975907385824,0.7818953430503331,0.6233725697027144,"(0.010105912573635578, 0.0, 0.0, 0.0, 0.0, 0.0, 0.0, 0.010105912573635578, 0.0, 0.0, 0.0, 0.0, 0.0, 0.0, 0.010105912573635578, 0.0, 0.0, 0.0, 0.0, 0.0, 0.0, 0.010105912573635578, 0.0, 0.0, 0.0, 0.0, 0.0, 0.0, 0.010105912573635578, 0.0, 0.0, 0.0, 0.0, 0.0, 0.0, 0.010105912573635578)",0.0,0.0,0.0,0.0,0.0,0.0,"(0.0, 0.0, 0.0, 0.0, 0.0, 0.0, 0.0, 0.0, 0.0, 0.0, 0.0, 0.0, 0.0, 0.0, 0.0, 0.0, 0.0, 0.0, 0.0, 0.0, 0.0, 0.0, 0.0, 0.0, 0.0, 0.0, 0.0, 0.0, 0.0, 0.0, 0.0, 0.0, 0.0, 0.0, 0.0, 0.0)"
1704351530.2473545,1487014,1704351530,234216690,map,base_link,2.678410376526358,9.602048985225167,-0.0780771110895141,0.005778343245291385,-0.0037884538800425417,0.7872333293017942,0.6166165288110195,"(0.010094339028000832, 0.0, 0.0, 0.0, 0.0, 0.0, 0.0, 0.010094339028000832, 0.0, 0.0, 0.0, 0.0, 0.0, 0.0, 0.010094339028000832, 0.0, 0.0, 0.0, 0.0, 0.0, 0.0, 0.010094339028000832, 0.0, 0.0, 0.0, 0.0, 0.0, 0.0, 0.010094339028000832, 0.0, 0.0, 0.0, 0.0, 0.0, 0.0, 0.010094339028000832)",0.0,0.0,0.0,0.0,0.0,0.0,"(0.0, 0.0, 0.0, 0.0, 0.0, 0.0, 0.0, 0.0, 0.0, 0.0, 0.0, 0.0, 0.0, 0.0, 0.0, 0.0, 0.0, 0.0, 0.0, 0.0, 0.0, 0.0, 0.0, 0.0, 0.0, 0.0, 0.0, 0.0, 0.0, 0.0, 0.0, 0.0, 0.0, 0.0, 0.0, 0.0)"
1704351530.2921917,1487015,1704351530,284339905,map,base_link,2.649188241322637,9.614248461885454,-0.07714056568321115,0.006230247804845373,-0.0035878569649009334,0.7916036416175571,0.6109926234190654,"(0.010096270591020584, 0.0, 0.0, 0.0, 0.0, 0.0, 0.0, 0.010096270591020584, 0.0, 0.0, 0.0, 0.0, 0.0, 0.0, 0.010096270591020584, 0.0, 0.0, 0.0, 0.0, 0.0, 0.0, 0.010096270591020584, 0.0, 0.0, 0.0, 0.0, 0.0, 0.0, 0.010096270591020584, 0.0, 0.0, 0.0, 0.0, 0.0, 0.0, 0.010096270591020584)",0.0,0.0,0.0,0.0,0.0,0.0,"(0.0, 0.0, 0.0, 0.0, 0.0, 0.0, 0.0, 0.0, 0.0, 0.0, 0.0, 0.0, 0.0, 0.0, 0.0, 0.0, 0.0, 0.0, 0.0, 0.0, 0.0, 0.0, 0.0, 0.0, 0.0, 0.0, 0.0, 0.0, 0.0, 0.0, 0.0, 0.0, 0.0, 0.0, 0.0, 0.0)"
1704351530.3449805,1487016,1704351530,333689690,map,base_link,2.651760991402217,9.621801963544575,-0.07622319293245572,0.006728343331607708,-0.004103658801156799,0.7965759194809743,0.6044871329346025,"(0.010126778855919838, 0.0, 0.0, 0.0, 0.0, 0.0, 0.0, 0.010126778855919838, 0.0, 0.0, 0.0, 0.0, 0.0, 0.0, 0.010126778855919838, 0.0, 0.0, 0.0, 0.0, 0.0, 0.0, 0.010126778855919838, 0.0, 0.0, 0.0, 0.0, 0.0, 0.0, 0.010126778855919838, 0.0, 0.0, 0.0, 0.0, 0.0, 0.0, 0.010126778855919838)",0.0,0.0,0.0,0.0,0.0,0.0,"(0.0, 0.0, 0.0, 0.0, 0.0, 0.0, 0.0, 0.0, 0.0, 0.0, 0.0, 0.0, 0.0, 0.0, 0.0, 0.0, 0.0, 0.0, 0.0, 0.0, 0.0, 0.0, 0.0, 0.0, 0.0, 0.0, 0.0, 0.0, 0.0, 0.0, 0.0, 0.0, 0.0, 0.0, 0.0, 0.0)"
1704351530.3984742,1487017,1704351530,383832932,map,base_link,2.6499940952335317,9.644013688881127,-0.07671619615651615,0.00637197107291275,-0.0040264301005310515,0.801549296977949,0.5978811841490305,"(0.010108241811394691, 0.0, 0.0, 0.0, 0.0, 0.0, 0.0, 0.010108241811394691, 0.0, 0.0, 0.0, 0.0, 0.0, 0.0, 0.010108241811394691, 0.0, 0.0, 0.0, 0.0, 0.0, 0.0, 0.010108241811394691, 0.0, 0.0, 0.0, 0.0, 0.0, 0.0, 0.010108241811394691, 0.0, 0.0, 0.0, 0.0, 0.0, 0.0, 0.010108241811394691)",0.0,0.0,0.0,0.0,0.0,0.0,"(0.0, 0.0, 0.0, 0.0, 0.0, 0.0, 0.0, 0.0, 0.0, 0.0, 0.0, 0.0, 0.0, 0.0, 0.0, 0.0, 0.0, 0.0, 0.0, 0.0, 0.0, 0.0, 0.0, 0.0, 0.0, 0.0, 0.0, 0.0, 0.0, 0.0, 0.0, 0.0, 0.0, 0.0, 0.0, 0.0)"
1704351530.445437,1487018,1704351530,434222698,map,base_link,2.6580453376310924,9.66245708468602,-0.07534770051112238,0.006605761907640443,-0.0039220036983286825,0.8064629849232645,0.5912346706218,"(0.010118787176907063, 0.0, 0.0, 0.0, 0.0, 0.0, 0.0, 0.010118787176907063, 0.0, 0.0, 0.0, 0.0, 0.0, 0.0, 0.010118787176907063, 0.0, 0.0, 0.0, 0.0, 0.0, 0.0, 0.010118787176907063, 0.0, 0.0, 0.0, 0.0, 0.0, 0.0, 0.010118787176907063, 0.0, 0.0, 0.0, 0.0, 0.0, 0.0, 0.010118787176907063)",0.0,0.0,0.0,0.0,0.0,0.0,"(0.0, 0.0, 0.0, 0.0, 0.0, 0.0, 0.0, 0.0, 0.0, 0.0, 0.0, 0.0, 0.0, 0.0, 0.0, 0.0, 0.0, 0.0, 0.0, 0.0, 0.0, 0.0, 0.0, 0.0, 0.0, 0.0, 0.0, 0.0, 0.0, 0.0, 0.0, 0.0, 0.0, 0.0, 0.0, 0.0)"
1704351530.4964814,1487019,1704351530,484260082,map,base_link,2.6890436992422306,9.689675325895523,-0.07087487158599992,0.006712634047808643,-0.004339049525917704,0.8113431251576947,0.5845155656205376,"(0.010128195397555828, 0.0, 0.0, 0.0, 0.0, 0.0, 0.0, 0.010128195397555828, 0.0, 0.0, 0.0, 0.0, 0.0, 0.0, 0.010128195397555828, 0.0, 0.0, 0.0, 0.0, 0.0, 0.0, 0.010128195397555828, 0.0, 0.0, 0.0, 0.0, 0.0, 0.0, 0.010128195397555828, 0.0, 0.0, 0.0, 0.0, 0.0, 0.0, 0.010128195397555828)",0.0,0.0,0.0,0.0,0.0,0.0,"(0.0, 0.0, 0.0, 0.0, 0.0, 0.0, 0.0, 0.0, 0.0, 0.0, 0.0, 0.0, 0.0, 0.0, 0.0, 0.0, 0.0, 0.0, 0.0, 0.0, 0.0, 0.0, 0.0, 0.0, 0.0, 0.0, 0.0, 0.0, 0.0, 0.0, 0.0, 0.0, 0.0, 0.0, 0.0, 0.0)"
1704351530.5404675,1487020,1704351530,533634663,map,base_link,2.6716959646250507,9.704011302944197,-0.07172278746212646,0.007283143259733726,-0.004195522997734804,0.815835180836146,0.5782234093506475,"(0.010137878358364105, 0.0, 0.0, 0.0, 0.0, 0.0, 0.0, 0.010137878358364105, 0.0, 0.0, 0.0, 0.0, 0.0, 0.0, 0.010137878358364105, 0.0, 0.0, 0.0, 0.0, 0.0, 0.0, 0.010137878358364105, 0.0, 0.0, 0.0, 0.0, 0.0, 0.0, 0.010137878358364105, 0.0, 0.0, 0.0, 0.0, 0.0, 0.0, 0.010137878358364105)",0.0,0.0,0.0,0.0,0.0,0.0,"(0.0, 0.0, 0.0, 0.0, 0.0, 0.0, 0.0, 0.0, 0.0, 0.0, 0.0, 0.0, 0.0, 0.0, 0.0, 0.0, 0.0, 0.0, 0.0, 0.0, 0.0, 0.0, 0.0, 0.0, 0.0, 0.0, 0.0, 0.0, 0.0, 0.0, 0.0, 0.0, 0.0, 0.0, 0.0, 0.0)"
1704351530.5953593,1487021,1704351530,583755970,map,base_link,2.666594227038177,9.708169449696564,-0.07782088467966286,0.0076804728508175135,-0.0038784767628193407,0.8203602361601361,0.5717823455494879,"(0.010129204951226711, 0.0, 0.0, 0.0, 0.0, 0.0, 0.0, 0.010129204951226711, 0.0, 0.0, 0.0, 0.0, 0.0, 0.0, 0.010129204951226711, 0.0, 0.0, 0.0, 0.0, 0.0, 0.0, 0.010129204951226711, 0.0, 0.0, 0.0, 0.0, 0.0, 0.0, 0.010129204951226711, 0.0, 0.0, 0.0, 0.0, 0.0, 0.0, 0.010129204951226711)",0.0,0.0,0.0,0.0,0.0,0.0,"(0.0, 0.0, 0.0, 0.0, 0.0, 0.0, 0.0, 0.0, 0.0, 0.0, 0.0, 0.0, 0.0, 0.0, 0.0, 0.0, 0.0, 0.0, 0.0, 0.0, 0.0, 0.0, 0.0, 0.0, 0.0, 0.0, 0.0, 0.0, 0.0, 0.0, 0.0, 0.0, 0.0, 0.0, 0.0, 0.0)"
1704351530.6458097,1487022,1704351530,634215593,map,base_link,2.6701475513993667,9.722803076719199,-0.07900642732003371,0.006750862448213076,-0.004368800119095857,0.8252410131779411,0.5647234806617927,"(0.010139575228095055, 0.0, 0.0, 0.0, 0.0, 0.0, 0.0, 0.010139575228095055, 0.0, 0.0, 0.0, 0.0, 0.0, 0.0, 0.010139575228095055, 0.0, 0.0, 0.0, 0.0, 0.0, 0.0, 0.010139575228095055, 0.0, 0.0, 0.0, 0.0, 0.0, 0.0, 0.010139575228095055, 0.0, 0.0, 0.0, 0.0, 0.0, 0.0, 0.010139575228095055)",0.0,0.0,0.0,0.0,0.0,0.0,"(0.0, 0.0, 0.0, 0.0, 0.0, 0.0, 0.0, 0.0, 0.0, 0.0, 0.0, 0.0, 0.0, 0.0, 0.0, 0.0, 0.0, 0.0, 0.0, 0.0, 0.0, 0.0, 0.0, 0.0, 0.0, 0.0, 0.0, 0.0, 0.0, 0.0, 0.0, 0.0, 0.0, 0.0, 0.0, 0.0)"
1704351530.7005458,1487023,1704351530,684334040,map,base_link,2.6704003986861196,9.74291560229513,-0.07475832834254148,0.006513390775785115,-0.004615031844866549,0.8296342008129088,0.5582502754707777,"(0.010129478760063648, 0.0, 0.0, 0.0, 0.0, 0.0, 0.0, 0.010129478760063648, 0.0, 0.0, 0.0, 0.0, 0.0, 0.0, 0.010129478760063648, 0.0, 0.0, 0.0, 0.0, 0.0, 0.0, 0.010129478760063648, 0.0, 0.0, 0.0, 0.0, 0.0, 0.0, 0.010129478760063648, 0.0, 0.0, 0.0, 0.0, 0.0, 0.0, 0.010129478760063648)",0.0,0.0,0.0,0.0,0.0,0.0,"(0.0, 0.0, 0.0, 0.0, 0.0, 0.0, 0.0, 0.0, 0.0, 0.0, 0.0, 0.0, 0.0, 0.0, 0.0, 0.0, 0.0, 0.0, 0.0, 0.0, 0.0, 0.0, 0.0, 0.0, 0.0, 0.0, 0.0, 0.0, 0.0, 0.0, 0.0, 0.0, 0.0, 0.0, 0.0, 0.0)"
1704351530.7482393,1487024,1704351530,733722687,map,base_link,2.66080796289266,9.76264186503977,-0.07013693008809996,0.005990793410149326,-0.004893791353126406,0.8338173554513104,0.55198621264366,"(0.010180053301155567, 0.0, 0.0, 0.0, 0.0, 0.0, 0.0, 0.010180053301155567, 0.0, 0.0, 0.0, 0.0, 0.0, 0.0, 0.010180053301155567, 0.0, 0.0, 0.0, 0.0, 0.0, 0.0, 0.010180053301155567, 0.0, 0.0, 0.0, 0.0, 0.0, 0.0, 0.010180053301155567, 0.0, 0.0, 0.0, 0.0, 0.0, 0.0, 0.010180053301155567)",0.0,0.0,0.0,0.0,0.0,0.0,"(0.0, 0.0, 0.0, 0.0, 0.0, 0.0, 0.0, 0.0, 0.0, 0.0, 0.0, 0.0, 0.0, 0.0, 0.0, 0.0, 0.0, 0.0, 0.0, 0.0, 0.0, 0.0, 0.0, 0.0, 0.0, 0.0, 0.0, 0.0, 0.0, 0.0, 0.0, 0.0, 0.0, 0.0, 0.0, 0.0)"
1704351530.792214,1487025,1704351530,783979893,map,base_link,2.6440601749692876,9.774371804947759,-0.06615576397999257,0.005836868269732968,-0.004479942436550746,0.8380490055582958,0.5455453467561779,"(0.010166636668145657, 0.0, 0.0, 0.0, 0.0, 0.0, 0.0, 0.010166636668145657, 0.0, 0.0, 0.0, 0.0, 0.0, 0.0, 0.010166636668145657, 0.0, 0.0, 0.0, 0.0, 0.0, 0.0, 0.010166636668145657, 0.0, 0.0, 0.0, 0.0, 0.0, 0.0, 0.010166636668145657, 0.0, 0.0, 0.0, 0.0, 0.0, 0.0, 0.010166636668145657)",0.0,0.0,0.0,0.0,0.0,0.0,"(0.0, 0.0, 0.0, 0.0, 0.0, 0.0, 0.0, 0.0, 0.0, 0.0, 0.0, 0.0, 0.0, 0.0, 0.0, 0.0, 0.0, 0.0, 0.0, 0.0, 0.0, 0.0, 0.0, 0.0, 0.0, 0.0, 0.0, 0.0, 0.0, 0.0, 0.0, 0.0, 0.0, 0.0, 0.0, 0.0)"
1704351530.8460917,1487026,1704351530,834326506,map,base_link,2.630869025659959,9.79524324337521,-0.06693793603939868,0.006341446201301196,-0.004251281272026684,0.8427041782620499,0.5383227476220054,"(0.010179305449128151, 0.0, 0.0, 0.0, 0.0, 0.0, 0.0, 0.010179305449128151, 0.0, 0.0, 0.0, 0.0, 0.0, 0.0, 0.010179305449128151, 0.0, 0.0, 0.0, 0.0, 0.0, 0.0, 0.010179305449128151, 0.0, 0.0, 0.0, 0.0, 0.0, 0.0, 0.010179305449128151, 0.0, 0.0, 0.0, 0.0, 0.0, 0.0, 0.010179305449128151)",0.0,0.0,0.0,0.0,0.0,0.0,"(0.0, 0.0, 0.0, 0.0, 0.0, 0.0, 0.0, 0.0, 0.0, 0.0, 0.0, 0.0, 0.0, 0.0, 0.0, 0.0, 0.0, 0.0, 0.0, 0.0, 0.0, 0.0, 0.0, 0.0, 0.0, 0.0, 0.0, 0.0, 0.0, 0.0, 0.0, 0.0, 0.0, 0.0, 0.0, 0.0)"
1704351530.8976486,1487027,1704351530,884455919,map,base_link,2.637304131654659,9.80670973136264,-0.07683552399617644,0.006953880842931718,-0.004239549042690403,0.847315214937603,0.531027867724831,"(0.010141860693693161, 0.0, 0.0, 0.0, 0.0, 0.0, 0.0, 0.010141860693693161, 0.0, 0.0, 0.0, 0.0, 0.0, 0.0, 0.010141860693693161, 0.0, 0.0, 0.0, 0.0, 0.0, 0.0, 0.010141860693693161, 0.0, 0.0, 0.0, 0.0, 0.0, 0.0, 0.010141860693693161, 0.0, 0.0, 0.0, 0.0, 0.0, 0.0, 0.010141860693693161)",0.0,0.0,0.0,0.0,0.0,0.0,"(0.0, 0.0, 0.0, 0.0, 0.0, 0.0, 0.0, 0.0, 0.0, 0.0, 0.0, 0.0, 0.0, 0.0, 0.0, 0.0, 0.0, 0.0, 0.0, 0.0, 0.0, 0.0, 0.0, 0.0, 0.0, 0.0, 0.0, 0.0, 0.0, 0.0, 0.0, 0.0, 0.0, 0.0, 0.0, 0.0)"
1704351530.9450765,1487028,1704351530,933738708,map,base_link,2.6231139715861786,9.827022895971366,-0.07127101828501603,0.006669903794975636,-0.00414661531597753,0.8521763285797923,0.5231957788180758,"(0.010158971883356571, 0.0, 0.0, 0.0, 0.0, 0.0, 0.0, 0.010158971883356571, 0.0, 0.0, 0.0, 0.0, 0.0, 0.0, 0.010158971883356571, 0.0, 0.0, 0.0, 0.0, 0.0, 0.0, 0.010158971883356571, 0.0, 0.0, 0.0, 0.0, 0.0, 0.0, 0.010158971883356571, 0.0, 0.0, 0.0, 0.0, 0.0, 0.0, 0.010158971883356571)",0.0,0.0,0.0,0.0,0.0,0.0,"(0.0, 0.0, 0.0, 0.0, 0.0, 0.0, 0.0, 0.0, 0.0, 0.0, 0.0, 0.0, 0.0, 0.0, 0.0, 0.0, 0.0, 0.0, 0.0, 0.0, 0.0, 0.0, 0.0, 0.0, 0.0, 0.0, 0.0, 0.0, 0.0, 0.0, 0.0, 0.0, 0.0, 0.0, 0.0, 0.0)"
1704351530.9952261,1487029,1704351530,983788013,map,base_link,2.607612099128955,9.84477675462989,-0.07983361721251603,0.006613440919661693,-0.0038569991641196283,0.8564662477203132,0.5161462510495812,"(0.010164123959839344, 0.0, 0.0, 0.0, 0.0, 0.0, 0.0, 0.010164123959839344, 0.0, 0.0, 0.0, 0.0, 0.0, 0.0, 0.010164123959839344, 0.0, 0.0, 0.0, 0.0, 0.0, 0.0, 0.010164123959839344, 0.0, 0.0, 0.0, 0.0, 0.0, 0.0, 0.010164123959839344, 0.0, 0.0, 0.0, 0.0, 0.0, 0.0, 0.010164123959839344)",0.0,0.0,0.0,0.0,0.0,0.0,"(0.0, 0.0, 0.0, 0.0, 0.0, 0.0, 0.0, 0.0, 0.0, 0.0, 0.0, 0.0, 0.0, 0.0, 0.0, 0.0, 0.0, 0.0, 0.0, 0.0, 0.0, 0.0, 0.0, 0.0, 0.0, 0.0, 0.0, 0.0, 0.0, 0.0, 0.0, 0.0, 0.0, 0.0, 0.0, 0.0)"
1704351531.0394895,1487030,1704351531,34108639,map,base_link,2.59972514570843,9.855467896034545,-0.07492869120073087,0.007369711400830024,-0.004883541640336891,0.8603658525976214,0.5096002728206527,"(0.010168376378715038, 0.0, 0.0, 0.0, 0.0, 0.0, 0.0, 0.010168376378715038, 0.0, 0.0, 0.0, 0.0, 0.0, 0.0, 0.010168376378715038, 0.0, 0.0, 0.0, 0.0, 0.0, 0.0, 0.010168376378715038, 0.0, 0.0, 0.0, 0.0, 0.0, 0.0, 0.010168376378715038, 0.0, 0.0, 0.0, 0.0, 0.0, 0.0, 0.010168376378715038)",0.0,0.0,0.0,0.0,0.0,0.0,"(0.0, 0.0, 0.0, 0.0, 0.0, 0.0, 0.0, 0.0, 0.0, 0.0, 0.0, 0.0, 0.0, 0.0, 0.0, 0.0, 0.0, 0.0, 0.0, 0.0, 0.0, 0.0, 0.0, 0.0, 0.0, 0.0, 0.0, 0.0, 0.0, 0.0, 0.0, 0.0, 0.0, 0.0, 0.0, 0.0)"
1704351531.0978749,1487031,1704351531,84189892,map,base_link,2.5928782279311076,9.86854521673692,-0.06731635935511893,0.006601985192438587,-0.005744579813102565,0.8637954742035722,0.5037666050262912,"(0.010161000303924084, 0.0, 0.0, 0.0, 0.0, 0.0, 0.0, 0.010161000303924084, 0.0, 0.0, 0.0, 0.0, 0.0, 0.0, 0.010161000303924084, 0.0, 0.0, 0.0, 0.0, 0.0, 0.0, 0.010161000303924084, 0.0, 0.0, 0.0, 0.0, 0.0, 0.0, 0.010161000303924084, 0.0, 0.0, 0.0, 0.0, 0.0, 0.0, 0.010161000303924084)",0.0,0.0,0.0,0.0,0.0,0.0,"(0.0, 0.0, 0.0, 0.0, 0.0, 0.0, 0.0, 0.0, 0.0, 0.0, 0.0, 0.0, 0.0, 0.0, 0.0, 0.0, 0.0, 0.0, 0.0, 0.0, 0.0, 0.0, 0.0, 0.0, 0.0, 0.0, 0.0, 0.0, 0.0, 0.0, 0.0, 0.0, 0.0, 0.0, 0.0, 0.0)"
1704351531.1409953,1487032,1704351531,134597540,map,base_link,2.5639747257325345,9.867858948981956,-0.07706977105895818,0.007334581121726237,-0.005912463279956501,0.8675335108020764,0.4972895075639094,"(0.010151349008083344, 0.0, 0.0, 0.0, 0.0, 0.0, 0.0, 0.010151349008083344, 0.0, 0.0, 0.0, 0.0, 0.0, 0.0, 0.010151349008083344, 0.0, 0.0, 0.0, 0.0, 0.0, 0.0, 0.010151349008083344, 0.0, 0.0, 0.0, 0.0, 0.0, 0.0, 0.010151349008083344, 0.0, 0.0, 0.0, 0.0, 0.0, 0.0, 0.010151349008083344)",0.0,0.0,0.0,0.0,0.0,0.0,"(0.0, 0.0, 0.0, 0.0, 0.0, 0.0, 0.0, 0.0, 0.0, 0.0, 0.0, 0.0, 0.0, 0.0, 0.0, 0.0, 0.0, 0.0, 0.0, 0.0, 0.0, 0.0, 0.0, 0.0, 0.0, 0.0, 0.0, 0.0, 0.0, 0.0, 0.0, 0.0, 0.0, 0.0, 0.0, 0.0)"
1704351531.1896195,1487033,1704351531,183616877,map,base_link,2.5497068893204173,9.88545271286262,-0.0699457992309439,0.007254870505820686,-0.00571556800341663,0.8714772339564599,0.4903489877953656,"(0.010167513974010944, 0.0, 0.0, 0.0, 0.0, 0.0, 0.0, 0.010167513974010944, 0.0, 0.0, 0.0, 0.0, 0.0, 0.0, 0.010167513974010944, 0.0, 0.0, 0.0, 0.0, 0.0, 0.0, 0.010167513974010944, 0.0, 0.0, 0.0, 0.0, 0.0, 0.0, 0.010167513974010944, 0.0, 0.0, 0.0, 0.0, 0.0, 0.0, 0.010167513974010944)",0.0,0.0,0.0,0.0,0.0,0.0,"(0.0, 0.0, 0.0, 0.0, 0.0, 0.0, 0.0, 0.0, 0.0, 0.0, 0.0, 0.0, 0.0, 0.0, 0.0, 0.0, 0.0, 0.0, 0.0, 0.0, 0.0, 0.0, 0.0, 0.0, 0.0, 0.0, 0.0, 0.0, 0.0, 0.0, 0.0, 0.0, 0.0, 0.0, 0.0, 0.0)"
1704351531.239209,1487034,1704351531,233795643,map,base_link,2.5553571624432925,9.89689822424386,-0.07359857974410655,0.00768369682679278,-0.005633112608395718,0.8755009925179899,0.4831223871292136,"(0.010168323293328285, 0.0, 0.0, 0.0, 0.0, 0.0, 0.0, 0.010168323293328285, 0.0, 0.0, 0.0, 0.0, 0.0, 0.0, 0.010168323293328285, 0.0, 0.0, 0.0, 0.0, 0.0, 0.0, 0.010168323293328285, 0.0, 0.0, 0.0, 0.0, 0.0, 0.0, 0.010168323293328285, 0.0, 0.0, 0.0, 0.0, 0.0, 0.0, 0.010168323293328285)",0.0,0.0,0.0,0.0,0.0,0.0,"(0.0, 0.0, 0.0, 0.0, 0.0, 0.0, 0.0, 0.0, 0.0, 0.0, 0.0, 0.0, 0.0, 0.0, 0.0, 0.0, 0.0, 0.0, 0.0, 0.0, 0.0, 0.0, 0.0, 0.0, 0.0, 0.0, 0.0, 0.0, 0.0, 0.0, 0.0, 0.0, 0.0, 0.0, 0.0, 0.0)"
1704351531.2985392,1487035,1704351531,284309864,map,base_link,2.5477834182705323,9.916900179992599,-0.07752227205741213,0.007961110893957327,-0.00533536339236682,0.8798312269334624,0.47518961133800436,"(0.010162219405174255, 0.0, 0.0, 0.0, 0.0, 0.0, 0.0, 0.010162219405174255, 0.0, 0.0, 0.0, 0.0, 0.0, 0.0, 0.010162219405174255, 0.0, 0.0, 0.0, 0.0, 0.0, 0.0, 0.010162219405174255, 0.0, 0.0, 0.0, 0.0, 0.0, 0.0, 0.010162219405174255, 0.0, 0.0, 0.0, 0.0, 0.0, 0.0, 0.010162219405174255)",0.0,0.0,0.0,0.0,0.0,0.0,"(0.0, 0.0, 0.0, 0.0, 0.0, 0.0, 0.0, 0.0, 0.0, 0.0, 0.0, 0.0, 0.0, 0.0, 0.0, 0.0, 0.0, 0.0, 0.0, 0.0, 0.0, 0.0, 0.0, 0.0, 0.0, 0.0, 0.0, 0.0, 0.0, 0.0, 0.0, 0.0, 0.0, 0.0, 0.0, 0.0)"
1704351531.3402138,1487036,1704351531,333641529,map,base_link,2.5326272111245105,9.931103478892474,-0.08571435727336296,0.00955821533822441,-0.005352128073603943,0.8833329308732129,0.4686181051555431,"(0.010154137387871742, 0.0, 0.0, 0.0, 0.0, 0.0, 0.0, 0.010154137387871742, 0.0, 0.0, 0.0, 0.0, 0.0, 0.0, 0.010154137387871742, 0.0, 0.0, 0.0, 0.0, 0.0, 0.0, 0.010154137387871742, 0.0, 0.0, 0.0, 0.0, 0.0, 0.0, 0.010154137387871742, 0.0, 0.0, 0.0, 0.0, 0.0, 0.0, 0.010154137387871742)",0.0,0.0,0.0,0.0,0.0,0.0,"(0.0, 0.0, 0.0, 0.0, 0.0, 0.0, 0.0, 0.0, 0.0, 0.0, 0.0, 0.0, 0.0, 0.0, 0.0, 0.0, 0.0, 0.0, 0.0, 0.0, 0.0, 0.0, 0.0, 0.0, 0.0, 0.0, 0.0, 0.0, 0.0, 0.0, 0.0, 0.0, 0.0, 0.0, 0.0, 0.0)"
1704351531.3897314,1487037,1704351531,383718967,map,base_link,2.5248730184218755,9.939730518161781,-0.08112561913188532,0.010543178463174282,-0.005247715243736066,0.8870349270814719,0.46155209999541996,"(0.010143115185201168, 0.0, 0.0, 0.0, 0.0, 0.0, 0.0, 0.010143115185201168, 0.0, 0.0, 0.0, 0.0, 0.0, 0.0, 0.010143115185201168, 0.0, 0.0, 0.0, 0.0, 0.0, 0.0, 0.010143115185201168, 0.0, 0.0, 0.0, 0.0, 0.0, 0.0, 0.010143115185201168, 0.0, 0.0, 0.0, 0.0, 0.0, 0.0, 0.010143115185201168)",0.0,0.0,0.0,0.0,0.0,0.0,"(0.0, 0.0, 0.0, 0.0, 0.0, 0.0, 0.0, 0.0, 0.0, 0.0, 0.0, 0.0, 0.0, 0.0, 0.0, 0.0, 0.0, 0.0, 0.0, 0.0, 0.0, 0.0, 0.0, 0.0, 0.0, 0.0, 0.0, 0.0, 0.0, 0.0, 0.0, 0.0, 0.0, 0.0, 0.0, 0.0)"
1704351531.444604,1487038,1704351531,434066534,map,base_link,2.5251470404785215,9.95235269872713,-0.07496468638350684,0.010084344615975521,-0.005074234483364457,0.8906767024319887,0.4544970515668421,"(0.010144666768610477, 0.0, 0.0, 0.0, 0.0, 0.0, 0.0, 0.010144666768610477, 0.0, 0.0, 0.0, 0.0, 0.0, 0.0, 0.010144666768610477, 0.0, 0.0, 0.0, 0.0, 0.0, 0.0, 0.010144666768610477, 0.0, 0.0, 0.0, 0.0, 0.0, 0.0, 0.010144666768610477, 0.0, 0.0, 0.0, 0.0, 0.0, 0.0, 0.010144666768610477)",0.0,0.0,0.0,0.0,0.0,0.0,"(0.0, 0.0, 0.0, 0.0, 0.0, 0.0, 0.0, 0.0, 0.0, 0.0, 0.0, 0.0, 0.0, 0.0, 0.0, 0.0, 0.0, 0.0, 0.0, 0.0, 0.0, 0.0, 0.0, 0.0, 0.0, 0.0, 0.0, 0.0, 0.0, 0.0, 0.0, 0.0, 0.0, 0.0, 0.0, 0.0)"
1704351531.4903214,1487039,1704351531,484140873,map,base_link,2.500144538932435,9.963864787912424,-0.07156467338274675,0.009132181127493443,-0.005141878872342729,0.8942041233798033,0.44753675835631035,"(0.010147507302463055, 0.0, 0.0, 0.0, 0.0, 0.0, 0.0, 0.010147507302463055, 0.0, 0.0, 0.0, 0.0, 0.0, 0.0, 0.010147507302463055, 0.0, 0.0, 0.0, 0.0, 0.0, 0.0, 0.010147507302463055, 0.0, 0.0, 0.0, 0.0, 0.0, 0.0, 0.010147507302463055, 0.0, 0.0, 0.0, 0.0, 0.0, 0.0, 0.010147507302463055)",0.0,0.0,0.0,0.0,0.0,0.0,"(0.0, 0.0, 0.0, 0.0, 0.0, 0.0, 0.0, 0.0, 0.0, 0.0, 0.0, 0.0, 0.0, 0.0, 0.0, 0.0, 0.0, 0.0, 0.0, 0.0, 0.0, 0.0, 0.0, 0.0, 0.0, 0.0, 0.0, 0.0, 0.0, 0.0, 0.0, 0.0, 0.0, 0.0, 0.0, 0.0)"
1704351531.5412834,1487040,1704351531,534508705,map,base_link,2.4955763273174507,9.962587842921744,-0.07784697858018763,0.008576212033716462,-0.005511545773735839,0.897049800632637,0.4418118679203661,"(0.01015253085643053, 0.0, 0.0, 0.0, 0.0, 0.0, 0.0, 0.01015253085643053, 0.0, 0.0, 0.0, 0.0, 0.0, 0.0, 0.01015253085643053, 0.0, 0.0, 0.0, 0.0, 0.0, 0.0, 0.01015253085643053, 0.0, 0.0, 0.0, 0.0, 0.0, 0.0, 0.01015253085643053, 0.0, 0.0, 0.0, 0.0, 0.0, 0.0, 0.01015253085643053)",0.0,0.0,0.0,0.0,0.0,0.0,"(0.0, 0.0, 0.0, 0.0, 0.0, 0.0, 0.0, 0.0, 0.0, 0.0, 0.0, 0.0, 0.0, 0.0, 0.0, 0.0, 0.0, 0.0, 0.0, 0.0, 0.0, 0.0, 0.0, 0.0, 0.0, 0.0, 0.0, 0.0, 0.0, 0.0, 0.0, 0.0, 0.0, 0.0, 0.0, 0.0)"
1704351531.606695,1487041,1704351531,583642960,map,base_link,2.4924024193732897,9.976037091409808,-0.07257801396306784,0.009702133903199073,-0.005420134378833174,0.899991865944942,0.435764996269757,"(0.0101079773157835, 0.0, 0.0, 0.0, 0.0, 0.0, 0.0, 0.0101079773157835, 0.0, 0.0, 0.0, 0.0, 0.0, 0.0, 0.0101079773157835, 0.0, 0.0, 0.0, 0.0, 0.0, 0.0, 0.0101079773157835, 0.0, 0.0, 0.0, 0.0, 0.0, 0.0, 0.0101079773157835, 0.0, 0.0, 0.0, 0.0, 0.0, 0.0, 0.0101079773157835)",0.0,0.0,0.0,0.0,0.0,0.0,"(0.0, 0.0, 0.0, 0.0, 0.0, 0.0, 0.0, 0.0, 0.0, 0.0, 0.0, 0.0, 0.0, 0.0, 0.0, 0.0, 0.0, 0.0, 0.0, 0.0, 0.0, 0.0, 0.0, 0.0, 0.0, 0.0, 0.0, 0.0, 0.0, 0.0, 0.0, 0.0, 0.0, 0.0, 0.0, 0.0)"
1704351531.6481853,1487042,1704351531,634029627,map,base_link,2.480206488535611,9.989314952813448,-0.06464334245887893,0.0069027324984949545,-0.005458806702911479,0.9031248194418422,0.4292879152987823,"(0.010128005407750607, 0.0, 0.0, 0.0, 0.0, 0.0, 0.0, 0.010128005407750607, 0.0, 0.0, 0.0, 0.0, 0.0, 0.0, 0.010128005407750607, 0.0, 0.0, 0.0, 0.0, 0.0, 0.0, 0.010128005407750607, 0.0, 0.0, 0.0, 0.0, 0.0, 0.0, 0.010128005407750607, 0.0, 0.0, 0.0, 0.0, 0.0, 0.0, 0.010128005407750607)",0.0,0.0,0.0,0.0,0.0,0.0,"(0.0, 0.0, 0.0, 0.0, 0.0, 0.0, 0.0, 0.0, 0.0, 0.0, 0.0, 0.0, 0.0, 0.0, 0.0, 0.0, 0.0, 0.0, 0.0, 0.0, 0.0, 0.0, 0.0, 0.0, 0.0, 0.0, 0.0, 0.0, 0.0, 0.0, 0.0, 0.0, 0.0, 0.0, 0.0, 0.0)"
1704351531.6963058,1487043,1704351531,684143066,map,base_link,2.4721317152205096,10.012415647895885,-0.07389913517005164,0.006269769597981904,-0.0053193339778250725,0.9070462374575337,0.4209507308336118,"(0.01011628471314907, 0.0, 0.0, 0.0, 0.0, 0.0, 0.0, 0.01011628471314907, 0.0, 0.0, 0.0, 0.0, 0.0, 0.0, 0.01011628471314907, 0.0, 0.0, 0.0, 0.0, 0.0, 0.0, 0.01011628471314907, 0.0, 0.0, 0.0, 0.0, 0.0, 0.0, 0.01011628471314907, 0.0, 0.0, 0.0, 0.0, 0.0, 0.0, 0.01011628471314907)",0.0,0.0,0.0,0.0,0.0,0.0,"(0.0, 0.0, 0.0, 0.0, 0.0, 0.0, 0.0, 0.0, 0.0, 0.0, 0.0, 0.0, 0.0, 0.0, 0.0, 0.0, 0.0, 0.0, 0.0, 0.0, 0.0, 0.0, 0.0, 0.0, 0.0, 0.0, 0.0, 0.0, 0.0, 0.0, 0.0, 0.0, 0.0, 0.0, 0.0, 0.0)"
1704351531.7442095,1487044,1704351531,734553576,map,base_link,2.470289385887615,10.027325613653554,-0.06814833594795522,0.005639169487250532,-0.004852429202342481,0.9103274982854491,0.41382182103374643,"(0.010137222707271576, 0.0, 0.0, 0.0, 0.0, 0.0, 0.0, 0.010137222707271576, 0.0, 0.0, 0.0, 0.0, 0.0, 0.0, 0.010137222707271576, 0.0, 0.0, 0.0, 0.0, 0.0, 0.0, 0.010137222707271576, 0.0, 0.0, 0.0, 0.0, 0.0, 0.0, 0.010137222707271576, 0.0, 0.0, 0.0, 0.0, 0.0, 0.0, 0.010137222707271576)",0.0,0.0,0.0,0.0,0.0,0.0,"(0.0, 0.0, 0.0, 0.0, 0.0, 0.0, 0.0, 0.0, 0.0, 0.0, 0.0, 0.0, 0.0, 0.0, 0.0, 0.0, 0.0, 0.0, 0.0, 0.0, 0.0, 0.0, 0.0, 0.0, 0.0, 0.0, 0.0, 0.0, 0.0, 0.0, 0.0, 0.0, 0.0, 0.0, 0.0, 0.0)"
1704351531.7956793,1487045,1704351531,783622026,map,base_link,2.4604079489065462,10.036940147937804,-0.07462670562156815,0.007362026424779447,-0.003637706248752734,0.9134641517916801,0.40683634431018456,"(0.010107970796525478, 0.0, 0.0, 0.0, 0.0, 0.0, 0.0, 0.010107970796525478, 0.0, 0.0, 0.0, 0.0, 0.0, 0.0, 0.010107970796525478, 0.0, 0.0, 0.0, 0.0, 0.0, 0.0, 0.010107970796525478, 0.0, 0.0, 0.0, 0.0, 0.0, 0.0, 0.010107970796525478, 0.0, 0.0, 0.0, 0.0, 0.0, 0.0, 0.010107970796525478)",0.0,0.0,0.0,0.0,0.0,0.0,"(0.0, 0.0, 0.0, 0.0, 0.0, 0.0, 0.0, 0.0, 0.0, 0.0, 0.0, 0.0, 0.0, 0.0, 0.0, 0.0, 0.0, 0.0, 0.0, 0.0, 0.0, 0.0, 0.0, 0.0, 0.0, 0.0, 0.0, 0.0, 0.0, 0.0, 0.0, 0.0, 0.0, 0.0, 0.0, 0.0)"
1704351531.8451214,1487046,1704351531,833994627,map,base_link,2.4468264854764663,10.043843907616216,-0.06626973433601724,0.006862520499117658,-0.004896875788978605,0.9162260613917218,0.4005730031423977,"(0.010122405365109444, 0.0, 0.0, 0.0, 0.0, 0.0, 0.0, 0.010122405365109444, 0.0, 0.0, 0.0, 0.0, 0.0, 0.0, 0.010122405365109444, 0.0, 0.0, 0.0, 0.0, 0.0, 0.0, 0.010122405365109444, 0.0, 0.0, 0.0, 0.0, 0.0, 0.0, 0.010122405365109444, 0.0, 0.0, 0.0, 0.0, 0.0, 0.0, 0.010122405365109444)",0.0,0.0,0.0,0.0,0.0,0.0,"(0.0, 0.0, 0.0, 0.0, 0.0, 0.0, 0.0, 0.0, 0.0, 0.0, 0.0, 0.0, 0.0, 0.0, 0.0, 0.0, 0.0, 0.0, 0.0, 0.0, 0.0, 0.0, 0.0, 0.0, 0.0, 0.0, 0.0, 0.0, 0.0, 0.0, 0.0, 0.0, 0.0, 0.0, 0.0, 0.0)"
1704351531.8905575,1487047,1704351531,884365082,map,base_link,2.4393616205083717,10.064296378255223,-0.07473144604684556,0.007915746528841352,-0.004048761035719966,0.9194193012050196,0.3931782001365798,"(0.010098925791680813, 0.0, 0.0, 0.0, 0.0, 0.0, 0.0, 0.010098925791680813, 0.0, 0.0, 0.0, 0.0, 0.0, 0.0, 0.010098925791680813, 0.0, 0.0, 0.0, 0.0, 0.0, 0.0, 0.010098925791680813, 0.0, 0.0, 0.0, 0.0, 0.0, 0.0, 0.010098925791680813, 0.0, 0.0, 0.0, 0.0, 0.0, 0.0, 0.010098925791680813)",0.0,0.0,0.0,0.0,0.0,0.0,"(0.0, 0.0, 0.0, 0.0, 0.0, 0.0, 0.0, 0.0, 0.0, 0.0, 0.0, 0.0, 0.0, 0.0, 0.0, 0.0, 0.0, 0.0, 0.0, 0.0, 0.0, 0.0, 0.0, 0.0, 0.0, 0.0, 0.0, 0.0, 0.0, 0.0, 0.0, 0.0, 0.0, 0.0, 0.0, 0.0)"
1704351531.9461336,1487048,1704351531,933667660,map,base_link,2.4301812918557437,10.063198216659643,-0.07442351434552752,0.007368370699272436,-0.0045431026940447785,0.9221141694936369,0.38682105132762595,"(0.010135252960026264, 0.0, 0.0, 0.0, 0.0, 0.0, 0.0, 0.010135252960026264, 0.0, 0.0, 0.0, 0.0, 0.0, 0.0, 0.010135252960026264, 0.0, 0.0, 0.0, 0.0, 0.0, 0.0, 0.010135252960026264, 0.0, 0.0, 0.0, 0.0, 0.0, 0.0, 0.010135252960026264, 0.0, 0.0, 0.0, 0.0, 0.0, 0.0, 0.010135252960026264)",0.0,0.0,0.0,0.0,0.0,0.0,"(0.0, 0.0, 0.0, 0.0, 0.0, 0.0, 0.0, 0.0, 0.0, 0.0, 0.0, 0.0, 0.0, 0.0, 0.0, 0.0, 0.0, 0.0, 0.0, 0.0, 0.0, 0.0, 0.0, 0.0, 0.0, 0.0, 0.0, 0.0, 0.0, 0.0, 0.0, 0.0, 0.0, 0.0, 0.0, 0.0)"
1704351531.989976,1487049,1704351531,983757019,map,base_link,2.4155202792720902,10.071847170075985,-0.06797507254023782,0.006537246905608902,-0.0058354534444819495,0.9254909047483387,0.3786684527579419,"(0.010184096172451973, 0.0, 0.0, 0.0, 0.0, 0.0, 0.0, 0.010184096172451973, 0.0, 0.0, 0.0, 0.0, 0.0, 0.0, 0.010184096172451973, 0.0, 0.0, 0.0, 0.0, 0.0, 0.0, 0.010184096172451973, 0.0, 0.0, 0.0, 0.0, 0.0, 0.0, 0.010184096172451973, 0.0, 0.0, 0.0, 0.0, 0.0, 0.0, 0.010184096172451973)",0.0,0.0,0.0,0.0,0.0,0.0,"(0.0, 0.0, 0.0, 0.0, 0.0, 0.0, 0.0, 0.0, 0.0, 0.0, 0.0, 0.0, 0.0, 0.0, 0.0, 0.0, 0.0, 0.0, 0.0, 0.0, 0.0, 0.0, 0.0, 0.0, 0.0, 0.0, 0.0, 0.0, 0.0, 0.0, 0.0, 0.0, 0.0, 0.0, 0.0, 0.0)"
1704351532.0503352,1487050,1704351532,34190655,map,base_link,2.4030578861555894,10.088156572077105,-0.07361899774444591,0.0069859751804016434,-0.005849201023700989,0.928380337048095,0.3715197609557648,"(0.010162360966205597, 0.0, 0.0, 0.0, 0.0, 0.0, 0.0, 0.010162360966205597, 0.0, 0.0, 0.0, 0.0, 0.0, 0.0, 0.010162360966205597, 0.0, 0.0, 0.0, 0.0, 0.0, 0.0, 0.010162360966205597, 0.0, 0.0, 0.0, 0.0, 0.0, 0.0, 0.010162360966205597, 0.0, 0.0, 0.0, 0.0, 0.0, 0.0, 0.010162360966205597)",0.0,0.0,0.0,0.0,0.0,0.0,"(0.0, 0.0, 0.0, 0.0, 0.0, 0.0, 0.0, 0.0, 0.0, 0.0, 0.0, 0.0, 0.0, 0.0, 0.0, 0.0, 0.0, 0.0, 0.0, 0.0, 0.0, 0.0, 0.0, 0.0, 0.0, 0.0, 0.0, 0.0, 0.0, 0.0, 0.0, 0.0, 0.0, 0.0, 0.0, 0.0)"
1704351532.0989847,1487051,1704351532,84213972,map,base_link,2.4069160654220214,10.09676540732931,-0.06804993822148353,0.0063677026719343175,-0.005533127787873382,0.9314489526981925,0.36377422307937846,"(0.01016153208911419, 0.0, 0.0, 0.0, 0.0, 0.0, 0.0, 0.01016153208911419, 0.0, 0.0, 0.0, 0.0, 0.0, 0.0, 0.01016153208911419, 0.0, 0.0, 0.0, 0.0, 0.0, 0.0, 0.01016153208911419, 0.0, 0.0, 0.0, 0.0, 0.0, 0.0, 0.01016153208911419, 0.0, 0.0, 0.0, 0.0, 0.0, 0.0, 0.01016153208911419)",0.0,0.0,0.0,0.0,0.0,0.0,"(0.0, 0.0, 0.0, 0.0, 0.0, 0.0, 0.0, 0.0, 0.0, 0.0, 0.0, 0.0, 0.0, 0.0, 0.0, 0.0, 0.0, 0.0, 0.0, 0.0, 0.0, 0.0, 0.0, 0.0, 0.0, 0.0, 0.0, 0.0, 0.0, 0.0, 0.0, 0.0, 0.0, 0.0, 0.0, 0.0)"
1704351532.146714,1487052,1704351532,133526564,map,base_link,2.4050441867153585,10.112179192421882,-0.06993840595144896,0.006280610308157672,-0.005663132733897537,0.9350493506089923,0.3544166965416514,"(0.010127054527401924, 0.0, 0.0, 0.0, 0.0, 0.0, 0.0, 0.010127054527401924, 0.0, 0.0, 0.0, 0.0, 0.0, 0.0, 0.010127054527401924, 0.0, 0.0, 0.0, 0.0, 0.0, 0.0, 0.010127054527401924, 0.0, 0.0, 0.0, 0.0, 0.0, 0.0, 0.010127054527401924, 0.0, 0.0, 0.0, 0.0, 0.0, 0.0, 0.010127054527401924)",0.0,0.0,0.0,0.0,0.0,0.0,"(0.0, 0.0, 0.0, 0.0, 0.0, 0.0, 0.0, 0.0, 0.0, 0.0, 0.0, 0.0, 0.0, 0.0, 0.0, 0.0, 0.0, 0.0, 0.0, 0.0, 0.0, 0.0, 0.0, 0.0, 0.0, 0.0, 0.0, 0.0, 0.0, 0.0, 0.0, 0.0, 0.0, 0.0, 0.0, 0.0)"
1704351532.1898825,1487053,1704351532,183619022,map,base_link,2.3984001100894066,10.118728194647591,-0.0748413921782094,0.006953903748486925,-0.0045106619288308005,0.9377371411132519,0.34724681615295716,"(0.010120345279574394, 0.0, 0.0, 0.0, 0.0, 0.0, 0.0, 0.010120345279574394, 0.0, 0.0, 0.0, 0.0, 0.0, 0.0, 0.010120345279574394, 0.0, 0.0, 0.0, 0.0, 0.0, 0.0, 0.010120345279574394, 0.0, 0.0, 0.0, 0.0, 0.0, 0.0, 0.010120345279574394, 0.0, 0.0, 0.0, 0.0, 0.0, 0.0, 0.010120345279574394)",0.0,0.0,0.0,0.0,0.0,0.0,"(0.0, 0.0, 0.0, 0.0, 0.0, 0.0, 0.0, 0.0, 0.0, 0.0, 0.0, 0.0, 0.0, 0.0, 0.0, 0.0, 0.0, 0.0, 0.0, 0.0, 0.0, 0.0, 0.0, 0.0, 0.0, 0.0, 0.0, 0.0, 0.0, 0.0, 0.0, 0.0, 0.0, 0.0, 0.0, 0.0)"
1704351532.245008,1487054,1704351532,233934641,map,base_link,2.3947071520275927,10.139902888999307,-0.06767943016403666,0.007081316474016981,-0.004459240278589366,0.9404679125099576,0.33977945151567845,"(0.010110044851899147, 0.0, 0.0, 0.0, 0.0, 0.0, 0.0, 0.010110044851899147, 0.0, 0.0, 0.0, 0.0, 0.0, 0.0, 0.010110044851899147, 0.0, 0.0, 0.0, 0.0, 0.0, 0.0, 0.010110044851899147, 0.0, 0.0, 0.0, 0.0, 0.0, 0.0, 0.010110044851899147, 0.0, 0.0, 0.0, 0.0, 0.0, 0.0, 0.010110044851899147)",0.0,0.0,0.0,0.0,0.0,0.0,"(0.0, 0.0, 0.0, 0.0, 0.0, 0.0, 0.0, 0.0, 0.0, 0.0, 0.0, 0.0, 0.0, 0.0, 0.0, 0.0, 0.0, 0.0, 0.0, 0.0, 0.0, 0.0, 0.0, 0.0, 0.0, 0.0, 0.0, 0.0, 0.0, 0.0, 0.0, 0.0, 0.0, 0.0, 0.0, 0.0)"
1704351532.2995338,1487055,1704351532,283673048,map,base_link,2.372370722382221,10.131504778952642,-0.060731891077543176,0.0073839101098846435,-0.0034835266896755916,0.9428290855135256,0.3331766174614005,"(0.010129136964678764, 0.0, 0.0, 0.0, 0.0, 0.0, 0.0, 0.010129136964678764, 0.0, 0.0, 0.0, 0.0, 0.0, 0.0, 0.010129136964678764, 0.0, 0.0, 0.0, 0.0, 0.0, 0.0, 0.010129136964678764, 0.0, 0.0, 0.0, 0.0, 0.0, 0.0, 0.010129136964678764, 0.0, 0.0, 0.0, 0.0, 0.0, 0.0, 0.010129136964678764)",0.0,0.0,0.0,0.0,0.0,0.0,"(0.0, 0.0, 0.0, 0.0, 0.0, 0.0, 0.0, 0.0, 0.0, 0.0, 0.0, 0.0, 0.0, 0.0, 0.0, 0.0, 0.0, 0.0, 0.0, 0.0, 0.0, 0.0, 0.0, 0.0, 0.0, 0.0, 0.0, 0.0, 0.0, 0.0, 0.0, 0.0, 0.0, 0.0, 0.0, 0.0)"
1704351532.350687,1487056,1704351532,333596706,map,base_link,2.3561864501425496,10.13938254417447,-0.06304693927898375,0.00539201980811719,-0.003405198268889566,0.9452050408098501,0.3264150143219334,"(0.010126730427145958, 0.0, 0.0, 0.0, 0.0, 0.0, 0.0, 0.010126730427145958, 0.0, 0.0, 0.0, 0.0, 0.0, 0.0, 0.010126730427145958, 0.0, 0.0, 0.0, 0.0, 0.0, 0.0, 0.010126730427145958, 0.0, 0.0, 0.0, 0.0, 0.0, 0.0, 0.010126730427145958, 0.0, 0.0, 0.0, 0.0, 0.0, 0.0, 0.010126730427145958)",0.0,0.0,0.0,0.0,0.0,0.0,"(0.0, 0.0, 0.0, 0.0, 0.0, 0.0, 0.0, 0.0, 0.0, 0.0, 0.0, 0.0, 0.0, 0.0, 0.0, 0.0, 0.0, 0.0, 0.0, 0.0, 0.0, 0.0, 0.0, 0.0, 0.0, 0.0, 0.0, 0.0, 0.0, 0.0, 0.0, 0.0, 0.0, 0.0, 0.0, 0.0)"
1704351532.3962169,1487057,1704351532,383626938,map,base_link,2.3454475777485277,10.161420305404391,-0.0617629318876447,0.007154729890753171,-0.003821106489868788,0.9479648129227024,0.31827177450381805,"(0.010143712162971497, 0.0, 0.0, 0.0, 0.0, 0.0, 0.0, 0.010143712162971497, 0.0, 0.0, 0.0, 0.0, 0.0, 0.0, 0.010143712162971497, 0.0, 0.0, 0.0, 0.0, 0.0, 0.0, 0.010143712162971497, 0.0, 0.0, 0.0, 0.0, 0.0, 0.0, 0.010143712162971497, 0.0, 0.0, 0.0, 0.0, 0.0, 0.0, 0.010143712162971497)",0.0,0.0,0.0,0.0,0.0,0.0,"(0.0, 0.0, 0.0, 0.0, 0.0, 0.0, 0.0, 0.0, 0.0, 0.0, 0.0, 0.0, 0.0, 0.0, 0.0, 0.0, 0.0, 0.0, 0.0, 0.0, 0.0, 0.0, 0.0, 0.0, 0.0, 0.0, 0.0, 0.0, 0.0, 0.0, 0.0, 0.0, 0.0, 0.0, 0.0, 0.0)"
1704351532.4402347,1487058,1704351532,434001684,map,base_link,2.3247279534288343,10.16097433184389,-0.07038982357275347,0.006447678944014992,-0.005084301847367378,0.9503291317790087,0.3111384235402553,"(0.01012830063700676, 0.0, 0.0, 0.0, 0.0, 0.0, 0.0, 0.01012830063700676, 0.0, 0.0, 0.0, 0.0, 0.0, 0.0, 0.01012830063700676, 0.0, 0.0, 0.0, 0.0, 0.0, 0.0, 0.01012830063700676, 0.0, 0.0, 0.0, 0.0, 0.0, 0.0, 0.01012830063700676, 0.0, 0.0, 0.0, 0.0, 0.0, 0.0, 0.01012830063700676)",0.0,0.0,0.0,0.0,0.0,0.0,"(0.0, 0.0, 0.0, 0.0, 0.0, 0.0, 0.0, 0.0, 0.0, 0.0, 0.0, 0.0, 0.0, 0.0, 0.0, 0.0, 0.0, 0.0, 0.0, 0.0, 0.0, 0.0, 0.0, 0.0, 0.0, 0.0, 0.0, 0.0, 0.0, 0.0, 0.0, 0.0, 0.0, 0.0, 0.0, 0.0)"
1704351532.4969592,1487059,1704351532,484107018,map,base_link,2.3088769959775166,10.181194632969273,-0.06915342856414253,0.005668002755136012,-0.004720523190502214,0.9527513976918034,0.30366159553340083,"(0.01015239953994751, 0.0, 0.0, 0.0, 0.0, 0.0, 0.0, 0.01015239953994751, 0.0, 0.0, 0.0, 0.0, 0.0, 0.0, 0.01015239953994751, 0.0, 0.0, 0.0, 0.0, 0.0, 0.0, 0.01015239953994751, 0.0, 0.0, 0.0, 0.0, 0.0, 0.0, 0.01015239953994751, 0.0, 0.0, 0.0, 0.0, 0.0, 0.0, 0.01015239953994751)",0.0,0.0,0.0,0.0,0.0,0.0,"(0.0, 0.0, 0.0, 0.0, 0.0, 0.0, 0.0, 0.0, 0.0, 0.0, 0.0, 0.0, 0.0, 0.0, 0.0, 0.0, 0.0, 0.0, 0.0, 0.0, 0.0, 0.0, 0.0, 0.0, 0.0, 0.0, 0.0, 0.0, 0.0, 0.0, 0.0, 0.0, 0.0, 0.0, 0.0, 0.0)"
1704351532.5402331,1487060,1704351532,534492493,map,base_link,2.30737349480093,10.181086963145031,-0.06252714503032386,0.006100695774540649,-0.00548088852151019,0.9547173552230908,0.2974012659823555,"(0.010156529024243355, 0.0, 0.0, 0.0, 0.0, 0.0, 0.0, 0.010156529024243355, 0.0, 0.0, 0.0, 0.0, 0.0, 0.0, 0.010156529024243355, 0.0, 0.0, 0.0, 0.0, 0.0, 0.0, 0.010156529024243355, 0.0, 0.0, 0.0, 0.0, 0.0, 0.0, 0.010156529024243355, 0.0, 0.0, 0.0, 0.0, 0.0, 0.0, 0.010156529024243355)",0.0,0.0,0.0,0.0,0.0,0.0,"(0.0, 0.0, 0.0, 0.0, 0.0, 0.0, 0.0, 0.0, 0.0, 0.0, 0.0, 0.0, 0.0, 0.0, 0.0, 0.0, 0.0, 0.0, 0.0, 0.0, 0.0, 0.0, 0.0, 0.0, 0.0, 0.0, 0.0, 0.0, 0.0, 0.0, 0.0, 0.0, 0.0, 0.0, 0.0, 0.0)"
1704351532.5899017,1487061,1704351532,583491087,map,base_link,2.304777011233772,10.17555087839497,-0.06714550395803731,0.006578817891692045,-0.006224341622506712,0.9571788206382617,0.2893556324802764,"(0.010206433944404125, 0.0, 0.0, 0.0, 0.0, 0.0, 0.0, 0.010206433944404125, 0.0, 0.0, 0.0, 0.0, 0.0, 0.0, 0.010206433944404125, 0.0, 0.0, 0.0, 0.0, 0.0, 0.0, 0.010206433944404125, 0.0, 0.0, 0.0, 0.0, 0.0, 0.0, 0.010206433944404125, 0.0, 0.0, 0.0, 0.0, 0.0, 0.0, 0.010206433944404125)",0.0,0.0,0.0,0.0,0.0,0.0,"(0.0, 0.0, 0.0, 0.0, 0.0, 0.0, 0.0, 0.0, 0.0, 0.0, 0.0, 0.0, 0.0, 0.0, 0.0, 0.0, 0.0, 0.0, 0.0, 0.0, 0.0, 0.0, 0.0, 0.0, 0.0, 0.0, 0.0, 0.0, 0.0, 0.0, 0.0, 0.0, 0.0, 0.0, 0.0, 0.0)"
1704351532.6390338,1487062,1704351532,633844614,map,base_link,2.3034899914872775,10.189717543512478,-0.0723192460553902,0.006042160355920556,-0.006498428308371722,0.9595719848704692,0.2813234234462216,"(0.010150923393666744, 0.0, 0.0, 0.0, 0.0, 0.0, 0.0, 0.010150923393666744, 0.0, 0.0, 0.0, 0.0, 0.0, 0.0, 0.010150923393666744, 0.0, 0.0, 0.0, 0.0, 0.0, 0.0, 0.010150923393666744, 0.0, 0.0, 0.0, 0.0, 0.0, 0.0, 0.010150923393666744, 0.0, 0.0, 0.0, 0.0, 0.0, 0.0, 0.010150923393666744)",0.0,0.0,0.0,0.0,0.0,0.0,"(0.0, 0.0, 0.0, 0.0, 0.0, 0.0, 0.0, 0.0, 0.0, 0.0, 0.0, 0.0, 0.0, 0.0, 0.0, 0.0, 0.0, 0.0, 0.0, 0.0, 0.0, 0.0, 0.0, 0.0, 0.0, 0.0, 0.0, 0.0, 0.0, 0.0, 0.0, 0.0, 0.0, 0.0, 0.0, 0.0)"
1704351532.6898594,1487063,1704351532,683948994,map,base_link,2.2936664884905915,10.187568162302725,-0.06295256038750785,0.006612368760788377,-0.007138661468165234,0.9619915341990045,0.27290585230305997,"(0.010223813354969025, 0.0, 0.0, 0.0, 0.0, 0.0, 0.0, 0.010223813354969025, 0.0, 0.0, 0.0, 0.0, 0.0, 0.0, 0.010223813354969025, 0.0, 0.0, 0.0, 0.0, 0.0, 0.0, 0.010223813354969025, 0.0, 0.0, 0.0, 0.0, 0.0, 0.0, 0.010223813354969025, 0.0, 0.0, 0.0, 0.0, 0.0, 0.0, 0.010223813354969025)",0.0,0.0,0.0,0.0,0.0,0.0,"(0.0, 0.0, 0.0, 0.0, 0.0, 0.0, 0.0, 0.0, 0.0, 0.0, 0.0, 0.0, 0.0, 0.0, 0.0, 0.0, 0.0, 0.0, 0.0, 0.0, 0.0, 0.0, 0.0, 0.0, 0.0, 0.0, 0.0, 0.0, 0.0, 0.0, 0.0, 0.0, 0.0, 0.0, 0.0, 0.0)"
1704351532.7455432,1487064,1704351532,734336615,map,base_link,2.276082782276854,10.201093728918618,-0.0686312439586434,0.006446438759958475,-0.007131964343701419,0.9641585824093355,0.2651524212190697,"(0.010171325877308846, 0.0, 0.0, 0.0, 0.0, 0.0, 0.0, 0.010171325877308846, 0.0, 0.0, 0.0, 0.0, 0.0, 0.0, 0.010171325877308846, 0.0, 0.0, 0.0, 0.0, 0.0, 0.0, 0.010171325877308846, 0.0, 0.0, 0.0, 0.0, 0.0, 0.0, 0.010171325877308846, 0.0, 0.0, 0.0, 0.0, 0.0, 0.0, 0.010171325877308846)",0.0,0.0,0.0,0.0,0.0,0.0,"(0.0, 0.0, 0.0, 0.0, 0.0, 0.0, 0.0, 0.0, 0.0, 0.0, 0.0, 0.0, 0.0, 0.0, 0.0, 0.0, 0.0, 0.0, 0.0, 0.0, 0.0, 0.0, 0.0, 0.0, 0.0, 0.0, 0.0, 0.0, 0.0, 0.0, 0.0, 0.0, 0.0, 0.0, 0.0, 0.0)"
1704351532.7994993,1487065,1704351532,784488916,map,base_link,2.257591143397387,10.205418078204376,-0.06875957080567874,0.003216656182732775,-0.00773762917568472,0.9663012102799388,0.25727758011390583,"(0.010219387710094452, 0.0, 0.0, 0.0, 0.0, 0.0, 0.0, 0.010219387710094452, 0.0, 0.0, 0.0, 0.0, 0.0, 0.0, 0.010219387710094452, 0.0, 0.0, 0.0, 0.0, 0.0, 0.0, 0.010219387710094452, 0.0, 0.0, 0.0, 0.0, 0.0, 0.0, 0.010219387710094452, 0.0, 0.0, 0.0, 0.0, 0.0, 0.0, 0.010219387710094452)",0.0,0.0,0.0,0.0,0.0,0.0,"(0.0, 0.0, 0.0, 0.0, 0.0, 0.0, 0.0, 0.0, 0.0, 0.0, 0.0, 0.0, 0.0, 0.0, 0.0, 0.0, 0.0, 0.0, 0.0, 0.0, 0.0, 0.0, 0.0, 0.0, 0.0, 0.0, 0.0, 0.0, 0.0, 0.0, 0.0, 0.0, 0.0, 0.0, 0.0, 0.0)"
1704351532.8402262,1487066,1704351532,833829641,map,base_link,2.2389976997387473,10.20604231899353,-0.07394722411833465,0.004292268428771625,-0.0075109589199035594,0.9680615344338179,0.25056342007060955,"(0.010169296525418758, 0.0, 0.0, 0.0, 0.0, 0.0, 0.0, 0.010169296525418758, 0.0, 0.0, 0.0, 0.0, 0.0, 0.0, 0.010169296525418758, 0.0, 0.0, 0.0, 0.0, 0.0, 0.0, 0.010169296525418758, 0.0, 0.0, 0.0, 0.0, 0.0, 0.0, 0.010169296525418758, 0.0, 0.0, 0.0, 0.0, 0.0, 0.0, 0.010169296525418758)",0.0,0.0,0.0,0.0,0.0,0.0,"(0.0, 0.0, 0.0, 0.0, 0.0, 0.0, 0.0, 0.0, 0.0, 0.0, 0.0, 0.0, 0.0, 0.0, 0.0, 0.0, 0.0, 0.0, 0.0, 0.0, 0.0, 0.0, 0.0, 0.0, 0.0, 0.0, 0.0, 0.0, 0.0, 0.0, 0.0, 0.0, 0.0, 0.0, 0.0, 0.0)"
1704351532.9011617,1487067,1704351532,883962870,map,base_link,2.235023312011498,10.216801847000387,-0.06959976590344197,0.0037525360831495106,-0.0077049735689720756,0.9698949308288857,0.24337291346342776,"(0.010193288326263428, 0.0, 0.0, 0.0, 0.0, 0.0, 0.0, 0.010193288326263428, 0.0, 0.0, 0.0, 0.0, 0.0, 0.0, 0.010193288326263428, 0.0, 0.0, 0.0, 0.0, 0.0, 0.0, 0.010193288326263428, 0.0, 0.0, 0.0, 0.0, 0.0, 0.0, 0.010193288326263428, 0.0, 0.0, 0.0, 0.0, 0.0, 0.0, 0.010193288326263428)",0.0,0.0,0.0,0.0,0.0,0.0,"(0.0, 0.0, 0.0, 0.0, 0.0, 0.0, 0.0, 0.0, 0.0, 0.0, 0.0, 0.0, 0.0, 0.0, 0.0, 0.0, 0.0, 0.0, 0.0, 0.0, 0.0, 0.0, 0.0, 0.0, 0.0, 0.0, 0.0, 0.0, 0.0, 0.0, 0.0, 0.0, 0.0, 0.0, 0.0, 0.0)"
1704351532.94421,1487068,1704351532,934365511,map,base_link,2.215247496134706,10.21928928438218,-0.06833745271036196,0.004982005244909061,-0.006949942427584496,0.971834283571731,0.23551009150058366,"(0.010193195194005966, 0.0, 0.0, 0.0, 0.0, 0.0, 0.0, 0.010193195194005966, 0.0, 0.0, 0.0, 0.0, 0.0, 0.0, 0.010193195194005966, 0.0, 0.0, 0.0, 0.0, 0.0, 0.0, 0.010193195194005966, 0.0, 0.0, 0.0, 0.0, 0.0, 0.0, 0.010193195194005966, 0.0, 0.0, 0.0, 0.0, 0.0, 0.0, 0.010193195194005966)",0.0,0.0,0.0,0.0,0.0,0.0,"(0.0, 0.0, 0.0, 0.0, 0.0, 0.0, 0.0, 0.0, 0.0, 0.0, 0.0, 0.0, 0.0, 0.0, 0.0, 0.0, 0.0, 0.0, 0.0, 0.0, 0.0, 0.0, 0.0, 0.0, 0.0, 0.0, 0.0, 0.0, 0.0, 0.0, 0.0, 0.0, 0.0, 0.0, 0.0, 0.0)"
